[{"feed":"aavictoria.ca","slug":"daybreak-14","name":"Daybreak","day":0,"time":"06:30","end_time":"07:30","types":["X","ONL"],"state":"BC","postal_code":"V9B 2Y2","city":"Victoria","address":"935 Goldstream Ave","latitude":48.4506088,"longitude":-123.5074187,"location":"Gordon United Church","notes":"In person Sat & Sun and all Stat holidays\nZoom only Monday to Friday","conference_url":"https://zoom.us/j/544309988","url":"https://aavictoria.ca/meetings/daybreak-14/","timezone":"America/Vancouver"},{"feed":"aavictoria.ca","slug":"attitude-adjustment-14","name":"Attitude Adjustment","day":0,"time":"07:00","end_time":"08:00","types":["C","ONL"],"state":"BC","city":"Victoria","latitude":48.4284207,"longitude":-123.3656444,"location":"zoom meeting","notes":"Last meeting of the month is an open meeting","conference_url":"https://us02web.zoom.us/j/9509922231?pwd=amFaOXZVMmhVakVPamo0N0JvWkF0QT09","url":"https://aavictoria.ca/meetings/attitude-adjustment-14/","timezone":"America/Vancouver"},{"feed":"aavictoria.ca","slug":"attitude-adjustment-7","name":"Attitude Adjustment","day":0,"time":"07:00","end_time":"08:00","types":["C","X"],"state":"BC","postal_code":"V8V 1S1","city":"Victoria","address":"511 Michigan St","latitude":48.416761,"longitude":-123.3725357,"location":"James Bay United Church","notes":"Open meeting on the last Saturday of each month.","url":"https://aavictoria.ca/meetings/attitude-adjustment-7/","timezone":"America/Vancouver"},{"feed":"aavictoria.ca","slug":"new-dawn-morning-womens-meeting-6","name":"New Dawn","day":0,"time":"07:00","end_time":"08:00","types":["W","ONL"],"state":"BC","city":"Victoria","latitude":48.4284207,"longitude":-123.3656444,"location":"zoom meeting","notes":"Womens meeting","conference_url":"https://zoom.us/j/85988284221?pwd=NVBCem5Yb1Y3bDMvTmtoVzhIdnBPQT09","url":"https://aavictoria.ca/meetings/new-dawn-morning-womens-meeting-6/","timezone":"America/Vancouver"},{"feed":"nanaimoaa.org","slug":"pass-it-on-sun","name":"Pass It On","day":0,"time":"07:00","types":["D","ONLINE","O","ONL"],"state":"BC","city":"Nanaimo","latitude":49.1658836,"longitude":-123.9400647,"location":"Nanaimo","region":"Nanaimo Area","notes":"Meeting ID: 365 940 2175\nPasscode: 02092000","conference_url":"https://us02web.zoom.us/j/3659402175?pwd=YWs0QUMxYWx4ZjhLRU1HT0xGdTNvdz09","url":"https://nanaimoaa.org/meetings/pass-it-on-sun/","group":"Pass It On","timezone":"America/Los_Angeles"},{"feed":"aavictoria.ca","slug":"back-to-basics-7","name":"Back to Basics","day":0,"time":"07:30","end_time":"08:30","state":"BC","postal_code":"V8V 3L4","city":"Victoria","address":"1273 Fort St","latitude":48.4230234,"longitude":-123.3461525,"location":"Grace Lutheran Church","notes":"Beginners Meeting","url":"https://aavictoria.ca/meetings/back-to-basics-7/","timezone":"America/Vancouver"},{"feed":"area78.org","slug":"as-she-rises-womens-meeting","name":"As She Rises Women's Meeting","day":0,"time":"08:30","end_time":"09:30","types":["C","D","W"],"state":"BC","postal_code":"V1C 2W8","city":"Cranbrook","address":"1402 1st St S","latitude":49.5104683,"longitude":-115.76136,"location":"Community Living Center","region":"Cranbrook","url":"https://area78aa.org/meetings/as-she-rises-womens-meeting/","timezone":"America/Edmonton"},{"feed":"aavictoria.ca","slug":"discovery-mens-meeting-6","name":"Discovery Men's Meeting","day":0,"time":"08:30","end_time":"09:30","types":["D","M"],"state":"BC","postal_code":"V8T 2L7","city":"Victoria","address":"627 Dunedin St","latitude":48.4413961,"longitude":-123.3713418,"url":"https://aavictoria.ca/meetings/discovery-mens-meeting-6/","timezone":"America/Vancouver"},{"feed":"aavictoria.ca","slug":"hearts-of-mayne-group","name":"Hearts of Mayne Group","day":0,"time":"09:00","end_time":"10:00","types":["D"],"state":"BC","postal_code":"V0N 2J2","city":"Mayne Island","address":"526 Felix Jack Rd","latitude":48.8469951,"longitude":-123.2841419,"location":"Mayne Island Health Centre, Lower Level","notes":"Mayne Island.","url":"https://aavictoria.ca/meetings/hearts-of-mayne-group/","timezone":"America/Vancouver"},{"feed":"aavictoria.ca","slug":"sidney-noon-serenity-morning-3","name":"Sidney Zoom Meeting","day":0,"time":"09:30","end_time":"10:30","types":["ONL"],"state":"BC","city":"Sidney","latitude":48.6502411,"longitude":-123.399005,"notes":"on line","conference_url":"https://us04web.zoom.us/j/5187467295","url":"https://aavictoria.ca/meetings/sidney-noon-serenity-morning-3/","timezone":"America/Vancouver"},{"feed":"nanaimoaa.org","slug":"sunday-serenity-group","name":"Sunday Serenity (in-person)","day":0,"time":"10:00","types":["O","ASL","X"],"state":"BC","postal_code":"V9S 5B6","city":"Nanaimo","address":"321 Wallace St #206","latitude":49.1654604,"longitude":-123.939767,"location":"Nanaimo Alano Club","region":"Nanaimo Area","url":"https://nanaimoaa.org/meetings/sunday-serenity-group/","group":"Sunday Serenity Group","timezone":"America/Los_Angeles"},{"feed":"nanaimoaa.org","slug":"sunday-morning-gratitude","name":"Sunday Morning Gratitude (in-person)","day":0,"time":"10:30","types":["D","O","X"],"state":"BC","postal_code":"V9P 1T7","city":"Parksville","address":"186 Shelly Rd","latitude":49.3186961,"longitude":-124.2924723,"location":"Shelly Road Centre","region":"Parksville, Coombs &amp; Nanoose","url":"https://nanaimoaa.org/meetings/sunday-morning-gratitude/","group":"Sunday Morning Gratitude (in-person)","timezone":"America/Los_Angeles"},{"feed":"nanaimoaa.org","slug":"sunday-morning-gratitude-online","name":"Sunday Morning Gratitude (online)","day":0,"time":"10:30","end_time":"11:30","types":["D","ONLINE","O","ONL"],"state":"BC","city":"Parksville","latitude":49.3193375,"longitude":-124.3136412,"location":"Parksville","region":"Parksville, Coombs &amp; Nanoose","notes":"Meeting ID: 856 8031 9576\nPassword: 268283\n\nThis meeting is NOT a hybrid with the Sunday Morning Gratitude in-person meeting.","conference_url":"https://us02web.zoom.us/j/85680319576?pwd=WUdUcmNYd3RPUHBqUDhYeVFubHhaZz09","url":"https://nanaimoaa.org/meetings/sunday-morning-gratitude-online/","group":"Sunday Morning Gratitude (online)","timezone":"America/Los_Angeles"},{"feed":"nanaimoaa.org","slug":"i-am-responsible","name":"I am Responsible (in-person)","day":0,"time":"11:00","types":["D","O","X"],"state":"BC","postal_code":"V9X 1L9","city":"Nanaimo","address":"1644 MacMillan Rd","latitude":49.1139911,"longitude":-123.8656127,"location":"Cedar Heritage Centre","region":"Nanaimo Area","url":"https://nanaimoaa.org/meetings/i-am-responsible/","group":"I am Responsible (in-person)","timezone":"America/Los_Angeles"},{"feed":"nanaimoaa.org","slug":"sunday-morning-breakfast-group","name":"Sunday Morning Breakfast Group (in-person)","day":0,"time":"11:00","types":["D"],"state":"BC","postal_code":"V9R 7A4","city":"Nanaimo","address":"82 Twelfth St","latitude":49.1294478,"longitude":-123.923219,"location":"Country Grocer","region":"Nanaimo Area","url":"https://nanaimoaa.org/meetings/sunday-morning-breakfast-group/","group":"Sunday Morning Breakfast Group (in-person)","timezone":"America/Los_Angeles"},{"feed":"nanaimoaa.org","slug":"sunlight-of-the-spirit","name":"Sunlight of the Spirit (in-person)","day":0,"time":"11:00","end_time":"12:00","types":["D","O","X"],"state":"BC","postal_code":"V9T 5W5","city":"Nanaimo","address":"3137 Barons Rd","latitude":49.2085924,"longitude":-124.002176,"location":"Nanaimo District Teachers Assoc Bldg.","region":"Nanaimo Area","url":"https://nanaimoaa.org/meetings/sunlight-of-the-spirit/","group":"Sunlight of the Spirit (in-person)","timezone":"America/Los_Angeles"},{"feed":"nanaimoaa.org","slug":"noon-group-sun","name":"Noon Group (in-person)","day":0,"time":"12:00","types":["D","O","X"],"state":"BC","postal_code":"V9Y 1Y9","city":"Port Alberni","address":"3028 2nd Ave","latitude":49.2337396,"longitude":-124.8092354,"location":"Port Alberni Alano Club","region":"Port Alberni &amp; Nitinaht Lake","url":"https://nanaimoaa.org/meetings/noon-group-sun/","group":"Noon Group (Port Alberni","timezone":"America/Los_Angeles"},{"feed":"nanaimoaa.org","slug":"tofino-group-sun-noon","name":"Tofino Forever Group","day":0,"time":"12:00","end_time":"13:00","types":["D","ONLINE","O","ONL"],"state":"BC","city":"Tofino","latitude":49.1529842,"longitude":-125.9066184,"location":"Tofino, BC, Canada","region":"Tofino &amp; Ucluelet","notes":"Meeting ID: 4195859765\nPassword: 376942","conference_url":"https://zoom.us/j/4195859765","url":"https://nanaimoaa.org/meetings/tofino-group-sun-noon/","group":"Tofino Forever Group","timezone":"America/Los_Angeles"},{"feed":"aavictoria.ca","slug":"welcome-group-7","name":"Welcome Group","day":0,"time":"12:00","end_time":"13:00","types":["D","O","X"],"state":"BC","postal_code":"V8K 1S1","city":"Salt Spring Island","address":"901 N End Rd","latitude":48.8731776,"longitude":-123.5288504,"location":"Fritz Theatre Central Hall","notes":"Salt Spring Island","url":"https://aavictoria.ca/meetings/welcome-group-7/","timezone":"America/Vancouver"},{"feed":"aavictoria.ca","slug":"joe-charlie-meeting","name":"Discovery Joe & Charlie Meeting","day":0,"time":"12:30","end_time":"13:30","state":"BC","postal_code":"V8T 2L7","city":"Victoria","address":"627 Dunedin St","latitude":48.4413961,"longitude":-123.3713418,"notes":"In person","url":"https://aavictoria.ca/meetings/joe-charlie-meeting/","timezone":"America/Vancouver"},{"feed":"aavictoria.ca","slug":"discovery-32","name":"Discovery Discussion","day":0,"time":"14:30","end_time":"15:30","types":["C","D"],"state":"BC","postal_code":"V8T 2L7","city":"Victoria","address":"627 Dunedin St","latitude":48.4413961,"longitude":-123.3713418,"url":"https://aavictoria.ca/meetings/discovery-32/","timezone":"America/Vancouver"},{"feed":"aavictoria.ca","slug":"westshore-womens-solutions-2","name":"Westshore Women's Solutions","day":0,"time":"16:00","end_time":"17:00","types":["O","W"],"state":"BC","postal_code":"V9B 0A7","city":"Victoria","address":"3024 Jacklin Rd","latitude":48.4402084,"longitude":-123.5115006,"location":"Redeemer Lutheran Church","url":"https://aavictoria.ca/meetings/westshore-womens-solutions-2/","timezone":"America/Vancouver"},{"feed":"area78.org","slug":"1416-0","name":"Fernie Serenity","day":0,"time":"18:30","end_time":"19:30","types":["O"],"state":"BC","postal_code":"V0B 1M0","city":"Fernie","address":"591 4 Ave","latitude":49.5047897,"longitude":-115.0634773,"location":"Anglican Church of Canada Christ Church","region":"Fernie","notes":"Anglican Church Basement","url":"https://area78aa.org/meetings/1416-0/","group":"Fernie Serenity Group","timezone":"America/Edmonton"},{"feed":"nanaimoaa.org","slug":"sunday-night-ladies-meeting","name":"Sunday Night Ladies Meeting (hybrid / in-person)","day":0,"time":"18:30","end_time":"19:30","types":["LIT","O","X","W","ONL"],"state":"BC","postal_code":"V9S 5B6","city":"Nanaimo","address":"321 Wallace St #206","latitude":49.1654604,"longitude":-123.939767,"location":"Nanaimo Alano Club","region":"Nanaimo Area","conference_url":"https://zoom.us/j/87098271273","url":"https://nanaimoaa.org/meetings/sunday-night-ladies-meeting/","group":"Sunday Night Ladies Meeting (hybrid / in-person)","timezone":"America/Los_Angeles"},{"feed":"area78.org","slug":"482-0","name":"Back To The Basics Cranbrook","day":0,"time":"19:00","end_time":"20:00","types":["DR","D","O","EN"],"state":"BC","postal_code":"V1C 5X1","city":"Cranbrook","address":"1200 Kootenay St","latitude":49.5234254,"longitude":-115.7433179,"location":"Alliance Church","region":"Cranbrook","url":"https://area78aa.org/meetings/482-0/","group":"Back To The Basics Cranbrook Group","timezone":"America/Edmonton"},{"feed":"area78.org","slug":"493-0","name":"Seeds Of Serenity","day":0,"time":"19:00","types":["O","X"],"state":"BC","postal_code":"V1A 3C8","city":"Kimberley","address":"10 Boundary St","latitude":49.6880084,"longitude":-115.9819017,"location":"United Church","region":"Kimberley","notes":"Upstairs. Big Book Meeting.","url":"https://area78aa.org/meetings/493-0/","group":"Seeds Of Serenity Group","timezone":"America/Edmonton"},{"feed":"nanaimoaa.org","slug":"alberni-valley-group-sunday","name":"Alberni Valley Group (in-person)","day":0,"time":"19:00","end_time":"20:00","types":["C","D"],"state":"BC","postal_code":"V9Y 1V9","city":"Port Alberni","address":"4835 Argyle St","latitude":49.2348468,"longitude":-124.8059103,"location":"Salvation Army Building","region":"Port Alberni &amp; Nitinaht Lake","url":"https://nanaimoaa.org/meetings/alberni-valley-group-sunday/","group":"Alberni Valley Group","timezone":"America/Los_Angeles"},{"feed":"aavictoria.ca","slug":"any-lenth-found","name":"Any Length Found","day":0,"time":"19:00","end_time":"20:00","types":["12x12","D","O"],"state":"BC","postal_code":"V8S 3Y7","city":"Victoria","address":"600 Richmond Ave","latitude":48.4177183,"longitude":-123.3321188,"location":"St. Matthias Church","notes":"12 x 12 Discussion","url":"https://aavictoria.ca/meetings/any-lenth-found/","timezone":"America/Vancouver"},{"feed":"aavictoria.ca","slug":"gabriola-island-meeting-2","name":"Gabriola Island Meeting","day":0,"time":"19:00","end_time":"20:00","types":["O","X"],"state":"BC","postal_code":"V0R 1X3","city":"Gabriola","address":"775 Church St","latitude":49.1752967,"longitude":-123.8358654,"location":"Fellowship Church","url":"https://aavictoria.ca/meetings/gabriola-island-meeting-2/","timezone":"America/Vancouver"},{"feed":"nanaimoaa.org","slug":"nanaimo-correctional-centre-meeting-2","name":"Nanaimo Correctional Centre Meeting","day":0,"time":"19:00","end_time":"20:00","types":["D","M","X"],"state":"BC","postal_code":"V9T 5P9","city":"Nanaimo","address":"3945 Biggs Rd","latitude":49.2070705,"longitude":-124.0476768,"location":"Nanaimo Correctional Centre","region":"Nanaimo Area","notes":"Meetings open to men and women. Pre-clearance is required. Paperwork to be filed out before hand in larger font and CAPITAL LETTERS. Forms can be found at the link below\n\nPlease contact Harry S at 778-268-2356 or harry1978@shaw.ca or Joyce F at 250-716-6658 or joycef@shaw.ca for more information","url":"https://nanaimoaa.org/meetings/nanaimo-correctional-centre-meeting-2/","group":"Corrections Meeting","timezone":"America/Vancouver"},{"feed":"nanaimoaa.org","slug":"one-day-at-a-time","name":"One Day at a Time (in-person)","day":0,"time":"19:00","end_time":"20:00","types":["B","O","ST","X"],"state":"BC","postal_code":"V0R 1X3","city":"Gabriola","address":"775 Church St","latitude":49.1752967,"longitude":-123.8358654,"location":"Gabriola Fellowship Church","region":"Gabriola Island","url":"https://nanaimoaa.org/meetings/one-day-at-a-time/","group":"One Day at a Time","timezone":"America/Los_Angeles"},{"feed":"aavictoria.ca","slug":"sober-sunday","name":"Sober Sunday","day":0,"time":"19:00","end_time":"20:00","types":["C","D","X"],"state":"BC","postal_code":"V8L 5S9","city":"North Saanich","address":"1319 Mills Rd","latitude":48.6552031,"longitude":-123.4453973,"location":"Holy Trinity Church","url":"https://aavictoria.ca/meetings/sober-sunday/","timezone":"America/Vancouver"},{"feed":"nanaimoaa.org","slug":"sunday-living-sober","name":"Sunday Living Sober","day":0,"time":"19:00","end_time":"20:00","types":["O"],"state":"BC","postal_code":"V9R 5H2","city":"Nanaimo","address":"100 Chapel St","latitude":49.1675862,"longitude":-123.93734,"location":"St. Paul's Anglican Church","region":"Nanaimo Area","url":"https://nanaimoaa.org/meetings/sunday-living-sober/","group":"Sunday Living Sober (in-person)","timezone":"America/Los_Angeles"},{"feed":"aavictoria.ca","slug":"discovery-19","name":"Discovery","day":0,"time":"19:30","end_time":"20:30","types":["C","D"],"state":"BC","postal_code":"V8T 2L7","city":"Victoria","address":"627 Dunedin St","latitude":48.4413961,"longitude":-123.3713418,"notes":"Birthday meeting at noon on the last Saturday of each month.\n\nBusiness meeting at 5:30 pm on the second Tuesday of each month.","url":"https://aavictoria.ca/meetings/discovery-19/","timezone":"America/Vancouver"},{"feed":"aavictoria.ca","slug":"fearless-thorough","name":"Fearless & Thorough","day":0,"time":"19:30","end_time":"20:30","types":["B","O"],"state":"BC","postal_code":"V8V 1S1","city":"Victoria","address":"511 Michigan St","latitude":48.416761,"longitude":-123.3725357,"location":"James Bay United Church","url":"https://aavictoria.ca/meetings/fearless-thorough/","timezone":"America/Vancouver"},{"feed":"aavictoria.ca","slug":"fifth-tradition-group-5","name":"Fifth Tradition group","day":0,"time":"19:30","end_time":"20:30","types":["O"],"state":"BC","postal_code":"V0N 2M1","city":"Pender Island","address":"4405 Bedwell Harbour Rd","latitude":48.7988821,"longitude":-123.2818153,"location":"Community Church","notes":"Downstairs, around back\nAA contact Fred 1-250-526-0550","url":"https://aavictoria.ca/meetings/fifth-tradition-group-5/","timezone":"America/Vancouver"},{"feed":"nanaimoaa.org","slug":"sunday-12-12-group","name":"Sunday 12 & 12 Group (in-person)","day":0,"time":"19:30","end_time":"20:30","types":["12x12","C"],"state":"BC","postal_code":"V9P 2G9","city":"Parksville","address":"245 Hirst Ave W","latitude":49.3195527,"longitude":-124.3175932,"location":"SOS Hall (Society of Organized Services)","region":"Parksville, Coombs &amp; Nanoose","url":"https://nanaimoaa.org/meetings/sunday-12-12-group/","group":"Sunday 12 & 12 Group (in-person)","timezone":"America/Los_Angeles"},{"feed":"aavictoria.ca","slug":"sunday-night-action-group","name":"Sunday Night Action Group","day":0,"time":"19:30","end_time":"20:30","types":["D"],"state":"BC","postal_code":"V8Z 1H1","city":"Victoria","address":"274 Hampton Rd","latitude":48.4545103,"longitude":-123.3916048,"location":"Burnside Lawn Bowling Club","url":"https://aavictoria.ca/meetings/sunday-night-action-group/","timezone":"America/Vancouver"},{"feed":"nanaimoaa.org","slug":"tofino-group-sun-pm","name":"Tofino Forever Group","day":0,"time":"19:30","end_time":"20:30","types":["D","ONLINE","O","ONL"],"state":"BC","city":"Tofino","latitude":49.1529842,"longitude":-125.9066184,"location":"Tofino, BC, Canada","region":"Tofino &amp; Ucluelet","notes":"Meeting ID: 4195859765\nPassword: 376942","conference_url":"https://zoom.us/j/4195859765","url":"https://nanaimoaa.org/meetings/tofino-group-sun-pm/","group":"Tofino Forever Group","timezone":"America/Los_Angeles"},{"feed":"aavictoria.ca","slug":"westshore-womens-solutions","name":"Westshore Women's Solutions","day":0,"time":"19:30","end_time":"20:30","types":["B","D","O","TC","X"],"state":"BC","postal_code":"V9B 2Y2","city":"Victoria","address":"935 Goldstream Ave","latitude":48.4506088,"longitude":-123.5074187,"location":"Gordon United Church","notes":"\"Big Book Stories Discussion\"","url":"https://aavictoria.ca/meetings/westshore-womens-solutions/","timezone":"America/Vancouver"},{"feed":"aavictoria.ca","slug":"women-in-recovery","name":"Women in Recovery","day":0,"time":"19:30","end_time":"20:30","types":["C","X"],"state":"BC","postal_code":"V9Z 0A2","city":"Sooke","address":"1962 Murray Rd","latitude":48.3752933,"longitude":-123.7228854,"location":"Holy Trinity Church","notes":"No meeting Dec 14th (due to Church event)","url":"https://aavictoria.ca/meetings/women-in-recovery/","timezone":"America/Vancouver"},{"feed":"area78.org","slug":"1018-0","name":"Sunday Night","day":0,"time":"20:00","end_time":"21:00","types":["12x12","C","EN","X"],"state":"BC","postal_code":"V1G 4G2","city":"Dawson Creek","address":"11401 8th St","latitude":55.746897,"longitude":-120.225452,"location":"Northern Lights College","region":"Dawson Creek","notes":"Energy Room","url":"https://area78aa.org/meetings/1018-0/","group":"Sunday Night Meeting","timezone":"America/Edmonton"},{"feed":"aavictoria.ca","slug":"last-chance","name":"Last Chance","day":0,"time":"20:00","end_time":"21:00","types":["C","X"],"state":"BC","postal_code":"V9A 2N4","city":"Victoria","address":"500 Admirals Rd","latitude":48.4284569,"longitude":-123.4173809,"location":"Esquimalt United Church","url":"https://aavictoria.ca/meetings/last-chance/","timezone":"America/Vancouver"},{"feed":"aavictoria.ca","slug":"sobriety-tonite-7","name":"Sobriety Tonite","day":0,"time":"20:00","end_time":"21:00","types":["12x12","O","ONL"],"state":"BC","city":"Victoria","latitude":48.4284207,"longitude":-123.3656444,"location":"zoom meeting","conference_url":"https://us06web.zoom.us/j/2304281465","url":"https://aavictoria.ca/meetings/sobriety-tonite-7/","timezone":"America/Vancouver"},{"feed":"area78.org","slug":"tri-unity-group","name":"Tri Unity Group","day":0,"time":"20:00","end_time":"21:00","types":["12x12","C","EN"],"state":"BC","postal_code":"V1J 1Y6","city":"Fort St John","address":"10116 100 Ave","latitude":56.246705,"longitude":-120.849742,"location":"Old Salvation Army","region":"Fort Saint John","url":"https://area78aa.org/meetings/tri-unity-group/","timezone":"America/Edmonton"},{"feed":"aavictoria.ca","slug":"westshore-basics-2","name":"Westshore Basics","day":0,"time":"20:00","end_time":"21:00","types":["C","D"],"state":"BC","postal_code":"V9B 2Y2","city":"Victoria","address":"935 Goldstream Ave","latitude":48.4506088,"longitude":-123.5074187,"location":"Gordon United Church","url":"https://aavictoria.ca/meetings/westshore-basics-2/","timezone":"America/Vancouver"},{"feed":"area78.org","slug":"sunrise-meeting","name":"Sunrise Meeting","day":1,"time":"06:00","end_time":"07:00","types":["C","DR","X"],"state":"BC","postal_code":"V1G 4V8","city":"Dawson Creek","address":"1100 Alaska Ave #104","latitude":55.7604851,"longitude":-120.2305797,"location":"1100 Alaska Ave #104, Dawson Creek, BC V1G 4V8, Canada","region":"Dawson Creek","url":"https://area78aa.org/meetings/sunrise-meeting/","timezone":"America/Edmonton"},{"feed":"aavictoria.ca","slug":"daybreak-8","name":"Daybreak","day":1,"time":"06:30","end_time":"07:30","types":["X","ONL"],"state":"BC","city":"Victoria","latitude":48.4284207,"longitude":-123.3656444,"location":"zoom meeting","notes":"In person Fri-Sat-Sun-Mon and all Stat holidays\nZoom 7 days a week","conference_url":"https://zoom.us/j/544309988","url":"https://aavictoria.ca/meetings/daybreak-8/","timezone":"America/Vancouver"},{"feed":"aavictoria.ca","slug":"attitude-adjustment","name":"Attitude Adjustment","day":1,"time":"07:00","end_time":"08:00","types":["C"],"state":"BC","postal_code":"V8V 1S1","city":"Victoria","address":"511 Michigan St","latitude":48.416761,"longitude":-123.3725357,"location":"James Bay United Church","url":"https://aavictoria.ca/meetings/attitude-adjustment/","group":"Attitude Adjustment Group","timezone":"America/Vancouver"},{"feed":"aavictoria.ca","slug":"attitude-adjustment-8","name":"Attitude Adjustment","day":1,"time":"07:00","end_time":"08:00","types":["ONL"],"state":"BC","city":"Victoria","latitude":48.4284207,"longitude":-123.3656444,"location":"zoom meeting","conference_url":"https://us02web.zoom.us/j/9509922231?pwd=amFaOXZVMmhVakVPamo0N0JvWkF0QT09","url":"https://aavictoria.ca/meetings/attitude-adjustment-8/","timezone":"America/Vancouver"},{"feed":"aavictoria.ca","slug":"new-dawn-morning-womens-meeting","name":"New Dawn","day":1,"time":"07:00","end_time":"08:00","types":["W","ONL"],"state":"BC","city":"Victoria","latitude":48.4284207,"longitude":-123.3656444,"location":"zoom meeting","notes":"Womens meeting","conference_url":"https://zoom.us/j/85988284221?pwd=NVBCem5Yb1Y3bDMvTmtoVzhIdnBPQT09","url":"https://aavictoria.ca/meetings/new-dawn-morning-womens-meeting/","timezone":"America/Vancouver"},{"feed":"nanaimoaa.org","slug":"pass-it-on-mon","name":"Pass It On (Hybrid / in-person)","day":1,"time":"07:00","types":["D","O","X","ONL"],"state":"BC","postal_code":"V9S 5B6","city":"Nanaimo","address":"321 Wallace St #206","latitude":49.1654604,"longitude":-123.939767,"location":"Nanaimo Alano Club","region":"Nanaimo Area","notes":"Hybrid meeting - both Zoom and in person meeting\nMeeting ID: 365 940 2175\nPasscode: 02092000","conference_url":"https://us02web.zoom.us/j/3659402175?pwd=YWs0QUMxYWx4ZjhLRU1HT0xGdTNvdz09","url":"https://nanaimoaa.org/meetings/pass-it-on-mon/","group":"Pass It On","timezone":"America/Los_Angeles"},{"feed":"aavictoria.ca","slug":"monday-night-step-and-tradition","name":"Monday Night Step and Tradition","day":1,"time":"07:30","end_time":"08:30","types":["ONL"],"state":"BC","city":"Sidney","latitude":48.6502411,"longitude":-123.399005,"conference_url":"https://zoom.us/j/86193846685?pwd=SUNHYTE4M0pqUTc3Z2ZpWVUyb21zdz09","url":"https://aavictoria.ca/meetings/monday-night-step-and-tradition/","timezone":"America/Vancouver"},{"feed":"aavictoria.ca","slug":"discovery-3","name":"Discovery","day":1,"time":"09:30","end_time":"10:30","types":["12x12","D"],"state":"BC","postal_code":"V8T 2L7","city":"Victoria","address":"627 Dunedin St","latitude":48.4413961,"longitude":-123.3713418,"url":"https://aavictoria.ca/meetings/discovery-3/","timezone":"America/Vancouver"},{"feed":"nanaimoaa.org","slug":"brown-baggers-monday","name":"Brown Baggers Monday (in-person)","day":1,"time":"12:00","end_time":"13:00","types":["D","O"],"state":"BC","postal_code":"V9P 1T7","city":"Parksville","address":"186 Shelly Rd","latitude":49.3186961,"longitude":-124.2924723,"location":"Shelly Road Centre","region":"Parksville, Coombs &amp; Nanoose","url":"https://nanaimoaa.org/meetings/brown-baggers-monday/","group":"Brown Baggers","timezone":"America/Los_Angeles"},{"feed":"area78.org","slug":"conscious-contact-11th-step-group","name":"Conscious Contact 11th Step Group","day":1,"time":"12:00","end_time":"13:00","types":["C","DR"],"state":"BC","postal_code":"V1A 1H3","city":"Kimberley","address":"395 Marsden St","latitude":49.66946,"longitude":-115.973616,"location":"The Baptist Church","region":"Kimberley","url":"https://area78aa.org/meetings/conscious-contact-11th-step-group/","timezone":"America/Edmonton"},{"feed":"aavictoria.ca","slug":"daily-reprieve","name":"Daily Reprieve","day":1,"time":"12:00","end_time":"13:00","types":["C"],"state":"BC","postal_code":"V8W 1C1","city":"Victoria","address":"680 Courtney St","latitude":48.4234372,"longitude":-123.3663494,"location":"Kirk Hall, St. Andrew's Presbyterian Church","url":"https://aavictoria.ca/meetings/daily-reprieve/","timezone":"America/Vancouver"},{"feed":"aavictoria.ca","slug":"discovery","name":"Discovery","day":1,"time":"12:00","end_time":"13:00","types":["C","D"],"state":"BC","postal_code":"V8T 2L7","city":"Victoria","address":"627 Dunedin St","latitude":48.4413961,"longitude":-123.3713418,"notes":"Birthday meeting at noon on the last Saturday of each month.\n\nBusiness meeting at 5:30 pm on the second Tuesday of each month.","url":"https://aavictoria.ca/meetings/discovery/","group":"Discovery Group","timezone":"America/Vancouver"},{"feed":"aavictoria.ca","slug":"keystone-group","name":"Keystone Group","day":1,"time":"12:00","end_time":"13:00","types":["X","ONL"],"state":"BC","postal_code":"V8V 3G8","city":"Victoria","address":"911 Quadra St","latitude":48.42205,"longitude":-123.35878,"location":"Christ Church Cathedral","notes":"Hybrid meeting; zoom and in person","conference_url":"https://zoom.us/j/86455288508?pwd=ZVRkWIg3NHIqbU0ySHJvYW15Tn0UT09","url":"https://aavictoria.ca/meetings/keystone-group/","timezone":"America/Vancouver"},{"feed":"nanaimoaa.org","slug":"let-it-begin-with-me-mon","name":"Let it Begin With Me (in-person)","day":1,"time":"12:00","end_time":"13:00","types":["D","O","X"],"state":"BC","postal_code":"V9R 3J2","city":"Nanaimo","address":"445 Comox Rd","latitude":49.1692173,"longitude":-123.9441625,"location":"Scout Hut","region":"Nanaimo Area","url":"https://nanaimoaa.org/meetings/let-it-begin-with-me-mon/","group":"Let it Begin with me","timezone":"America/Los_Angeles"},{"feed":"nanaimoaa.org","slug":"noon-group-mon","name":"Noon Group (in-person)","day":1,"time":"12:00","types":["D","O","X"],"state":"BC","postal_code":"V9Y 1Y9","city":"Port Alberni","address":"3028 2nd Ave","latitude":49.2337396,"longitude":-124.8092354,"location":"Port Alberni Alano Club","region":"Port Alberni &amp; Nitinaht Lake","url":"https://nanaimoaa.org/meetings/noon-group-mon/","group":"Noon Group (Port Alberni","timezone":"America/Los_Angeles"},{"feed":"nanaimoaa.org","slug":"north-port-nooner","name":"North Port Nooner","day":1,"time":"12:00","end_time":"13:00","state":"BC","postal_code":"V9Y 5W9","city":"Port Alberni","address":"4283 Glenside Rd","latitude":49.2663285,"longitude":-124.8009761,"location":"Arrowsmith Baptist Church","region":"Port Alberni &amp; Nitinaht Lake","url":"https://nanaimoaa.org/meetings/north-port-nooner/","group":"North Port Nooner","timezone":"America/Los_Angeles"},{"feed":"aavictoria.ca","slug":"sidney-noon-serenity-10","name":"Sidney Noon Serenity","day":1,"time":"12:00","end_time":"13:00","types":["C","X"],"state":"BC","postal_code":"V8L 3B3","city":"Sidney","address":"10030 Third St","latitude":48.654502,"longitude":-123.398196,"location":"St. Elisabeth's Church","notes":"Social Distancing and masks required","url":"https://aavictoria.ca/meetings/sidney-noon-serenity-10/","timezone":"America/Vancouver"},{"feed":"nanaimoaa.org","slug":"tofino-group-mon-noon","name":"Tofino Forever Group","day":1,"time":"12:00","end_time":"13:00","types":["D","ONLINE","O","ONL"],"state":"BC","city":"Tofino","latitude":49.1529842,"longitude":-125.9066184,"location":"Tofino, BC, Canada","region":"Tofino &amp; Ucluelet","notes":"Meeting ID: 4195859765\nPassword: 376942","conference_url":"https://zoom.us/j/4195859765","url":"https://nanaimoaa.org/meetings/tofino-group-mon-noon/","group":"Tofino Forever Group","timezone":"America/Los_Angeles"},{"feed":"nanaimoaa.org","slug":"trudging-the-broad-hwy","name":"Trudging The Broad Hwy (in-person) Meeting","day":1,"time":"12:00","end_time":"13:00","types":["D","O","X"],"state":"BC","postal_code":"V9T 1C9","city":"Nanaimo","address":"4235 Departure Bay Rd","latitude":49.2068381,"longitude":-124.0007394,"location":"St. Andrews Presbyterian","region":"Nanaimo Area","notes":"In compliance with the rental premise's direction, proof of vaccination must be shown prior to entry.","url":"https://nanaimoaa.org/meetings/trudging-the-broad-hwy/","timezone":"America/Los_Angeles"},{"feed":"aavictoria.ca","slug":"welcome-group","name":"Welcome Group","day":1,"time":"12:00","end_time":"13:00","types":["B","D","O","X"],"state":"BC","postal_code":"V8K 1S1","city":"Salt Spring Island","address":"901 N End Rd","latitude":48.8731776,"longitude":-123.5288504,"location":"Fritz Theatre Central Hall","notes":"Salt Spring Island","url":"https://aavictoria.ca/meetings/welcome-group/","timezone":"America/Vancouver"},{"feed":"aavictoria.ca","slug":"what-it-was-like","name":"What it was like","day":1,"time":"12:00","end_time":"13:00","types":["O","X"],"state":"BC","postal_code":"V9B 1X1","city":"Victoria","address":"2250 Sooke Rd","latitude":48.4345197,"longitude":-123.4934744,"location":"Colwood Church","url":"https://aavictoria.ca/meetings/what-it-was-like/","timezone":"America/Vancouver"},{"feed":"aavictoria.ca","slug":"high-nooners-2","name":"High Nooners","day":1,"time":"12:30","end_time":"13:30","types":["O"],"state":"BC","postal_code":"V0N 2M1","city":"Pender Island","address":"4405 Bedwell Harbour Rd","latitude":48.7988821,"longitude":-123.2818153,"location":"Community Church","url":"https://aavictoria.ca/meetings/high-nooners-2/","timezone":"America/Vancouver"},{"feed":"nanaimoaa.org","slug":"beyond-belief-agnostic-meeting","name":"Beyond Belief (Agnostic Meeting)","day":1,"time":"16:30","end_time":"17:30","types":["D","O","X"],"state":"BC","postal_code":"V9T 5M4","city":"Nanaimo","address":"6250 Hammond Bay Rd","latitude":49.2349688,"longitude":-124.0385868,"location":"Nanaimo North Library","region":"Nanaimo Area","notes":"Beyond Belief is an agnostic and freethinkers meeting of Alcoholics Anonymous. All are welcome. Please do not smoke anywhere on library property and attendees are asked to keep voices down outside the meeting room in the main lobby of the library.","url":"https://nanaimoaa.org/meetings/beyond-belief-agnostic-meeting/","group":"Beyond Belief","timezone":"America/Vancouver"},{"feed":"nanaimoaa.org","slug":"early-evening-candlelight-group","name":"5pm Candlelight Meeting (in-person)","day":1,"time":"17:00","types":["D","O","X"],"state":"BC","postal_code":"V9S 3W9","city":"Nanaimo","address":"2730 Departure Bay Rd","latitude":49.2031204,"longitude":-123.9703271,"location":"Kin Hut","region":"Nanaimo Area","notes":"***NOTE***\nThe 5 pm Candlelight group will not be able to meet at the Kin Hut, where it normally meets, on Monday July 1st because of Canada Day Celebrations happening at Departure Bay Beach. Instead, we will be meeting in the field of Departure Bay Centennial Park, across the road from the beach, with parking on Wingrove street. It is hoped that there will be lots of room for us to meet there even with the busy festivities at the beach that day. Please bring chairs.","url":"https://nanaimoaa.org/meetings/early-evening-candlelight-group/","group":"5pm Candlelight Meeting (in-person)","timezone":"America/Los_Angeles"},{"feed":"aavictoria.ca","slug":"sobrettes","name":"Soberettes","day":1,"time":"18:00","end_time":"19:00","types":["ABSI","C","X","XB","W","ONL"],"state":"BC","postal_code":"V8P 5J6","city":"Victoria","address":"1445 Ocean View Rd","latitude":48.4515258,"longitude":-123.3436776,"location":"Saanich Volunteer Services Society","notes":"Hybrid: simultaneous Zoom and in-person\n\nTopic readings from As Bill Sees It\nPDF of book is at:\n\nhttps://paintedbrain.org/wp-content/uploads/2020/07/As-Bill-Sees-It.pdf","conference_url":"https://us02web.zoom.us/j/83103325017?pwd=ZUpFU0ZSWGtnWHY2TkJTdy9tZnhaQT09","url":"https://aavictoria.ca/meetings/sobrettes/","timezone":"America/Vancouver"},{"feed":"aavictoria.ca","slug":"emotional-sobriety","name":"Emotional Sobriety","day":1,"time":"18:30","end_time":"19:30","types":["C","X","W"],"state":"BC","postal_code":"V8W 1M2","city":"Victoria","address":"525 Johnson St","latitude":48.4275164,"longitude":-123.3696701,"location":"Salvation Army","url":"https://aavictoria.ca/meetings/emotional-sobriety/","timezone":"America/Vancouver"},{"feed":"area78.org","slug":"1312-1","name":"Creston Central","day":1,"time":"19:00","end_time":"20:00","types":["O"],"state":"BC","postal_code":"V0B 1G0","city":"Creston","address":"422 7 Ave N","latitude":49.0999498,"longitude":-116.5170016,"location":"Anglican Christ Church","region":"Creston","notes":"Mon - Discussion Meeting /\nWed - Big Book Study /\nFri - Discussion Group. Potluck and birthday last Friday of the month, 6:30 PM.","url":"https://area78aa.org/meetings/1312-1/","group":"Creston Central Group","timezone":"America/Edmonton"},{"feed":"area78.org","slug":"1793-1","name":"Sparwood AA","day":1,"time":"19:00","end_time":"20:00","types":["B","O","EN"],"state":"BC","postal_code":"V0B 2G0","city":"Sparwood","address":"140 Spruce Ave","latitude":49.7332455,"longitude":-114.8867372,"location":"Sparwood USW Hall green bldg","region":"Sparwood","notes":"Monday at 7pm. Thursday 8 pm. Everyone welcome- can be open or closed as needed.","url":"https://area78aa.org/meetings/1793-1/","group":"Sparwood AA Group","timezone":"America/Edmonton"},{"feed":"area78.org","slug":"488-1","name":"Monday Night Downtown","day":1,"time":"19:00","end_time":"20:00","types":["C","DR","X"],"state":"BC","postal_code":"V1C 2W8","city":"Cranbrook","address":"1402 1st St S","latitude":49.5104683,"longitude":-115.76136,"location":"Community Living Center","region":"Cranbrook","notes":"The meeting takes place at the Community Living Center. Also known as the CCLC","url":"https://area78aa.org/meetings/488-1/","group":"Monday Night Downtown Group","timezone":"America/Edmonton"},{"feed":"nanaimoaa.org","slug":"big-book-group-mon","name":"Big Book Cover to Cover (in-person)","day":1,"time":"19:00","end_time":"20:00","types":["B","C","X"],"state":"BC","postal_code":"V9T 5W5","city":"Nanaimo","address":"3137 Barons Rd","latitude":49.2085924,"longitude":-124.002176,"location":"Nanaimo District Teachers Assoc Bldg.","region":"Nanaimo Area","notes":"Bring your Big Book","url":"https://nanaimoaa.org/meetings/big-book-group-mon/","group":"Big Book Cover to Cover (in-person)","timezone":"America/Los_Angeles"},{"feed":"nanaimoaa.org","slug":"echo-group","name":"Echo Group (in-person)","day":1,"time":"19:00","types":["D","O"],"state":"BC","postal_code":"V9Y 3Z2","city":"Port Alberni","address":"4780 Roger St","latitude":49.2541122,"longitude":-124.80459,"location":"Mental Health Building","region":"Port Alberni &amp; Nitinaht Lake","url":"https://nanaimoaa.org/meetings/echo-group/","timezone":"America/Los_Angeles"},{"feed":"aavictoria.ca","slug":"fairfield-group","name":"Fairfield Group","day":1,"time":"19:00","end_time":"20:00","types":["O","X"],"state":"BC","postal_code":"V8V 3L4","city":"Victoria","address":"1273 Fort St","latitude":48.4230234,"longitude":-123.3461525,"location":"Grace Lutheran Church","url":"https://aavictoria.ca/meetings/fairfield-group/","timezone":"America/Vancouver"},{"feed":"area78.org","slug":"grizzly-valley-big-book-study","name":"Grizzly Valley Big Book Study","day":1,"time":"19:00","end_time":"20:00","types":["B","O","EN"],"state":"BC","postal_code":"V0C 2W0","city":"Tumbler Ridge","address":"176 Chamberlain Crescent","latitude":55.1262073,"longitude":-121.0078166,"region":"Tumbler Ridge","url":"https://area78aa.org/meetings/grizzly-valley-big-book-study/","timezone":"America/Edmonton"},{"feed":"area78.org","slug":"newcomers-group","name":"Newcomers Group","day":1,"time":"19:00","end_time":"20:00","types":["C","BE","X","EN"],"state":"BC","postal_code":"V1J 6M9","city":"Fort St John","address":"Fort St. John Health Unit, 10115 110 Ave","latitude":56.2547982,"longitude":-120.8503497,"location":"Fort Saint John Health Unit","region":"Fort Saint John","notes":"Last Monday of the month open for cake meeting","url":"https://area78aa.org/meetings/newcomers-group/","timezone":"America/Edmonton"},{"feed":"aavictoria.ca","slug":"otter-point-1","name":"Otter Point #1","day":1,"time":"19:00","end_time":"20:00","types":["O"],"state":"BC","postal_code":"V9Z 0A2","city":"Sooke","address":"1962 Murray Rd","latitude":48.3752933,"longitude":-123.7228854,"location":"Holy Trinity Church","url":"https://aavictoria.ca/meetings/otter-point-1/","timezone":"America/Vancouver"},{"feed":"aavictoria.ca","slug":"serenity-by-the-sea","name":"Serenity by the Sea","day":1,"time":"19:00","end_time":"20:00","types":["O","X","TC"],"state":"BC","postal_code":"V0S 1K0","city":"Port Renfrew","address":"6638 Deering Rd","latitude":48.5572155,"longitude":-124.4001414,"location":"Port Renfrew Recreation Centre","url":"https://aavictoria.ca/meetings/serenity-by-the-sea/","timezone":"America/Vancouver"},{"feed":"area78.org","slug":"serenity-in-the-peace-5","name":"Serenity in the Peace","day":1,"time":"19:00","end_time":"20:00","types":["12x12","EN","X"],"state":"BC","postal_code":"V1G 2W1","city":"Dawson Creek","address":"1001 110 Ave","latitude":55.750487,"longitude":-120.2348694,"location":"Dawson Creek Health Unit","region":"Dawson Creek","notes":"Dawson Creek Health Unit","url":"https://area78aa.org/meetings/serenity-in-the-peace-5/","group":"Serenity in the Peace Group","timezone":"America/Edmonton"},{"feed":"aavictoria.ca","slug":"friends-of-bill","name":"Friends of Bill","day":1,"time":"19:15","end_time":"20:15","types":["B","C","D","M","X"],"state":"BC","postal_code":"V9C 1E5","city":"Victoria","address":"595 Galiano Crescent","latitude":48.4360638,"longitude":-123.4535624,"location":"Our Lady of the Sea Military Chapel","notes":"Bring your own Big Book\nMen only meeting","url":"https://aavictoria.ca/meetings/friends-of-bill/","timezone":"America/Vancouver"},{"feed":"aavictoria.ca","slug":"back-to-basics","name":"Back to Basics","day":1,"time":"19:30","end_time":"20:30","state":"BC","postal_code":"V8V 3L4","city":"Victoria","address":"1273 Fort St","latitude":48.4230234,"longitude":-123.3461525,"location":"Grace Lutheran Church","notes":"Beginners meeting","url":"https://aavictoria.ca/meetings/back-to-basics/","timezone":"America/Vancouver"},{"feed":"nanaimoaa.org","slug":"big-book-group","name":"Monday Night Big Book Group (in-person)","day":1,"time":"19:30","end_time":"20:30","types":["B","C"],"state":"BC","postal_code":"V9T 5P1","city":"Nanaimo","address":"4951 Rutherford Rd","latitude":49.2181736,"longitude":-124.0235367,"location":"Neighbourhood Church","region":"Nanaimo Area","url":"https://nanaimoaa.org/meetings/big-book-group/","group":"Monday Night Big Book Group (in-person)","timezone":"America/Los_Angeles"},{"feed":"aavictoria.ca","slug":"cobble-hill-discussion-2","name":"Cobble Hill Discussion","day":1,"time":"19:30","end_time":"20:30","types":["D"],"state":"BC","postal_code":"V0R 1L6","city":"Cobble Hill","address":"3141 Cameron Taggart Rd","latitude":48.6709241,"longitude":-123.5993628,"location":"The Shack","url":"https://aavictoria.ca/meetings/cobble-hill-discussion-2/","timezone":"America/Vancouver"},{"feed":"aavictoria.ca","slug":"discovery-2","name":"Discovery Beginners Meeting","day":1,"time":"19:30","end_time":"20:30","types":["BE","O"],"state":"BC","postal_code":"V8T 2L7","city":"Victoria","address":"627 Dunedin St","latitude":48.4413961,"longitude":-123.3713418,"notes":"Beginners' Meeting.\n\nBirthday meeting at noon on the last Saturday of each month.\n\nBusiness meeting at 5:30 pm on the second Tuesday of each month.","url":"https://aavictoria.ca/meetings/discovery-2/","timezone":"America/Vancouver"},{"feed":"nanaimoaa.org","slug":"emotional-sobriety","name":"Emotional Sobriety (in-person)","day":1,"time":"19:30","end_time":"20:30","types":["C","D"],"state":"BC","postal_code":"V9P 1T7","city":"Parksville","address":"186 Shelly Rd","latitude":49.3186961,"longitude":-124.2924723,"location":"Shelly Road Centre","region":"Parksville, Coombs &amp; Nanoose","url":"https://nanaimoaa.org/meetings/emotional-sobriety/","group":"Emotional Sobriety (in-person)","timezone":"America/Los_Angeles"},{"feed":"aavictoria.ca","slug":"generation-next","name":"Generation Next","day":1,"time":"19:30","end_time":"20:30","types":["O","X","Y"],"state":"BC","postal_code":"V8X 2H4","city":"Victoria","address":"1095 Tolmie Ave","latitude":48.4490092,"longitude":-123.3591886,"location":"Parkdale Evangelical Church","url":"https://aavictoria.ca/meetings/generation-next/","timezone":"America/Vancouver"},{"feed":"aavictoria.ca","slug":"gordon-head-big-book-study","name":"Gordon Head Big Book Study","day":1,"time":"19:30","end_time":"20:30","types":["B","O","ST","X"],"state":"BC","postal_code":"V8N 3X7","city":"Victoria","address":"4049 Gordon Head Rd","latitude":48.4745272,"longitude":-123.3121775,"location":"Holy Cross Church","url":"https://aavictoria.ca/meetings/gordon-head-big-book-study/","timezone":"America/Vancouver"},{"feed":"nanaimoaa.org","slug":"ladysmith-reflections","name":"Ladysmith Reflections (in-person)","day":1,"time":"19:30","types":["O","X"],"state":"BC","postal_code":"V9G 2B6","city":"Ladysmith","address":"1149 4th Ave","latitude":48.9978749,"longitude":-123.8308989,"location":"Bethel Church","region":"Ladysmith","url":"https://nanaimoaa.org/meetings/ladysmith-reflections/","group":"Ladysmith Reflections (in-person)","timezone":"America/Los_Angeles"},{"feed":"nanaimoaa.org","slug":"monday-night-qualicum-beach-group","name":"Monday Night Qualicum Beach Group (in-person)","day":1,"time":"19:30","end_time":"20:30","types":["12x12","C"],"state":"BC","postal_code":"V9K 1L1","city":"Qualicum Beach","address":"150 Village Way","latitude":49.3487477,"longitude":-124.440541,"location":"St. Stephen's United Church","region":"Qualicum &amp; Bowser","url":"https://nanaimoaa.org/meetings/monday-night-qualicum-beach-group/","group":"Monday Night Qualicum Beach Group (in-person)","timezone":"America/Los_Angeles"},{"feed":"aavictoria.ca","slug":"mt-newton-step-and-tradition","name":"Mt Newton Step and Tradition","day":1,"time":"19:30","end_time":"20:30","types":["C","ONL"],"state":"BC","postal_code":"V8M 1L7","city":"Saanichton","address":"1973 Cultra Ave","latitude":48.5920457,"longitude":-123.4180302,"location":"St Mary's Church","conference_url":"https://zoom.us/j/86193846685?pwd=SUNHYTE4M0pqUTc3Z2ZpWVUyb21zdz09","url":"https://aavictoria.ca/meetings/mt-newton-step-and-tradition/","timezone":"America/Vancouver"},{"feed":"aavictoria.ca","slug":"peace-group","name":"Peace Group","day":1,"time":"19:30","end_time":"20:30","state":"BC","postal_code":"V8R 2L7","city":"Victoria","address":"2060 Haultain St","latitude":48.4362004,"longitude":-123.3197979,"location":"St. Patrick's Church","notes":"This and other Peace Group meetings have returned to the newly renovated downstairs hall.","url":"https://aavictoria.ca/meetings/peace-group/","timezone":"America/Vancouver"},{"feed":"aavictoria.ca","slug":"sixty-minutes","name":"Sixty Minutes","day":1,"time":"19:30","end_time":"20:30","types":["D","O"],"state":"BC","postal_code":"V9A 1K5","city":"Victoria","address":"550 Obed Ave","latitude":48.4537154,"longitude":-123.4046822,"location":"City Lights Church","url":"https://aavictoria.ca/meetings/sixty-minutes/","timezone":"America/Vancouver"},{"feed":"nanaimoaa.org","slug":"tofino-group-mon-pm","name":"Tofino Forever Group","day":1,"time":"19:30","end_time":"20:30","types":["D","ONLINE","O","ONL"],"state":"BC","city":"Tofino","latitude":49.1529842,"longitude":-125.9066184,"location":"Tofino, BC, Canada","region":"Tofino &amp; Ucluelet","notes":"Meeting ID: 4195859765\nPassword: 376942","conference_url":"https://zoom.us/j/4195859765","url":"https://nanaimoaa.org/meetings/tofino-group-mon-pm/","group":"Tofino Forever Group","timezone":"America/Los_Angeles"},{"feed":"nanaimoaa.org","slug":"ucluelet-west-coast-group-mon","name":"Ucluelet West Coast Group (in-person)","day":1,"time":"19:30","end_time":"20:30","types":["12x12","C"],"state":"BC","postal_code":"V0R 3A0","city":"Ucluelet","address":"1663 Peninsula Rd","latitude":48.9426086,"longitude":-125.5478101,"location":"Holy Family Church","region":"Tofino &amp; Ucluelet","notes":"Masks and distance required. Approximately twelve people allowed. Masks available.","url":"https://nanaimoaa.org/meetings/ucluelet-west-coast-group-mon/","group":"Ucluelet West Coast Group (in-person)","timezone":"America/Los_Angeles"},{"feed":"area78.org","slug":"mile-300-big-book-study","name":"Mile 300 Big Book Study","day":1,"time":"20:00","end_time":"21:00","types":["B","EN","O","ONL"],"state":"BC","postal_code":"V0C 1R0","city":"Fort Nelson","address":"5108 Sunset Dr","latitude":58.8125482,"longitude":-122.699983,"location":"Hillcrest United Church","region":"Fort Nelson","notes":"Hybrid Meeting","conference_url":"https://zoom.us/j/4771638887","url":"https://area78aa.org/meetings/mile-300-big-book-study/","timezone":"America/Fort_Nelson"},{"feed":"area78.org","slug":"monday-night-12x12-study-group","name":"Monday Night 12X12 Study Group","day":1,"time":"20:00","end_time":"21:00","types":["12x12","C","EN"],"state":"BC","postal_code":"V1J 3T9","city":"Fort St John","address":"9907 98 St","latitude":56.2456386,"longitude":-120.8434817,"location":"Presbyterian Church","region":"Fort Saint John","url":"https://area78aa.org/meetings/monday-night-12x12-study-group/","timezone":"America/Edmonton"},{"feed":"nanaimoaa.org","slug":"nanaimo-step-group","name":"Nanaimo Step Group (in-person)","day":1,"time":"20:00","types":["C","ST"],"state":"BC","postal_code":"V9S 3V6","city":"Nanaimo","address":"2174 Departure Bay Rd","latitude":49.1930503,"longitude":-123.9674182,"location":"Hope Lutheran","region":"Nanaimo Area","url":"https://nanaimoaa.org/meetings/nanaimo-step-group/","group":"Nanaimo Step Group (in-person)","timezone":"America/Los_Angeles"},{"feed":"aavictoria.ca","slug":"sobriety-tonite","name":"Sobriety Tonite","day":1,"time":"20:00","end_time":"21:00","types":["D","O","ONL"],"state":"BC","city":"Victoria","latitude":48.4284207,"longitude":-123.3656444,"location":"zoom meeting","conference_url":"https://us06web.zoom.us/j/2304281465","url":"https://aavictoria.ca/meetings/sobriety-tonite/","timezone":"America/Vancouver"},{"feed":"aavictoria.ca","slug":"daybreak-9","name":"Daybreak","day":2,"time":"06:30","end_time":"07:30","types":["ONL"],"state":"BC","city":"Victoria","latitude":48.4284207,"longitude":-123.3656444,"location":"zoom meeting","notes":"In person Fri-Sat-Sun-Mon and all Stat holidays\nZoom 7 days a week","conference_url":"https://zoom.us/j/544309988","url":"https://aavictoria.ca/meetings/daybreak-9/","timezone":"America/Vancouver"},{"feed":"aavictoria.ca","slug":"attitude-adjustment-2","name":"Attitude Adjustment","day":2,"time":"07:00","end_time":"08:00","types":["C"],"state":"BC","postal_code":"V8V 1S1","city":"Victoria","address":"511 Michigan St","latitude":48.416761,"longitude":-123.3725357,"location":"James Bay United Church","notes":"Last Saturday of every month is an open meeting.","url":"https://aavictoria.ca/meetings/attitude-adjustment-2/","timezone":"America/Vancouver"},{"feed":"aavictoria.ca","slug":"attitude-adjustment-9","name":"Attitude Adjustment","day":2,"time":"07:00","end_time":"08:00","types":["ONL"],"state":"BC","city":"Victoria","latitude":48.4284207,"longitude":-123.3656444,"location":"zoom meeting","conference_url":"https://us02web.zoom.us/j/9509922231?pwd=amFaOXZVMmhVakVPamo0N0JvWkF0QT09","url":"https://aavictoria.ca/meetings/attitude-adjustment-9/","timezone":"America/Vancouver"},{"feed":"aavictoria.ca","slug":"new-dawn-morning-womens-meeting-2","name":"New Dawn","day":2,"time":"07:00","end_time":"08:00","types":["W","ONL"],"state":"BC","city":"Victoria","latitude":48.4284207,"longitude":-123.3656444,"location":"zoom meeting","notes":"Womens meeting","conference_url":"https://zoom.us/j/85988284221?pwd=NVBCem5Yb1Y3bDMvTmtoVzhIdnBPQT09","url":"https://aavictoria.ca/meetings/new-dawn-morning-womens-meeting-2/","timezone":"America/Vancouver"},{"feed":"nanaimoaa.org","slug":"pass-it-on-tues","name":"Pass It On (Hybrid / in-person)","day":2,"time":"07:00","types":["D","O","ONL"],"state":"BC","postal_code":"V9S 5B6","city":"Nanaimo","address":"321 Wallace St #206","latitude":49.1654604,"longitude":-123.939767,"location":"Nanaimo Alano Club","region":"Nanaimo Area","notes":"Meeting ID: 365 940 2175\nPasscode: 02092000","conference_url":"https://us02web.zoom.us/j/3659402175?pwd=YWs0QUMxYWx4ZjhLRU1HT0xGdTNvdz09","url":"https://nanaimoaa.org/meetings/pass-it-on-tues/","group":"Pass It On","timezone":"America/Los_Angeles"},{"feed":"aavictoria.ca","slug":"back-to-basics-2","name":"Back to Basics","day":2,"time":"07:30","end_time":"08:30","state":"BC","postal_code":"V8V 3L4","city":"Victoria","address":"1273 Fort St","latitude":48.4230234,"longitude":-123.3461525,"location":"Grace Lutheran Church","notes":"Beginners Meeting","url":"https://aavictoria.ca/meetings/back-to-basics-2/","timezone":"America/Vancouver"},{"feed":"aavictoria.ca","slug":"sidney-monring-serenity","name":"Sidney Morning Serenity","day":2,"time":"07:30","end_time":"08:30","types":["X"],"state":"BC","postal_code":"V8L 3B3","city":"Sidney","address":"10030 Third St","latitude":48.654502,"longitude":-123.398196,"location":"St. Elisabeth's Church","url":"https://aavictoria.ca/meetings/sidney-monring-serenity/","timezone":"America/Vancouver"},{"feed":"aavictoria.ca","slug":"sidney-noon-serenity-8","name":"Sidney Noon Serenity","day":2,"time":"07:30","end_time":"08:30","types":["D"],"state":"BC","postal_code":"V8L 3B3","city":"Sidney","address":"10030 Third St","latitude":48.654502,"longitude":-123.398196,"location":"St. Elisabeth's Church","notes":"Social Distancing and masks required","url":"https://aavictoria.ca/meetings/sidney-noon-serenity-8/","timezone":"America/Vancouver"},{"feed":"aavictoria.ca","slug":"discovery-6","name":"Discovery","day":2,"time":"09:30","end_time":"10:30","types":["12x12","D"],"state":"BC","postal_code":"V8T 2L7","city":"Victoria","address":"627 Dunedin St","latitude":48.4413961,"longitude":-123.3713418,"url":"https://aavictoria.ca/meetings/discovery-6/","timezone":"America/Vancouver"},{"feed":"nanaimoaa.org","slug":"tuesday-morning-womens-group","name":"Tuesday Morning Women's Group (in-person)","day":2,"time":"10:00","types":["C","W"],"city":"BC V9G","address":"232 High St, Ladysmith","state":"BC","latitude":48.992613,"longitude":-123.8209743,"location":"First United Church","region":"Ladysmith","url":"https://nanaimoaa.org/meetings/tuesday-morning-womens-group/","group":"Tuesday Morning Women's Group (in-person)","timezone":"America/Los_Angeles"},{"feed":"nanaimoaa.org","slug":"on-awakening-intl-qualicum-beach","name":"On Awakening Intl. - Qualicum Beach","day":2,"time":"10:30","end_time":"11:30","types":["D","ONLINE","O","ONL"],"state":"BC","city":"Qualicum Beach","latitude":49.3482346,"longitude":-124.4428262,"location":"Online","region":"Qualicum &amp; Bowser","notes":"Zoom ID:: 250 240 6571\n\nZoom passcode: 893964","conference_url":"https://us02web.zoom.us/j/2502406571","url":"https://nanaimoaa.org/meetings/on-awakening-intl-qualicum-beach/","group":"On Awakening Intl. - Qualicum Beach","timezone":"America/Vancouver"},{"feed":"aavictoria.ca","slug":"daily-reprieve-2","name":"Daily Reprieve","day":2,"time":"12:00","end_time":"13:00","types":["C"],"state":"BC","postal_code":"V8W 1C1","city":"Victoria","address":"680 Courtney St","latitude":48.4234372,"longitude":-123.3663494,"location":"Kirk Hall, St. Andrew's Presbyterian Church","url":"https://aavictoria.ca/meetings/daily-reprieve-2/","timezone":"America/Vancouver"},{"feed":"aavictoria.ca","slug":"discovery-4","name":"Discovery","day":2,"time":"12:00","end_time":"13:00","types":["D"],"state":"BC","postal_code":"V8T 2L7","city":"Victoria","address":"627 Dunedin St","latitude":48.4413961,"longitude":-123.3713418,"notes":"Birthday meeting at noon on the last Saturday of each month.\n\nBusiness meeting at 5:30 pm on the second Tuesday of each month.","url":"https://aavictoria.ca/meetings/discovery-4/","timezone":"America/Vancouver"},{"feed":"aavictoria.ca","slug":"into-action","name":"Principles before Personalities","day":2,"time":"12:00","end_time":"13:00","types":["O","X"],"state":"BC","postal_code":"V9B 1X1","city":"Victoria","address":"2250 Sooke Rd","latitude":48.4345197,"longitude":-123.4934744,"location":"Colwood Church","notes":"max 30 people attend","url":"https://aavictoria.ca/meetings/into-action/","timezone":"America/Vancouver"},{"feed":"nanaimoaa.org","slug":"let-it-begin-with-me-tues","name":"Let it Begin With Me (in-person)","day":2,"time":"12:00","end_time":"13:00","types":["D","O","X"],"state":"BC","postal_code":"V9R 3J2","city":"Nanaimo","address":"445 Comox Rd","latitude":49.1692173,"longitude":-123.9441625,"location":"Scout Hut","region":"Nanaimo Area","url":"https://nanaimoaa.org/meetings/let-it-begin-with-me-tues/","group":"Let it Begin with me","timezone":"America/Los_Angeles"},{"feed":"nanaimoaa.org","slug":"noon-group-tues","name":"Noon Group (in-person)","day":2,"time":"12:00","types":["D","O","X"],"state":"BC","postal_code":"V9Y 1Y9","city":"Port Alberni","address":"3028 2nd Ave","latitude":49.2337396,"longitude":-124.8092354,"location":"Port Alberni Alano Club","region":"Port Alberni &amp; Nitinaht Lake","url":"https://nanaimoaa.org/meetings/noon-group-tues/","group":"Noon Group (Port Alberni","timezone":"America/Los_Angeles"},{"feed":"nanaimoaa.org","slug":"nooner-parksville-tues","name":"One Day at a Time (in-person)","day":2,"time":"12:00","end_time":"13:00","types":["O"],"state":"BC","postal_code":"V0R 1M0","city":"Parksville","address":"975 Shearme Rd","latitude":49.3053495,"longitude":-124.3960118,"location":"Bradley Centre","region":"Parksville, Coombs &amp; Nanoose","url":"https://nanaimoaa.org/meetings/nooner-parksville-tues/","group":"One Day at a Time (in-person)","timezone":"America/Los_Angeles"},{"feed":"nanaimoaa.org","slug":"north-port-nooner-2","name":"North Port Nooner","day":2,"time":"12:00","end_time":"13:00","state":"BC","postal_code":"V9Y 5W9","city":"Port Alberni","address":"4283 Glenside Rd","latitude":49.2663285,"longitude":-124.8009761,"location":"Arrowsmith Baptist Church","region":"Port Alberni &amp; Nitinaht Lake","url":"https://nanaimoaa.org/meetings/north-port-nooner-2/","group":"North Port Nooner","timezone":"America/Los_Angeles"},{"feed":"aavictoria.ca","slug":"sidney-noon-serenity-4","name":"Sidney Noon Serenity","day":2,"time":"12:00","end_time":"13:00","types":["C","X"],"state":"BC","postal_code":"V8L 3B3","city":"Sidney","address":"10030 Third St","latitude":48.654502,"longitude":-123.398196,"location":"St. Elisabeth's Church","notes":"Masks preferred. Max 25 people","url":"https://aavictoria.ca/meetings/sidney-noon-serenity-4/","timezone":"America/Vancouver"},{"feed":"nanaimoaa.org","slug":"tofino-group-tues-noon","name":"Tofino Forever Group","day":2,"time":"12:00","end_time":"13:00","types":["D","O","ONL"],"state":"BC","city":"Tofino","latitude":49.1529842,"longitude":-125.9066184,"location":"Tofino, BC, Canada","region":"Tofino &amp; Ucluelet","notes":"https://zoom.us/j/4195859765\n\nMeeting ID: 4195859765\nPassword: 376942","conference_url":"https://zoom.us/j/4195859765","url":"https://nanaimoaa.org/meetings/tofino-group-tues-noon/","group":"Tofino Forever Group","timezone":"America/Los_Angeles"},{"feed":"aavictoria.ca","slug":"tuesday-noon","name":"Tuesday Noon","day":2,"time":"12:00","end_time":"13:00","types":["D","X"],"state":"BC","postal_code":"V8Z 3K9","city":"Victoria","address":"3277 Douglas St","latitude":48.449001,"longitude":-123.3726744,"location":"Ukrainian Cultural Centre","url":"https://aavictoria.ca/meetings/tuesday-noon/","timezone":"America/Vancouver"},{"feed":"aavictoria.ca","slug":"welcome-group-2","name":"Welcome Group","day":2,"time":"12:00","end_time":"13:00","types":["ABSI","O","X"],"state":"BC","postal_code":"V8K 1S1","city":"Salt Spring Island","address":"901 N End Rd","latitude":48.8731776,"longitude":-123.5288504,"location":"Fritz Theatre Central Hall","notes":"Salt Spring Island.","url":"https://aavictoria.ca/meetings/welcome-group-2/","timezone":"America/Vancouver"},{"feed":"nanaimoaa.org","slug":"the-way-out-group","name":"The Way Out Group","day":2,"time":"17:00","end_time":"18:00","types":["O","X"],"state":"BC","postal_code":"V9S 1H8","city":"Nanaimo","address":"2135 Bowen Rd","latitude":49.1905056,"longitude":-123.9908551,"location":"Coastal Support Services - Parking at back of building","region":"Nanaimo Area","notes":"Parking at the back of the building, two buildings over from Nesvogs.","url":"https://nanaimoaa.org/meetings/the-way-out-group/","group":"The Way Out Group","timezone":"America/Los_Angeles"},{"feed":"aavictoria.ca","slug":"will-run-riot","name":"Will Run Riot","day":2,"time":"17:30","end_time":"18:30","types":["D","O","X","XB"],"state":"BC","postal_code":"V8W 1S9","city":"Victoria","address":"877 N Park St","latitude":48.4297457,"longitude":-123.3591489,"location":"First Baptist Church Victoria","url":"https://aavictoria.ca/meetings/will-run-riot/","group":"Will Run Riot","timezone":"America/Vancouver"},{"feed":"aavictoria.ca","slug":"bear-mountain-group-2","name":"Bear Mountain Zoomers","day":2,"time":"18:00","end_time":"19:00","types":["ONL"],"state":"BC","city":"Victoria","latitude":48.4284207,"longitude":-123.3656444,"location":"zoom meeting","notes":"On line meeting","conference_url":"https://us02web.zoom.us/j/82184979775?pwd=ejRIWFhScURPM0dkZ2JjQUxCZlBuZz09","url":"https://aavictoria.ca/meetings/bear-mountain-group-2/","timezone":"America/Vancouver"},{"feed":"aavictoria.ca","slug":"langford-leap-of-faith","name":"Langford Leap of Faith","day":2,"time":"18:00","end_time":"19:00","types":["O","X"],"state":"BC","postal_code":"V9B 2Y2","city":"Victoria","address":"935 Goldstream Ave","latitude":48.4506088,"longitude":-123.5074187,"location":"Gordon United Church","url":"https://aavictoria.ca/meetings/langford-leap-of-faith/","timezone":"America/Vancouver"},{"feed":"aavictoria.ca","slug":"peace-of-mind","name":"Peace of Mind","day":2,"time":"18:00","end_time":"19:00","types":["C","D","LIT","X"],"state":"BC","postal_code":"V8Z 5C3","city":"Victoria","address":"4566 W Saanich Rd","latitude":48.497024,"longitude":-123.3921231,"location":"Saanich Community Church","url":"https://aavictoria.ca/meetings/peace-of-mind/","timezone":"America/Vancouver"},{"feed":"area78.org","slug":"745-2","name":"Tuesday Night Ladies Group","day":2,"time":"19:00","end_time":"20:00","types":["C","X","W","EN"],"state":"BC","postal_code":"V1J 2A4","city":"Fort St John","address":"8407 112 Avenue","latitude":56.2557682,"longitude":-120.817877,"location":"Fort Saint John Hospital","region":"Fort Saint John","notes":"Spiritual Room","url":"https://area78aa.org/meetings/745-2/","group":"Ladies Group","timezone":"America/Edmonton"},{"feed":"nanaimoaa.org","slug":"alberni-valley-group-tues","name":"Alberni Valley Group (in-person)","day":2,"time":"19:00","end_time":"20:00","types":["C","ST"],"state":"BC","postal_code":"V9Y 1V9","city":"Port Alberni","address":"4835 Argyle St","latitude":49.2348468,"longitude":-124.8059103,"location":"Salvation Army Building","region":"Port Alberni &amp; Nitinaht Lake","url":"https://nanaimoaa.org/meetings/alberni-valley-group-tues/","group":"Alberni Valley Group","timezone":"America/Los_Angeles"},{"feed":"nanaimoaa.org","slug":"brechin-group","name":"Brechin Group","day":2,"time":"19:00","end_time":"20:00","types":["D","O"],"state":"BC","postal_code":"V9S 3Y9","city":"Nanaimo","address":"2020 Estevan Rd","latitude":49.1898516,"longitude":-123.9621731,"location":"Brechin Church","region":"Nanaimo Area","url":"https://nanaimoaa.org/meetings/brechin-group/","group":"Brechin Group","timezone":"America/Los_Angeles"},{"feed":"area78.org","slug":"creston-central","name":"Creston Central","day":2,"time":"19:00","end_time":"20:00","types":["B","C","EN"],"state":"BC","postal_code":"V0B 1G0","city":"Creston","address":"422 7 Ave N","latitude":49.0999498,"longitude":-116.5170016,"location":"Anglican Christ Church","region":"Creston","url":"https://area78aa.org/meetings/creston-central/","timezone":"America/Edmonton"},{"feed":"aavictoria.ca","slug":"freedom-group","name":"Freedom Group","day":2,"time":"19:00","end_time":"20:00","types":["B","O","X"],"state":"BC","postal_code":"V8R 1J8","city":"Victoria","address":"1952 Bay St","latitude":48.4321083,"longitude":-123.3290564,"location":"Royal Jubilee Hospital","notes":"Scent-free. Masks are required by the hospital","url":"https://aavictoria.ca/meetings/freedom-group/","timezone":"America/Vancouver"},{"feed":"nanaimoaa.org","slug":"live-let-live-lgbtq-allies","name":"Live & Let Live LGBTQ+ & Allies (in-person)","day":2,"time":"19:00","types":["LGBTQ","O","X"],"state":"BC","postal_code":"V9S 5B6","city":"Nanaimo","address":"321 Wallace St #206","latitude":49.1654604,"longitude":-123.939767,"location":"Nanaimo Alano Club","region":"Nanaimo Area","url":"https://nanaimoaa.org/meetings/live-let-live-lgbtq-allies/","group":"Live & Let Live LGBTQ+ & Allies (in-person)","timezone":"America/Los_Angeles"},{"feed":"aavictoria.ca","slug":"more-unfinished-business","name":"More Unfinished Business","day":2,"time":"19:00","end_time":"20:00","types":["B","O","X"],"state":"BC","postal_code":"V9Z 0H4","city":"Sooke","address":"2191 Townsend Rd","latitude":48.382554,"longitude":-123.7253498,"location":"St. Rose of Lima Church","url":"https://aavictoria.ca/meetings/more-unfinished-business/","timezone":"America/Vancouver"},{"feed":"nanaimoaa.org","slug":"primary-purpose-big-book-study","name":"Primary Purpose Big Book Study (in-person)","day":2,"time":"19:00","end_time":"20:00","types":["B","C","X"],"state":"BC","postal_code":"V9P 2V1","city":"Parksville","address":"795 Island Hwy W","latitude":49.3297349,"longitude":-124.3414096,"location":"Our Saviour Lutheran Church","region":"Parksville, Coombs &amp; Nanoose","url":"https://nanaimoaa.org/meetings/primary-purpose-big-book-study/","group":"Primary Purpose Big Book","timezone":"America/Los_Angeles"},{"feed":"area78.org","slug":"tuesday-101","name":"Tuesday 101","day":2,"time":"19:00","end_time":"20:00","types":["CAN","C","D","EN"],"state":"BC","postal_code":"V1C 1E1","city":"Cranbrook","address":"2324 2 St S","latitude":49.5086544,"longitude":-115.7488947,"location":"Dwelling Place Church","region":"Cranbrook","notes":"Dwelling Place Church (Basement)","url":"https://area78aa.org/meetings/tuesday-101/","timezone":"America/Edmonton"},{"feed":"aavictoria.ca","slug":"tuesday-night-esquimalt","name":"Tuesday Night Esquimalt","day":2,"time":"19:00","end_time":"20:00","types":["C"],"state":"BC","postal_code":"V9A 2N4","city":"Victoria","address":"500 Admirals Rd","latitude":48.4284569,"longitude":-123.4173809,"location":"Esquimalt United Church","notes":"Scent-free.","url":"https://aavictoria.ca/meetings/tuesday-night-esquimalt/","timezone":"America/Vancouver"},{"feed":"nanaimoaa.org","slug":"womens-grace-group","name":"Women's Grace Group (in-person)","day":2,"time":"19:00","end_time":"20:00","types":["D","O","W"],"state":"BC","postal_code":"V9P 1T7","city":"Parksville","address":"186 Shelly Rd","latitude":49.3186961,"longitude":-124.2924723,"location":"Shelly Road Centre","region":"Parksville, Coombs &amp; Nanoose","url":"https://nanaimoaa.org/meetings/womens-grace-group/","group":"Women's Grace Group (in-person)","timezone":"America/Los_Angeles"},{"feed":"aavictoria.ca","slug":"sidney-airport-meeting","name":"Sidney Airport Meeting","day":2,"time":"19:15","end_time":"20:15","types":["O","ST","X"],"state":"BC","postal_code":"V8L 5V6","city":"North Saanich","address":"9300 Willingdon Rd","latitude":48.6338748,"longitude":-123.4181245,"location":"Resthaven 7th Day Adventist Church","notes":"Last meeting fo the month is Open for birthdays","url":"https://aavictoria.ca/meetings/sidney-airport-meeting/","timezone":"America/Vancouver"},{"feed":"aavictoria.ca","slug":"c-l-u-e-2","name":"C.L.U.E.","day":2,"time":"19:30","end_time":"20:30","types":["W"],"state":"BC","postal_code":"V8R 5E7","city":"Victoria","address":"2050 Haultain St","latitude":48.4358163,"longitude":-123.3205801,"location":"St Patrick's Church","url":"https://aavictoria.ca/meetings/c-l-u-e-2/","timezone":"America/Vancouver"},{"feed":"aavictoria.ca","slug":"discovery-5","name":"Discovery","day":2,"time":"19:30","end_time":"20:30","types":["C","D"],"state":"BC","postal_code":"V8T 2L7","city":"Victoria","address":"627 Dunedin St","latitude":48.4413961,"longitude":-123.3713418,"notes":"Birthday meeting at noon on the last Saturday of each month.\n\nBusiness meeting at 5:30 pm on the second Tuesday of each month.","url":"https://aavictoria.ca/meetings/discovery-5/","timezone":"America/Vancouver"},{"feed":"nanaimoaa.org","slug":"keep-it-simple-parksville","name":"Keep It Simple (in-person)","day":2,"time":"19:30","types":["C","D","M"],"state":"BC","postal_code":"V9P 1C8","city":"Parksville","address":"345 Pym St","latitude":49.3261438,"longitude":-124.3386181,"location":"Knox United Church","region":"Parksville, Coombs &amp; Nanoose","url":"https://nanaimoaa.org/meetings/keep-it-simple-parksville/","group":"Keep It Simple (in-person)","timezone":"America/Los_Angeles"},{"feed":"nanaimoaa.org","slug":"ladysmith-mens","name":"Ladysmith Men's","day":2,"time":"19:30","end_time":"20:30","types":["ONLINE","M","O","ONL"],"state":"BC","city":"Ladysmith","latitude":48.99534,"longitude":-123.8161,"location":"Ladysmith, BC, Canada","region":"Ladysmith","notes":"This meeting will run online until the end of June\nMeeting ID: 213420473\nPassword: 601031","conference_url":"https://zoom.us/j/213420473","url":"https://nanaimoaa.org/meetings/ladysmith-mens/","group":"Ladysmith Men's","timezone":"America/Los_Angeles"},{"feed":"nanaimoaa.org","slug":"primary-purpose-big-book-study-online","name":"Primary Purpose Big Book Study","day":2,"time":"19:30","end_time":"20:30","types":["B","C","D","ONLINE","ONL"],"state":"BC","city":"Parksville","latitude":49.3193375,"longitude":-124.3136412,"location":"Parksville","region":"Parksville, Coombs &amp; Nanoose","notes":"Meeting ID: 845 8537 1088\nPasscode: bigbook","conference_url":"https://us02web.zoom.us/j/84585371088","url":"https://nanaimoaa.org/meetings/primary-purpose-big-book-study-online/","group":"Primary Purpose Big Book","timezone":"America/Los_Angeles"},{"feed":"nanaimoaa.org","slug":"solace-by-the-sea-in-person","name":"Solace by the Sea (in-person)","day":2,"time":"19:30","end_time":"20:30","types":["D","O","X"],"state":"BC","postal_code":"V9R 5H2","city":"Nanaimo","address":"100 Chapel St","latitude":49.1675862,"longitude":-123.93734,"location":"St. Paul's Anglican Church","region":"Nanaimo Area","notes":"This meeting is NOT a hybrid with the Solace by the Sea online meeting.","url":"https://nanaimoaa.org/meetings/solace-by-the-sea-in-person/","group":"Solace by the Sea (in-person)","timezone":"America/Los_Angeles"},{"feed":"nanaimoaa.org","slug":"solace-by-the-sea-online","name":"Solace by the Sea (online)","day":2,"time":"19:30","end_time":"20:30","types":["D","ONLINE","O","ONL"],"state":"BC","city":"Nanaimo","latitude":49.1658836,"longitude":-123.9400647,"location":"Nanaimo","region":"Nanaimo Area","notes":"Zoom ID: 245 822 095\nPassword: 164837\n\nThis meeting is NOT a hybrid with the Solace by the Sea in-person meeting","conference_url":"https://zoom.us/j/245822095?pwd=cUhwYmVvY0dzejEvL2hxcU55aGh5dz09","url":"https://nanaimoaa.org/meetings/solace-by-the-sea-online/","group":"Solace by the Sea (online)","timezone":"America/Los_Angeles"},{"feed":"aavictoria.ca","slug":"the-huddle","name":"The Huddle","day":2,"time":"19:30","end_time":"20:30","types":["C","D","M","ST","X"],"state":"BC","postal_code":"V8V 3L4","city":"Victoria","address":"1273 Fort St","latitude":48.4230234,"longitude":-123.3461525,"location":"Grace Lutheran Church","url":"https://aavictoria.ca/meetings/the-huddle/","timezone":"America/Vancouver"},{"feed":"nanaimoaa.org","slug":"tofino-forever-step-meeting","name":"Tofino Forever","day":2,"time":"19:30","end_time":"20:30","types":["O","ONL"],"state":"BC","city":"Tofino","latitude":49.1529842,"longitude":-125.9066184,"location":"Tofino, BC, Canada","region":"Tofino &amp; Ucluelet","notes":"https://zoom.us/j/4195859765\n\nMeeting ID: 4195859765\nPassword: 376942","conference_url":"https://zoom.us/j/4195859765","url":"https://nanaimoaa.org/meetings/tofino-forever-step-meeting/","group":"Tofino Forever Group","timezone":"America/Los_Angeles"},{"feed":"nanaimoaa.org","slug":"tofino-group-tues-pm","name":"Tofino AA Group (In person)","day":2,"time":"19:30","end_time":"20:30","types":["D","O"],"state":"BC","postal_code":"V0R 2Z0","city":"Tofino","address":"441 Main St","latitude":49.1530636,"longitude":-125.9032662,"location":"St. Francis of Assisi","region":"Tofino &amp; Ucluelet","url":"https://nanaimoaa.org/meetings/tofino-group-tues-pm/","group":"Tofino AA Group","timezone":"America/Los_Angeles"},{"feed":"area78.org","slug":"1335-2","name":"Chetwynd","day":2,"time":"20:00","types":["O","X"],"state":"BC","postal_code":"V0C 1J0","city":"Chetwynd","address":"5101 S Access Rd","latitude":55.696486,"longitude":-121.631848,"location":"Awasimsak Family Center","region":"Chetwynd","url":"https://area78aa.org/meetings/1335-2/","group":"Chetwynd Group","timezone":"America/Edmonton"},{"feed":"area78.org","slug":"466-2","name":"Charlie Lake","day":2,"time":"20:00","end_time":"21:00","types":["C","EN"],"state":"BC","postal_code":"V0C 1H0","city":"Charlie Lake","address":"12731 Old Hope Rd","latitude":56.2748957,"longitude":-120.957127,"location":"Charlie Lake Community Church","region":"Fort Saint John","notes":"Last Tuesday of the month is open for cake meeting.","url":"https://area78aa.org/meetings/466-2/","group":"Charlie Lake Group","timezone":"America/Edmonton"},{"feed":"nanaimoaa.org","slug":"mens-big-book","name":"Men's Big Book","day":2,"time":"20:00","end_time":"21:00","types":["B"],"state":"BC","postal_code":"V9Y 1Y9","city":"Port Alberni","address":"3028 2nd Ave","latitude":49.2337396,"longitude":-124.8092354,"location":"Port Alberni Alano Club","region":"Port Alberni &amp; Nitinaht Lake","url":"https://nanaimoaa.org/meetings/mens-big-book/","timezone":"America/Los_Angeles"},{"feed":"area78.org","slug":"serenity-in-the-peace-3","name":"Serenity in the Peace","day":2,"time":"20:00","end_time":"21:00","types":["EN","O","X"],"state":"BC","postal_code":"V1G 2W1","city":"Dawson Creek","address":"1001 110 Ave","latitude":55.750487,"longitude":-120.2348694,"location":"Dawson Creek Health Unit","region":"Dawson Creek","notes":"Dawson Creek Health Unit","url":"https://area78aa.org/meetings/serenity-in-the-peace-3/","group":"Serenity in the Peace Group","timezone":"America/Edmonton"},{"feed":"aavictoria.ca","slug":"sobriety-tonite-2","name":"Sobriety Tonite","day":2,"time":"20:00","end_time":"21:00","types":["O","ONL"],"state":"BC","city":"Victoria","latitude":48.4284207,"longitude":-123.3656444,"location":"zoom meeting","conference_url":"https://us06web.zoom.us/j/2304281465","url":"https://aavictoria.ca/meetings/sobriety-tonite-2/","timezone":"America/Vancouver"},{"feed":"aavictoria.ca","slug":"daybreak-10","name":"Daybreak","day":3,"time":"06:30","end_time":"07:30","types":["ONL"],"state":"BC","city":"Victoria","latitude":48.4284207,"longitude":-123.3656444,"location":"zoom meeting","notes":"In person Fri-Sat-Sun-Mon and all Stat holidays\nZoom 7 days a week","conference_url":"https://zoom.us/j/544309988","url":"https://aavictoria.ca/meetings/daybreak-10/","timezone":"America/Vancouver"},{"feed":"aavictoria.ca","slug":"attitude-adjustment-10","name":"Attitude Adjustment","day":3,"time":"07:00","end_time":"08:00","types":["ONL"],"state":"BC","city":"Victoria","latitude":48.4284207,"longitude":-123.3656444,"location":"zoom meeting","conference_url":"https://us02web.zoom.us/j/9509922231?pwd=amFaOXZVMmhVakVPamo0N0JvWkF0QT09","url":"https://aavictoria.ca/meetings/attitude-adjustment-10/","timezone":"America/Vancouver"},{"feed":"aavictoria.ca","slug":"attitude-adjustment-3","name":"Attitude Adjustment","day":3,"time":"07:00","end_time":"08:00","types":["C","D"],"state":"BC","postal_code":"V8V 1S1","city":"Victoria","address":"511 Michigan St","latitude":48.416761,"longitude":-123.3725357,"location":"James Bay United Church","notes":"Open last Saturday of each month.","url":"https://aavictoria.ca/meetings/attitude-adjustment-3/","timezone":"America/Vancouver"},{"feed":"aavictoria.ca","slug":"discovery-mens-meeting-2","name":"Discovery Men's Meeting","day":3,"time":"07:00","end_time":"08:00","types":["C","D"],"state":"BC","postal_code":"V8T 2L7","city":"Victoria","address":"627 Dunedin St","latitude":48.4413961,"longitude":-123.3713418,"url":"https://aavictoria.ca/meetings/discovery-mens-meeting-2/","timezone":"America/Vancouver"},{"feed":"aavictoria.ca","slug":"new-dawn-morning-womens-meeting-3","name":"New Dawn","day":3,"time":"07:00","end_time":"08:00","types":["W","ONL"],"state":"BC","city":"Victoria","latitude":48.4284207,"longitude":-123.3656444,"location":"zoom meeting","notes":"Womens meeting","conference_url":"https://zoom.us/j/85988284221?pwd=NVBCem5Yb1Y3bDMvTmtoVzhIdnBPQT09","url":"https://aavictoria.ca/meetings/new-dawn-morning-womens-meeting-3/","timezone":"America/Vancouver"},{"feed":"nanaimoaa.org","slug":"pass-it-on-wed","name":"Pass It On (Hybrid / in-person)","day":3,"time":"07:00","types":["D","O","X","ONL"],"state":"BC","postal_code":"V9S 5B6","city":"Nanaimo","address":"321 Wallace St #206","latitude":49.1654604,"longitude":-123.939767,"location":"Nanaimo Alano Club","region":"Nanaimo Area","notes":"Hybrid meeting - both Zoom and in person meeting\nMeeting ID: 365 940 2175\nPasscode: 02092000","conference_url":"https://us02web.zoom.us/j/3659402175?pwd=YWs0QUMxYWx4ZjhLRU1HT0xGdTNvdz09","url":"https://nanaimoaa.org/meetings/pass-it-on-wed/","group":"Pass It On","timezone":"America/Los_Angeles"},{"feed":"aavictoria.ca","slug":"back-to-basics-3","name":"Back to Basics","day":3,"time":"07:30","end_time":"08:30","state":"BC","postal_code":"V8V 3L4","city":"Victoria","address":"1273 Fort St","latitude":48.4230234,"longitude":-123.3461525,"location":"Grace Lutheran Church","notes":"Beginners Meeting","url":"https://aavictoria.ca/meetings/back-to-basics-3/","timezone":"America/Vancouver"},{"feed":"aavictoria.ca","slug":"discovery-7","name":"Discovery","day":3,"time":"09:30","end_time":"10:30","types":["12x12","D"],"state":"BC","postal_code":"V8T 2L7","city":"Victoria","address":"627 Dunedin St","latitude":48.4413961,"longitude":-123.3713418,"url":"https://aavictoria.ca/meetings/discovery-7/","timezone":"America/Vancouver"},{"feed":"nanaimoaa.org","slug":"the-promises-group","name":"The Promises Group","day":3,"time":"09:30","end_time":"10:30","types":["D","O","X"],"state":"BC","postal_code":"V9R 4S6","city":"Nanaimo","address":"19 Nicol St","latitude":49.1628924,"longitude":-123.9338725,"location":"Salvation Army Nanaimo","region":"Nanaimo Area","url":"https://nanaimoaa.org/meetings/the-promises-group/","group":"The Promises Group","timezone":"America/Vancouver"},{"feed":"nanaimoaa.org","slug":"brown-baggers-wednesday","name":"Brown Baggers Wednesday (in-person)","day":3,"time":"12:00","end_time":"13:00","types":["D","O","X"],"state":"BC","postal_code":"V9P 1T7","city":"Parksville","address":"186 Shelly Rd","latitude":49.3186961,"longitude":-124.2924723,"location":"Shelly Road Centre","region":"Parksville, Coombs &amp; Nanoose","url":"https://nanaimoaa.org/meetings/brown-baggers-wednesday/","group":"Brown Baggers","timezone":"America/Los_Angeles"},{"feed":"aavictoria.ca","slug":"daily-reprieve-3","name":"Daily Reprieve","day":3,"time":"12:00","end_time":"13:00","types":["C"],"state":"BC","postal_code":"V8W 1C1","city":"Victoria","address":"680 Courtney St","latitude":48.4234372,"longitude":-123.3663494,"location":"Kirk Hall, St. Andrew's Presbyterian Church","url":"https://aavictoria.ca/meetings/daily-reprieve-3/","timezone":"America/Vancouver"},{"feed":"aavictoria.ca","slug":"discovery-discussion-2","name":"Discovery Discussion","day":3,"time":"12:00","end_time":"13:00","types":["D"],"state":"BC","postal_code":"V8T 2L7","city":"Victoria","address":"627 Dunedin St","latitude":48.4413961,"longitude":-123.3713418,"url":"https://aavictoria.ca/meetings/discovery-discussion-2/","timezone":"America/Vancouver"},{"feed":"aavictoria.ca","slug":"h-i-t-l-i-s-t","name":"H.I.T.L.I.S.T.","day":3,"time":"12:00","end_time":"13:00","types":["D"],"state":"BC","postal_code":"V9B 2B3","city":"Victoria","address":"537 Glencairn Ln","latitude":48.4383975,"longitude":-123.4893654,"location":"Emery Community Hall","url":"https://aavictoria.ca/meetings/h-i-t-l-i-s-t/","timezone":"America/Vancouver"},{"feed":"aavictoria.ca","slug":"keystone-group-2","name":"Keystone Group","day":3,"time":"12:00","end_time":"13:00","types":["X"],"state":"BC","postal_code":"V8V 3G8","city":"Victoria","address":"911 Quadra St","latitude":48.42205,"longitude":-123.35878,"location":"Christ Church Cathedral","notes":"Reading, discussion","url":"https://aavictoria.ca/meetings/keystone-group-2/","timezone":"America/Vancouver"},{"feed":"nanaimoaa.org","slug":"let-it-begin-with-me-wed","name":"Let it Begin With Me (in-person)","day":3,"time":"12:00","end_time":"13:00","types":["D","O","X"],"state":"BC","postal_code":"V9R 3J2","city":"Nanaimo","address":"445 Comox Rd","latitude":49.1692173,"longitude":-123.9441625,"location":"Scout Hut","region":"Nanaimo Area","url":"https://nanaimoaa.org/meetings/let-it-begin-with-me-wed/","group":"Let it Begin with me","timezone":"America/Los_Angeles"},{"feed":"nanaimoaa.org","slug":"noon-group-wed","name":"Noon Group (in-person)","day":3,"time":"12:00","types":["D","O","X"],"state":"BC","postal_code":"V9Y 1Y9","city":"Port Alberni","address":"3028 2nd Ave","latitude":49.2337396,"longitude":-124.8092354,"location":"Port Alberni Alano Club","region":"Port Alberni &amp; Nitinaht Lake","url":"https://nanaimoaa.org/meetings/noon-group-wed/","group":"Noon Group (Port Alberni","timezone":"America/Los_Angeles"},{"feed":"nanaimoaa.org","slug":"north-port-nooner-3","name":"North Port Nooner","day":3,"time":"12:00","end_time":"13:00","state":"BC","postal_code":"V9Y 5W9","city":"Port Alberni","address":"4283 Glenside Rd","latitude":49.2663285,"longitude":-124.8009761,"location":"Arrowsmith Baptist Church","region":"Port Alberni &amp; Nitinaht Lake","url":"https://nanaimoaa.org/meetings/north-port-nooner-3/","group":"North Port Nooner","timezone":"America/Los_Angeles"},{"feed":"aavictoria.ca","slug":"sidney-noon-serenity-11","name":"Sidney Noon Serenity","day":3,"time":"12:00","end_time":"13:00","types":["O","X"],"state":"BC","postal_code":"V8L 3B3","city":"Sidney","address":"10030 Third St","latitude":48.654502,"longitude":-123.398196,"location":"St. Elisabeth's Church","notes":"Social Distancing and masks required","url":"https://aavictoria.ca/meetings/sidney-noon-serenity-11/","timezone":"America/Vancouver"},{"feed":"aavictoria.ca","slug":"the-lunch-bunch","name":"The Lunch Bunch","day":3,"time":"12:00","end_time":"13:00","types":["12x12","C","W"],"state":"BC","postal_code":"V8T 3A4","city":"Victoria","address":"2736 Fernwood Rd","latitude":48.4389193,"longitude":-123.3452071,"location":"Oaklands Bible Chapel","url":"https://aavictoria.ca/meetings/the-lunch-bunch/","timezone":"America/Vancouver"},{"feed":"nanaimoaa.org","slug":"tofino-group-wed-noon","name":"Tofino Forever Group","day":3,"time":"12:00","end_time":"13:00","types":["D","ONLINE","O","ONL"],"state":"BC","city":"Tofino","latitude":49.1529842,"longitude":-125.9066184,"location":"Tofino, BC, Canada","region":"Tofino &amp; Ucluelet","notes":"Meeting ID: 4195859765\nPassword: 376942","conference_url":"https://zoom.us/j/4195859765","url":"https://nanaimoaa.org/meetings/tofino-group-wed-noon/","group":"Tofino Forever Group","timezone":"America/Los_Angeles"},{"feed":"aavictoria.ca","slug":"welcome-group-3","name":"Welcome Group","day":3,"time":"12:00","end_time":"13:00","types":["D","O","X"],"state":"BC","postal_code":"V8K 1S1","city":"Salt Spring Island","address":"901 N End Rd","latitude":48.8731776,"longitude":-123.5288504,"location":"Fritz Theatre Central Hall","notes":"Salt Spring Island.","url":"https://aavictoria.ca/meetings/welcome-group-3/","timezone":"America/Vancouver"},{"feed":"aavictoria.ca","slug":"high-nooners-3","name":"High Nooners","day":3,"time":"12:30","end_time":"13:30","types":["O"],"state":"BC","postal_code":"V0N 2M1","city":"Pender Island","address":"4405 Bedwell Harbour Rd","latitude":48.7988821,"longitude":-123.2818153,"location":"Community Church","url":"https://aavictoria.ca/meetings/high-nooners-3/","timezone":"America/Vancouver"},{"feed":"nanaimoaa.org","slug":"womens-meeting-wed","name":"Step Sisters - Women's Meeting (in-person)","day":3,"time":"13:00","end_time":"14:00","types":["C","D","X","W"],"state":"BC","postal_code":"V9S 5J3","city":"Nanaimo","address":"2221 Bowen Rd","latitude":49.1927263,"longitude":-123.9929667,"location":"Christ Community Church","region":"Nanaimo Area","notes":"Enter at the back door","url":"https://nanaimoaa.org/meetings/womens-meeting-wed/","group":"Step Sisters - Women's Meeting (in-person)","timezone":"America/Los_Angeles"},{"feed":"aavictoria.ca","slug":"womans-meeting","name":"Woman's Meeting","day":3,"time":"16:00","end_time":"17:00","types":["C","W"],"state":"BC","postal_code":"V8K 2K8","city":"Salt Spring Island","address":"135 Drake Rd","latitude":48.850611,"longitude":-123.504084,"notes":"Salt Spring Island","url":"https://aavictoria.ca/meetings/womans-meeting/","timezone":"America/Vancouver"},{"feed":"nanaimoaa.org","slug":"5pm-candlelight-meeting-wednesday","name":"5pm Candlelight Meeting (in-person)","day":3,"time":"17:00","end_time":"18:00","types":["D","O","X"],"state":"BC","postal_code":"V9S 3W9","city":"Nanaimo","address":"2730 Departure Bay Rd","latitude":49.2031204,"longitude":-123.9703271,"location":"Kin Hut","region":"Nanaimo Area","url":"https://nanaimoaa.org/meetings/5pm-candlelight-meeting-wednesday/","group":"5pm Candlelight Meeting (in-person)","timezone":"America/Los_Angeles"},{"feed":"area78.org","slug":"484-3","name":"Fernie Serenity","day":3,"time":"18:30","end_time":"19:30","types":["O"],"state":"BC","postal_code":"V0B 1M0","city":"Fernie","address":"591 4 Ave","latitude":49.5047897,"longitude":-115.0634773,"location":"Anglican Church of Canada Christ Church","region":"Fernie","notes":"Anglican Church Basement","url":"https://area78aa.org/meetings/484-3/","group":"Fernie Serenity Group","timezone":"America/Edmonton"},{"feed":"area78.org","slug":"469-3","name":"Grizzly Valley","day":3,"time":"19:00","end_time":"20:00","types":["C","X"],"state":"BC","postal_code":"V0C 2W0","city":"Tumbler Ridge","address":"115 Commercial Pk","latitude":55.1218878,"longitude":-120.9897971,"location":"Tumbler Ridge Fellowship Baptist Church","region":"Tumbler Ridge","notes":"Call (306)604-0279","url":"https://area78aa.org/meetings/469-3/","group":"Grizzly Valley Group","timezone":"America/Edmonton"},{"feed":"area78.org","slug":"496-3","name":"Wednesday Downtown Freedom","day":3,"time":"19:00","end_time":"20:00","types":["C"],"state":"BC","postal_code":"V1C 2V3","city":"Cranbrook","address":"46 13 Ave S","latitude":49.5104789,"longitude":-115.7631744,"location":"Christ Anglican Church","region":"Cranbrook","notes":"Beginning March 5, 2025 the meeting will be taking place at 46 13 Ave S, Cranbrook, BC V1C 2V3 at the Christ Anglican Church","url":"https://area78aa.org/meetings/496-3/","group":"Wednesday Downtown Freedom Group","timezone":"America/Edmonton"},{"feed":"area78.org","slug":"872-4","name":"Woman to Woman","day":3,"time":"19:00","end_time":"20:00","types":["O","W","EN"],"state":"BC","postal_code":"V1C 5X1","city":"Cranbrook","address":"1200 Kootenay St N","latitude":49.5235617,"longitude":-115.7426946,"location":"Cranbrook Alliance Church","region":"Cranbrook","notes":"Women\u2019s Discussion Meeting","url":"https://area78aa.org/meetings/872-4/","group":"Woman to Woman Group","timezone":"America/Edmonton"},{"feed":"area78.org","slug":"932-3","name":"Creston Central","day":3,"time":"19:00","types":["C"],"state":"BC","postal_code":"V0B 1G0","city":"Creston","address":"422 7 Ave N","latitude":49.0999498,"longitude":-116.5170016,"location":"Anglican Christ Church","region":"Creston","notes":"Mon - Discussion Meeting /\nWed - Big Book Study /\nFri - Discussion Group. Potluck and birthday last Friday of the month, 6:30 PM.","url":"https://area78aa.org/meetings/932-3/","group":"Creston Central Group","timezone":"America/Edmonton"},{"feed":"aavictoria.ca","slug":"experience-strength-hope","name":"Experience, Strength & Hope","day":3,"time":"19:00","end_time":"20:00","types":["C","D","X"],"state":"BC","postal_code":"V8L 5S9","city":"North Saanich","address":"1319 Mills Rd","latitude":48.6552031,"longitude":-123.4453973,"location":"Holy Trinity Church","url":"https://aavictoria.ca/meetings/experience-strength-hope/","timezone":"America/Vancouver"},{"feed":"aavictoria.ca","slug":"gabriola-island-meeting","name":"Gabriola Island Meeting","day":3,"time":"19:00","end_time":"20:00","types":["O","X"],"state":"BC","postal_code":"V0R 1X3","city":"Gabriola","address":"775 Church St","latitude":49.1752967,"longitude":-123.8358654,"location":"Fellowship Church","url":"https://aavictoria.ca/meetings/gabriola-island-meeting/","timezone":"America/Vancouver"},{"feed":"nanaimoaa.org","slug":"gold-river-serenity-group","name":"Gold River Serenity Group","day":3,"time":"19:00","end_time":"20:00","types":["ONLINE","ONL"],"state":"BC","city":"Gold River","latitude":49.7781637,"longitude":-126.0496148,"location":"Gold River","region":"Gold River","notes":"Meeting ID: 93115028657\nPassword: serenity","conference_url":"https://us02web.zoom.us/j/93115028657","url":"https://nanaimoaa.org/meetings/gold-river-serenity-group/","group":"Gold River Serenity Group","timezone":"America/Los_Angeles"},{"feed":"nanaimoaa.org","slug":"saints-we-aint","name":"Saints We Aint","day":3,"time":"19:00","end_time":"20:00","types":["C"],"state":"BC","postal_code":"V9T 6G7","city":"Nanaimo","address":"6011 Doumont Rd","latitude":49.2241248,"longitude":-124.0436076,"location":"Trinity United Church - NOTE: Dec 24 Meeting will be at Alano Club","region":"Nanaimo Area","url":"https://nanaimoaa.org/meetings/saints-we-aint/","timezone":"America/Los_Angeles"},{"feed":"aavictoria.ca","slug":"sidney-thu-big-book-study","name":"Sidney Big Book Study","day":3,"time":"19:00","end_time":"20:00","types":["B"],"state":"BC","postal_code":"V8L 3B3","city":"Sidney","address":"10030 Third St","latitude":48.654502,"longitude":-123.398196,"location":"St. Elisabeth's Church","url":"https://aavictoria.ca/meetings/sidney-thu-big-book-study/","timezone":"America/Vancouver"},{"feed":"nanaimoaa.org","slug":"the-grapevine-trails-in-person","name":"The Grapevine Trails (in-person)","day":3,"time":"19:00","end_time":"20:00","types":["C","D","GR","X"],"state":"BC","postal_code":"V9T 5W5","city":"Nanaimo","address":"3137 Barons Rd","latitude":49.2085924,"longitude":-124.002176,"location":"Nanaimo District Teachers Assoc Bldg.","region":"Nanaimo Area","notes":"Closed meeting, open last meeting of the month","url":"https://nanaimoaa.org/meetings/the-grapevine-trails-in-person/","group":"The Grapevine Trails","timezone":"America/Los_Angeles"},{"feed":"nanaimoaa.org","slug":"the-hermits","name":"The Hermits (in-person)","day":3,"time":"19:00","end_time":"20:00","types":["O","X"],"state":"BC","postal_code":"V0R 1X3","city":"Gabriola","address":"775 Church St","latitude":49.1752967,"longitude":-123.8358654,"location":"Gabriola Fellowship Church","region":"Gabriola Island","url":"https://nanaimoaa.org/meetings/the-hermits/","group":"The Hermits (in-person)","timezone":"America/Los_Angeles"},{"feed":"aavictoria.ca","slug":"unity-group-2","name":"Unity Group","day":3,"time":"19:00","end_time":"20:00","types":["12x12","B","C","X"],"state":"BC","postal_code":"V8K 2R8","city":"Salt Spring Island","address":"135 Crofton Rd","latitude":48.8618763,"longitude":-123.5084668,"location":"Lionel Beech Annex","notes":"Salt Spring Island.","url":"https://aavictoria.ca/meetings/unity-group-2/","timezone":"America/Vancouver"},{"feed":"nanaimoaa.org","slug":"back-to-basics-nanoose","name":"Back to Basics (in-person)","day":3,"time":"19:30","end_time":"20:30","types":["D","O"],"state":"BC","postal_code":"V9P 9E6","city":"Nanoose Bay","address":"2925 NW Bay Rd","latitude":49.2726593,"longitude":-124.1920821,"location":"Nanoose Place","region":"Parksville, Coombs &amp; Nanoose","url":"https://nanaimoaa.org/meetings/back-to-basics-nanoose/","group":"Back to Basics (in-person)","timezone":"America/Los_Angeles"},{"feed":"aavictoria.ca","slug":"c-l-u-e-zoom-meeting","name":"C.L.U.E. zoom meeting","day":3,"time":"19:30","end_time":"20:30","types":["W","ONL"],"state":"BC","city":"Victoria","latitude":48.4284207,"longitude":-123.3656444,"location":"zoom meeting","notes":"Meeting ID 479-437-9996 No password required","conference_url":"https://us06web.zoom.us/j/4794379996","url":"https://aavictoria.ca/meetings/c-l-u-e-zoom-meeting/","timezone":"America/Vancouver"},{"feed":"aavictoria.ca","slug":"discovery-9","name":"Discovery Beginners Meeting","day":3,"time":"19:30","end_time":"20:30","types":["D","O"],"state":"BC","postal_code":"V8T 2L7","city":"Victoria","address":"627 Dunedin St","latitude":48.4413961,"longitude":-123.3713418,"notes":"Beginners' meeting.\n\nBirthday meeting at noon on the last Saturday of each month.\n\nBusiness meeting at 5:30 pm on the second Tuesday of each month.","url":"https://aavictoria.ca/meetings/discovery-9/","timezone":"America/Vancouver"},{"feed":"aavictoria.ca","slug":"friendship-group","name":"Friendship Group","day":3,"time":"19:30","end_time":"20:30","types":["N","O","X"],"state":"BC","postal_code":"V8Z 3V9","city":"Victoria","address":"231 Regina Ave","latitude":48.4554978,"longitude":-123.3888503,"location":"Victoria","url":"https://aavictoria.ca/meetings/friendship-group/","timezone":"America/Vancouver"},{"feed":"nanaimoaa.org","slug":"just-for-today","name":"Just for Today (in-person and online)","day":3,"time":"19:30","end_time":"20:30","types":["D","O","ONL"],"city":"BC V9G","address":"921 1st Ave, Ladysmith","state":"BC","latitude":48.996344,"longitude":-123.8214506,"location":"Eagles Hall (downstairs)","region":"Ladysmith","conference_url":"https://us06web.zoom.us/j/.7969491194?pwd=g7eHZ5bFXgs-PUS0Oq1fQhZR4aDbu6p.1","url":"https://nanaimoaa.org/meetings/just-for-today/","group":"Just for Today (in-person)","timezone":"America/Los_Angeles"},{"feed":"nanaimoaa.org","slug":"next-guy-on-the-list","name":"Next Guy on the List (hybrid / in-person)","day":3,"time":"19:30","end_time":"20:30","types":["C","D","M","ONL"],"state":"BC","postal_code":"V9S 3W9","city":"Nanaimo","address":"2730 Departure Bay Rd","latitude":49.2031204,"longitude":-123.9703271,"location":"Kin Hut","region":"Nanaimo Area","notes":"Zoom:\nMeeting ID: 893 939 3214\nPasscode: 7891133","conference_url":"https://us06web.zoom.us/j/8939393214?pwd=dmxIcXdkdEMyTEplS1ZxT0lLSDVJQT09","url":"https://nanaimoaa.org/meetings/next-guy-on-the-list/","group":"Next Guy on the List (hybrid / in-person)","timezone":"America/Los_Angeles"},{"feed":"aavictoria.ca","slug":"peace-group-2","name":"Peace Group","day":3,"time":"19:30","end_time":"20:30","types":["C"],"state":"BC","postal_code":"V8R 2L7","city":"Victoria","address":"2060 Haultain St","latitude":48.4362004,"longitude":-123.3197979,"location":"St. Patrick's Church","url":"https://aavictoria.ca/meetings/peace-group-2/","timezone":"America/Vancouver"},{"feed":"nanaimoaa.org","slug":"step-11-meditation","name":"Step 11 Meditation (in-person)","day":3,"time":"19:30","end_time":"20:30","types":["B","O","X"],"state":"BC","postal_code":"V9P 1T7","city":"Parksville","address":"186 Shelly Rd","latitude":49.3186961,"longitude":-124.2924723,"location":"Shelly Road Centre","region":"Parksville, Coombs &amp; Nanoose","notes":"Join us for a Serenity Prayer guided meditation. Bring your Big Book.","url":"https://nanaimoaa.org/meetings/step-11-meditation/","group":"Step 11 Meditation (in-person)","timezone":"America/Los_Angeles"},{"feed":"aavictoria.ca","slug":"stepping-stones","name":"Stepping Stones","day":3,"time":"19:30","end_time":"20:30","types":["C","D"],"state":"BC","postal_code":"V0R 1L0","city":"Cobble Hill","address":"3565 Watson Ave","latitude":48.6883898,"longitude":-123.6010069,"location":"Youth Hall","notes":"Open meeting on the first Wednesday of each month.","url":"https://aavictoria.ca/meetings/stepping-stones/","timezone":"America/Vancouver"},{"feed":"nanaimoaa.org","slug":"the-empty-chair","name":"The Empty Chair (in-person)","day":3,"time":"19:30","end_time":"20:30","types":["O"],"state":"BC","postal_code":"V0R 1G0","city":"Nanaimo","address":"113 McColl Rd","latitude":49.4286979,"longitude":-124.663565,"location":"Wildwood Community Church","region":"Qualicum &amp; Bowser","url":"https://nanaimoaa.org/meetings/the-empty-chair/","group":"The Empty Chair (in-person)","timezone":"America/Los_Angeles"},{"feed":"aavictoria.ca","slug":"the-grapevine-group","name":"The Grapevine Group","day":3,"time":"19:30","end_time":"20:30","types":["GR","X"],"state":"BC","postal_code":"V8M 1N5","city":"Saanichton","address":"7577 Wallace Dr","latitude":48.5880054,"longitude":-123.4213054,"location":"Saanich Baptist Church","url":"https://aavictoria.ca/meetings/the-grapevine-group/","timezone":"America/Vancouver"},{"feed":"aavictoria.ca","slug":"the-misfits","name":"The Misfits","day":3,"time":"19:30","end_time":"20:30","types":["O","X"],"state":"BC","postal_code":"V9B 5R5","city":"Langford","address":"731 Station Ave #104","latitude":48.446118,"longitude":-123.4972266,"location":"Hulitan Building","notes":"No meeting on Dec. 24 or on Dec. 31, 2025","url":"https://aavictoria.ca/meetings/the-misfits/","timezone":"America/Vancouver"},{"feed":"nanaimoaa.org","slug":"tofino-forever-wed-pm","name":"Tofino Forever Group","day":3,"time":"19:30","end_time":"20:30","types":["D","ONLINE","O","SP","ONL"],"state":"BC","city":"Tofino","latitude":49.1529842,"longitude":-125.9066184,"location":"Tofino, BC, Canada","region":"Tofino &amp; Ucluelet","notes":"Meeting ID: 4195859765\nPassword: 376942","conference_url":"https://zoom.us/j/4195859765","url":"https://nanaimoaa.org/meetings/tofino-forever-wed-pm/","group":"Tofino Forever Group","timezone":"America/Los_Angeles"},{"feed":"aavictoria.ca","slug":"walk-the-walk-3","name":"Walk the Walk","day":3,"time":"19:30","end_time":"20:30","types":["C","X"],"state":"BC","postal_code":"V8V 3L4","city":"Victoria","address":"1273 Fort St","latitude":48.4230234,"longitude":-123.3461525,"location":"Grace Lutheran Church","url":"https://aavictoria.ca/meetings/walk-the-walk-3/","timezone":"America/Vancouver"},{"feed":"area78.org","slug":"1587-3","name":"Mile 300","day":3,"time":"20:00","end_time":"21:00","types":["O","X","ONL"],"state":"BC","postal_code":"V0C 0A6","city":"Fort Nelson","address":"5012 52 Ave W","latitude":58.807536,"longitude":-122.7023393,"location":"The Hospice Society","region":"Fort Nelson","conference_url":"https://zoom.us/j/4771638887","url":"https://area78aa.org/meetings/1587-3/","group":"Mile 300 Group","timezone":"America/Edmonton"},{"feed":"area78.org","slug":"1588-3","name":"Tri Unity Group","day":3,"time":"20:00","end_time":"21:00","types":["B","C","EN"],"state":"BC","postal_code":"V1J 1Y6","city":"Fort St John","address":"10116 100 Ave","latitude":56.246705,"longitude":-120.849742,"location":"Old Salvation Army","region":"Fort Saint John","url":"https://area78aa.org/meetings/1588-3/","timezone":"America/Edmonton"},{"feed":"area78.org","slug":"238-3","name":"Niton","day":3,"time":"20:00","types":["O"],"state":"BC","postal_code":"V0E 2Z0","city":"Fraser-Fort George","address":"Yellowhead Hwy & AB-16","latitude":52.8818947,"longitude":-118.4494971,"location":"Old Community Hall","region":"Niton Junction","url":"https://area78aa.org/meetings/238-3/","group":"Niton Group","timezone":"America/Edmonton"},{"feed":"aavictoria.ca","slug":"corpus-veritas-2","name":"Corpus Veritas (HYBRID MEETING)","day":3,"time":"20:00","end_time":"21:00","types":["12x12","B","C","D","X","ONL"],"state":"BC","postal_code":"V8S 4P9","city":"Victoria","address":"1355 Mitchell St","latitude":48.4246514,"longitude":-123.320352,"location":"Oak Bay United Church","notes":"This meeting takes place in-person and by zoom simultaneously.\nIn Chapel off parking lot\nClosed, Open last Wednesday of the month.\nSponsored by group.","conference_url":"https://us04web.zoom.us/j/9243219495","url":"https://aavictoria.ca/meetings/corpus-veritas-2/","timezone":"America/Vancouver"},{"feed":"nanaimoaa.org","slug":"open-doors","name":"Open Doors (in-person)","day":3,"time":"20:00","end_time":"21:00","types":["B","C","X"],"state":"BC","postal_code":"V9Y 1V9","city":"Port Alberni","address":"4835 Argyle St","latitude":49.2348468,"longitude":-124.8059103,"location":"Salvation Army Building","region":"Port Alberni &amp; Nitinaht Lake","url":"https://nanaimoaa.org/meetings/open-doors/","group":"Open Doors (in-person)","timezone":"America/Los_Angeles"},