[{"feed":"aavictoria.ca","slug":"daybreak-14","name":"Daybreak","day":0,"time":"06:30","end_time":"07:30","types":["X","ONL"],"state":"BC","postal_code":"V9B 2Y2","city":"Victoria","address":"935 Goldstream Ave","latitude":48.4506088,"longitude":-123.5074187,"location":"Gordon United Church","notes":"In person Sat & Sun and all Stat holidays\nZoom only Monday to Friday","conference_url":"https://zoom.us/j/544309988","url":"https://aavictoria.ca/meetings/daybreak-14/","timezone":"America/Vancouver"},{"feed":"aavictoria.ca","slug":"attitude-adjustment-14","name":"Attitude Adjustment","day":0,"time":"07:00","end_time":"08:00","types":["C","ONL"],"state":"BC","city":"Victoria","latitude":48.4284207,"longitude":-123.3656444,"location":"zoom meeting","notes":"Last meeting of the month is an open meeting","conference_url":"https://us02web.zoom.us/j/9509922231?pwd=amFaOXZVMmhVakVPamo0N0JvWkF0QT09","url":"https://aavictoria.ca/meetings/attitude-adjustment-14/","timezone":"America/Vancouver"},{"feed":"aavictoria.ca","slug":"attitude-adjustment-7","name":"Attitude Adjustment","day":0,"time":"07:00","end_time":"08:00","types":["C","X"],"state":"BC","postal_code":"V8V 1S1","city":"Victoria","address":"511 Michigan St","latitude":48.416761,"longitude":-123.3725357,"location":"James Bay United Church","notes":"Open meeting on the last Saturday of each month.","url":"https://aavictoria.ca/meetings/attitude-adjustment-7/","timezone":"America/Vancouver"},{"feed":"vancouveraa.ca","slug":"can-us-group-sun","name":"CAN-US GROUP","day":0,"time":"07:00","types":["O","ONL"],"state":"BC","postal_code":"V4B 1Y6","city":"White Rock","latitude":49.0235407,"longitude":-122.7977163,"location":"ONLINE ONLY WHITE ROCK","region":"White Rock","conference_url":"https://us04web.zoom.us/j/73360742943","url":"https://vancouveraa.ca/meetings/can-us-group-sun/","group":"CAN-US GROUP","timezone":"America/Vancouver"},{"feed":"aavictoria.ca","slug":"new-dawn-morning-womens-meeting-6","name":"New Dawn","day":0,"time":"07:00","end_time":"08:00","types":["W","ONL"],"state":"BC","city":"Victoria","latitude":48.4284207,"longitude":-123.3656444,"location":"zoom meeting","notes":"Womens meeting","conference_url":"https://zoom.us/j/85988284221?pwd=NVBCem5Yb1Y3bDMvTmtoVzhIdnBPQT09","url":"https://aavictoria.ca/meetings/new-dawn-morning-womens-meeting-6/","timezone":"America/Vancouver"},{"feed":"nanaimoaa.org","slug":"pass-it-on-sun","name":"Pass It On","day":0,"time":"07:00","types":["D","ONLINE","O","ONL"],"state":"BC","city":"Nanaimo","latitude":49.1658836,"longitude":-123.9400647,"location":"Nanaimo","region":"Nanaimo Area","notes":"Meeting ID: 365 940 2175\nPasscode: 02092000","conference_url":"https://us02web.zoom.us/j/3659402175?pwd=YWs0QUMxYWx4ZjhLRU1HT0xGdTNvdz09","url":"https://nanaimoaa.org/meetings/pass-it-on-sun/","group":"Pass It On","timezone":"America/Los_Angeles"},{"feed":"vancouveraa.ca","slug":"west-end-7am-group","name":"WEST END 7 AM","day":0,"time":"07:00","types":["O","ONL"],"state":"BC","postal_code":"V5R 5L5","city":"Vancouver","latitude":49.2320987,"longitude":-123.0300465,"location":"ONLINE ONLY VAN","region":"Vancouver","conference_url":"https://us04web.zoom.us/j/337590538","url":"https://vancouveraa.ca/meetings/west-end-7am-group/","group":"WEST END 7 AM","timezone":"America/Vancouver"},{"feed":"aavictoria.ca","slug":"back-to-basics-7","name":"Back to Basics","day":0,"time":"07:30","end_time":"08:30","state":"BC","postal_code":"V8V 3L4","city":"Victoria","address":"1273 Fort St","latitude":48.4230234,"longitude":-123.3461525,"location":"Grace Lutheran Church","notes":"Beginners Meeting","url":"https://aavictoria.ca/meetings/back-to-basics-7/","timezone":"America/Vancouver"},{"feed":"vancouveraa.ca","slug":"a-vision-for-you-sun","name":"A VISION FOR YOU","day":0,"time":"08:00","types":["O","X","ONL"],"state":"BC","postal_code":"V4M 2A7","city":"Delta","address":"5061 12 Ave","latitude":49.0249174,"longitude":-123.0836027,"location":"Little House","region":"Tsawwassen","conference_url":"https://zoom.us/j/2242263446","url":"https://vancouveraa.ca/meetings/a-vision-for-you-sun/","group":"A VISION FOR YOU","timezone":"America/Vancouver"},{"feed":"vancouveraa.ca","slug":"early-bird-online-only-sun","name":"EARLY BIRD ONLINE ONLY","day":0,"time":"08:00","types":["D","O","ONL"],"state":"BC","postal_code":"V5R 5L5","city":"Vancouver","latitude":49.2320987,"longitude":-123.0300465,"location":"ONLINE ONLY VAN","region":"Vancouver","conference_url":"https://us06web.zoom.us/j/162516620","url":"https://vancouveraa.ca/meetings/early-bird-online-only-sun/","group":"EARLY BIRD TOPIC","timezone":"America/Vancouver"},{"feed":"vancouveraa.ca","slug":"meditate-at-8-sun","name":"MEDITATE AT 8","day":0,"time":"08:00","types":["EN","MED","O","ONL"],"state":"BC","postal_code":"V5R 5L5","city":"Vancouver","latitude":49.2320987,"longitude":-123.0300465,"location":"ONLINE ONLY VAN","region":"Vancouver","conference_url":"https://us02web.zoom.us/j/4353030651","url":"https://vancouveraa.ca/meetings/meditate-at-8-sun/","group":"MEDITATE AT 8","timezone":"America/Vancouver"},{"feed":"vancouveraa.ca","slug":"aloha-spirit-sunday","name":"ALOHA SPIRIT BEACH MEETING","day":0,"time":"08:30","types":["D","GR","O","OUT","SP","X"],"state":"BC","postal_code":"V7V 1A4","city":"West Vancouver","address":"Argyle Ave","latitude":49.3287358,"longitude":-123.1705411,"location":"Ambleside Beach","region":"West Vancouver","notes":"Active as of May 2026!","url":"https://vancouveraa.ca/meetings/aloha-spirit-sunday/","group":"ALOHA SPIRIT/ VANYPAA","timezone":"America/Vancouver"},{"feed":"area78.org","slug":"as-she-rises-womens-meeting","name":"As She Rises Women's Meeting","day":0,"time":"08:30","end_time":"09:30","types":["C","D","W"],"state":"BC","postal_code":"V1C 2W8","city":"Cranbrook","address":"1402 1st St S","latitude":49.5104683,"longitude":-115.76136,"location":"Community Living Center","region":"Cranbrook","url":"https://area78aa.org/meetings/as-she-rises-womens-meeting/","timezone":"America/Edmonton"},{"feed":"aavictoria.ca","slug":"discovery-mens-meeting-6","name":"Discovery Men's Meeting","day":0,"time":"08:30","end_time":"09:30","types":["D","M"],"state":"BC","postal_code":"V8T 2L7","city":"Victoria","address":"627 Dunedin St","latitude":48.4413961,"longitude":-123.3713418,"url":"https://aavictoria.ca/meetings/discovery-mens-meeting-6/","timezone":"America/Vancouver"},{"feed":"vancouveraa.ca","slug":"district-30","name":"District 30: Monthly Meeting","day":0,"time":"09:00","types":["C","ONL"],"state":"BC","postal_code":"V5R 5L5","city":"Vancouver","latitude":49.2320987,"longitude":-123.0300465,"location":"ONLINE ONLY VAN","region":"Vancouver","notes":"This is a monthly service meeting. Every month on the 1st Sunday only.","conference_url":"https://us06web.zoom.us/j/84140746624","url":"https://vancouveraa.ca/meetings/district-30/","group":"BC/ YUKON AREA 79","timezone":"America/Vancouver"},{"feed":"vancouveraa.ca","slug":"district-40-monthly-meeting","name":"District 40: Monthly meeting","day":0,"time":"09:00","types":["C"],"city":"BC V3J","address":"629 Hillcrest St, Coquitlam","state":"BC","latitude":49.2541109,"longitude":-122.835072,"location":"Mundy Park Field House","region":"Coquitlam","notes":"\u26a0This is a monthly service meeting on the fourth (not last) Sunday of the month, for GSRs from groups in Coquitlam, Port Coquitlam, and Port Moody. Any group member in this District is invited to attend.","url":"https://vancouveraa.ca/meetings/district-40-monthly-meeting/","group":"BC/ YUKON AREA 79","timezone":"America/Vancouver"},{"feed":"aavictoria.ca","slug":"hearts-of-mayne-group","name":"Hearts of Mayne Group","day":0,"time":"09:00","end_time":"10:00","types":["D"],"state":"BC","postal_code":"V0N 2J2","city":"Mayne Island","address":"526 Felix Jack Rd","latitude":48.8469951,"longitude":-123.2841419,"location":"Mayne Island Health Centre, Lower Level","notes":"Mayne Island.","url":"https://aavictoria.ca/meetings/hearts-of-mayne-group/","timezone":"America/Vancouver"},{"feed":"vancouveraa.ca","slug":"surrey-grapevine","name":"SURREY GRAPEVINE","day":0,"time":"09:00","types":["O"],"state":"BC","postal_code":"V3W 5A7","city":"Surrey","address":"7277 King George Blvd","latitude":49.1349162,"longitude":-122.8460247,"location":"Easy Does It Club","region":"Surrey","url":"https://vancouveraa.ca/meetings/surrey-grapevine/","group":"SURREY GRAPEVINE","timezone":"America/Vancouver"},{"feed":"vancouveraa.ca","slug":"how-it-works-sun-930","name":"HOW IT WORKS","day":0,"time":"09:30","types":["D","O","X","XB"],"state":"BC","postal_code":"V4K 3C9","city":"Delta","address":"4748 57 St b","latitude":49.0887356,"longitude":-123.0652742,"location":"Ladner Adult Learning Centre","region":"Ladner","url":"https://vancouveraa.ca/meetings/how-it-works-sun-930/","group":"HOW IT WORKS","timezone":"America/Vancouver"},{"feed":"aavictoria.ca","slug":"sidney-noon-serenity-morning-3","name":"Sidney Zoom Meeting","day":0,"time":"09:30","end_time":"10:30","types":["ONL"],"state":"BC","city":"Sidney","latitude":48.6502411,"longitude":-123.399005,"notes":"on line","conference_url":"https://us04web.zoom.us/j/5187467295","url":"https://aavictoria.ca/meetings/sidney-noon-serenity-morning-3/","timezone":"America/Vancouver"},{"feed":"vancouveraa.ca","slug":"sunrise-serenity-sun-930am","name":"SUNRISE SERENITY","day":0,"time":"09:30","types":["B","O","X"],"state":"BC","postal_code":"V3M 1B2","city":"New Westminster","address":"715 Columbia St","latitude":49.2020262,"longitude":-122.9104198,"location":"Waves Coffee House","region":"New Westminster","url":"https://vancouveraa.ca/meetings/sunrise-serenity-sun-930am/","group":"SUNRISE SERENITY","timezone":"America/Vancouver"},{"feed":"vancouveraa.ca","slug":"early-morning-coffee-and-donuts-sun","name":"EARLY MORNING COFFEE AND DONUTS","day":0,"time":"09:45","types":["D","O","ONL"],"state":"BC","postal_code":"V3W 5A7","city":"Surrey","latitude":49.1345818,"longitude":-122.8461717,"location":"ONLINE ONLY SURREY","region":"Surrey","conference_url":"https://us02web.zoom.us/j/383660385","url":"https://vancouveraa.ca/meetings/early-morning-coffee-and-donuts-sun/","group":"EARLY MORNING COFFEE AND DONUTS GRP","timezone":"America/Vancouver"},{"feed":"vancouveraa.ca","slug":"district-18-monthly-meeting","name":"District 18: Monthly Meeting","day":0,"time":"10:00","types":["C","X"],"state":"BC","postal_code":"V7L 1C3","city":"North Vancouver","address":"176 2nd St E","latitude":49.3116413,"longitude":-123.074965,"location":"North Shore Alano Club","region":"North Vancouver","notes":"This is a monthly service meeting. \u2757The last Sunday of each month. No meeting in December.","url":"https://vancouveraa.ca/meetings/district-18-monthly-meeting/","group":"BC/ YUKON AREA 79","timezone":"America/Vancouver"},{"feed":"vancouveraa.ca","slug":"district-32","name":"District 32: Monthly meeting","day":0,"time":"10:00","types":["C","ONL"],"state":"BC","postal_code":"V5R 5L5","city":"Vancouver","latitude":49.2320987,"longitude":-123.0300465,"location":"ONLINE ONLY VAN","region":"Vancouver","notes":"\u26a0 This is a monthly service meeting for GSRs from groups in Burnaby South, South of Highway 1. Any group member in this District is invited to attend.\n\ud83d\udcc5 Every month on the 2nd Sunday: dates: May 5, Jun 9, Jul 14","conference_url":"https://zoom.us/j/82757304422","url":"https://vancouveraa.ca/meetings/district-32/","group":"BC/ YUKON AREA 79","timezone":"America/Vancouver"},{"feed":"vancouveraa.ca","slug":"friends-of-bill-w","name":"FRIENDS OF BILL W.","day":0,"time":"10:00","types":["O","X","XB"],"state":"BC","postal_code":"V3K 6V9","city":"Coquitlam","address":"100 Schoolhouse St","latitude":49.2338484,"longitude":-122.8537229,"location":"Ricky's Country","region":"Coquitlam","notes":"This meeting is now open 16 people maximum.","url":"https://vancouveraa.ca/meetings/friends-of-bill-w/","group":"FRIENDS OF BILL W.","timezone":"America/Vancouver"},{"feed":"vancouveraa.ca","slug":"granville-island-mens","name":"GRANVILLE ISLAND MEN'S","day":0,"time":"10:00","types":["M","O","X","XB"],"state":"BC","postal_code":"V6H 3R8","city":"Vancouver","address":"1318 Cartwright St","latitude":49.2690046,"longitude":-123.1346044,"location":"False Creek Community Centre","region":"Vancouver","url":"https://vancouveraa.ca/meetings/granville-island-mens/","group":"GRANVILLE ISLAND MEN'S","timezone":"America/Vancouver"},{"feed":"vancouveraa.ca","slug":"kitsun","name":"KITSUN","day":0,"time":"10:00","types":["CF","DB","LIT","O","X","XB"],"state":"BC","postal_code":"V6K 2L2","city":"Vancouver","address":"3214 W 10th Ave","latitude":49.2630337,"longitude":-123.1762386,"location":"St. James Community Square","region":"Vancouver","notes":"\ud83c\udfa4 this meeting uses a microphone.","url":"https://vancouveraa.ca/meetings/kitsun/","group":"KITSUN","timezone":"America/Vancouver"},{"feed":"vancouveraa.ca","slug":"kitsun-online","name":"KITSUN ONLINE MEETING","day":0,"time":"10:00","types":["O","ONL"],"state":"BC","postal_code":"V5R 5L5","city":"Vancouver","latitude":49.2320987,"longitude":-123.0300465,"location":"ONLINE ONLY VAN","region":"Vancouver","conference_url":"https://zoom.us/j/786185258","url":"https://vancouveraa.ca/meetings/kitsun-online/","group":"KITSUN ONLINE MEETING","timezone":"America/Vancouver"},{"feed":"nanaimoaa.org","slug":"sunday-serenity-group","name":"Sunday Serenity (in-person)","day":0,"time":"10:00","types":["O","ASL","X"],"state":"BC","postal_code":"V9S 5B6","city":"Nanaimo","address":"321 Wallace St #206","latitude":49.1654604,"longitude":-123.939767,"location":"Nanaimo Alano Club","region":"Nanaimo Area","url":"https://nanaimoaa.org/meetings/sunday-serenity-group/","group":"Sunday Serenity Group","timezone":"America/Los_Angeles"},{"feed":"vancouveraa.ca","slug":"sunset-at-10am","name":"SUNSET AT 10AM","day":0,"time":"10:00","types":["D","O"],"state":"BC","postal_code":"V6G 2Y1","city":"Vancouver","address":"1655 Barclay St","latitude":49.288588,"longitude":-123.1346391,"location":"Sunset Towers","region":"Vancouver","url":"https://vancouveraa.ca/meetings/sunset-at-10am/","group":"SUNSET AT 10AM","timezone":"America/Vancouver"},{"feed":"vancouveraa.ca","slug":"trinity","name":"TRINITY","day":0,"time":"10:00","types":["O"],"state":"BC","postal_code":"V6J 1S1","city":"Vancouver","address":"1525 W 7th Ave","latitude":49.265524,"longitude":-123.1394983,"location":"Alano Club of Vancouver","region":"Vancouver","notes":"\ud83c\udfa4This meeting uses a microphone.","url":"https://vancouveraa.ca/meetings/trinity/","group":"TRINITY","timezone":"America/Vancouver"},{"feed":"vancouveraa.ca","slug":"white-rock-morning-discussion","name":"WHITE ROCK MORNING DISCUSSION","day":0,"time":"10:00","types":["D","O","X","XB"],"state":"BC","postal_code":"V4B 1P9","city":"White Rock","address":"15302 Pacific Ave","latitude":49.0226022,"longitude":-122.798238,"location":"Masonic Hall","region":"White Rock","url":"https://vancouveraa.ca/meetings/white-rock-morning-discussion/","group":"WHITE ROCK MORNING DISCUSSION","timezone":"America/Vancouver"},{"feed":"vancouveraa.ca","slug":"aa-womens-meeting-sun-1030","name":"AA WOMEN'S MEETING","day":0,"time":"10:30","types":["D","O","X","XB","W","ONL"],"state":"BC","postal_code":"V4B 3Z8","city":"White Rock","address":"1548 Johnston Rd","latitude":49.0300912,"longitude":-122.8008489,"location":"Avalon Women's Centre White Rock","region":"White Rock","conference_url":"https://zoom.us/j/98668239663","url":"https://vancouveraa.ca/meetings/aa-womens-meeting-sun-1030/","group":"Avalon Women's Centre White Rock","timezone":"America/Vancouver"},{"feed":"nanaimoaa.org","slug":"sunday-morning-gratitude","name":"Sunday Morning Gratitude (in-person)","day":0,"time":"10:30","types":["D","O","X"],"state":"BC","postal_code":"V9P 1T7","city":"Parksville","address":"186 Shelly Rd","latitude":49.3186961,"longitude":-124.2924723,"location":"Shelly Road Centre","region":"Parksville, Coombs &amp; Nanoose","url":"https://nanaimoaa.org/meetings/sunday-morning-gratitude/","group":"Sunday Morning Gratitude (in-person)","timezone":"America/Los_Angeles"},{"feed":"nanaimoaa.org","slug":"sunday-morning-gratitude-online","name":"Sunday Morning Gratitude (online)","day":0,"time":"10:30","end_time":"11:30","types":["D","ONLINE","O","ONL"],"state":"BC","city":"Parksville","latitude":49.3193375,"longitude":-124.3136412,"location":"Parksville","region":"Parksville, Coombs &amp; Nanoose","notes":"Meeting ID: 856 8031 9576\nPassword: 268283\n\nThis meeting is NOT a hybrid with the Sunday Morning Gratitude in-person meeting.","conference_url":"https://us02web.zoom.us/j/85680319576?pwd=WUdUcmNYd3RPUHBqUDhYeVFubHhaZz09","url":"https://nanaimoaa.org/meetings/sunday-morning-gratitude-online/","group":"Sunday Morning Gratitude (online)","timezone":"America/Los_Angeles"},{"feed":"vancouveraa.ca","slug":"t-sun","name":"T-SUN GRP","day":0,"time":"10:30","types":["O"],"state":"BC","postal_code":"V5T 3L1","city":"Vancouver","address":"2775 Sophia St","latitude":49.2605572,"longitude":-123.0985737,"location":"Vancouver Recovery Club","region":"Vancouver","url":"https://vancouveraa.ca/meetings/t-sun/","group":"T-SUN GRP","timezone":"America/Vancouver"},{"feed":"vancouveraa.ca","slug":"bf-noon-mtg-sun","name":"BURNABY FELLOWSHIP NOON MEETING","day":0,"time":"11:00","types":["D","O","X"],"state":"BC","postal_code":"V3N 3M5","city":"Burnaby","address":"7638 6th St","latitude":49.2221006,"longitude":-122.9313597,"location":"Burnaby Fellowship Centre","region":"Burnaby","url":"https://vancouveraa.ca/meetings/bf-noon-mtg-sun/","group":"BURNABY FELLOWSHIP NOON MEETING","timezone":"America/Vancouver"},{"feed":"nanaimoaa.org","slug":"i-am-responsible","name":"I am Responsible (in-person)","day":0,"time":"11:00","types":["D","O","X"],"state":"BC","postal_code":"V9X 1L9","city":"Nanaimo","address":"1644 MacMillan Rd","latitude":49.1139911,"longitude":-123.8656127,"location":"Cedar Heritage Centre","region":"Nanaimo Area","url":"https://nanaimoaa.org/meetings/i-am-responsible/","group":"I am Responsible (in-person)","timezone":"America/Los_Angeles"},{"feed":"vancouveraa.ca","slug":"park-meeting","name":"PARK MEETING","day":0,"time":"11:00","types":["D","O"],"state":"BC","postal_code":"V3L 1K2","city":"New Westminster","address":"529 Queens Ave","latitude":49.207481,"longitude":-122.9127675,"location":"Queen's Avenue United Church","region":"New Westminster","url":"https://vancouveraa.ca/meetings/park-meeting/","group":"PARK MEETING","timezone":"America/Vancouver"},{"feed":"vancouveraa.ca","slug":"serene-sunday","name":"SERENE SUNDAY","day":0,"time":"11:00","types":["D","O","X","XB","ONL"],"state":"BC","postal_code":"V2X 2L5","city":"Maple Ridge","address":"22270 North Ave","latitude":49.215699,"longitude":-122.6054353,"location":"One Way Club","region":"Maple Ridge","notes":"\ud83c\udfa4 this meeting uses a microphone.","conference_url":"https://zoom.us/j/88395230029","url":"https://vancouveraa.ca/meetings/serene-sunday/","group":"SERENE SUNDAY","timezone":"America/Vancouver"},{"feed":"vancouveraa.ca","slug":"sunday-breakfast-meeting","name":"SUNDAY BREAKFAST MEETING","day":0,"time":"11:00","types":["O","X"],"state":"BC","postal_code":"V7L 1C3","city":"North Vancouver","address":"176 2nd St E","latitude":49.3116413,"longitude":-123.074965,"location":"North Shore Alano Club","region":"North Vancouver","notes":"Breakfast starts at 9:30 am.","url":"https://vancouveraa.ca/meetings/sunday-breakfast-meeting/","group":"SUNDAY BREAKFAST MEETING","timezone":"America/Vancouver"},{"feed":"nanaimoaa.org","slug":"sunday-morning-breakfast-group","name":"Sunday Morning Breakfast Group (in-person)","day":0,"time":"11:00","types":["D"],"state":"BC","postal_code":"V9R 7A4","city":"Nanaimo","address":"82 Twelfth St","latitude":49.1294478,"longitude":-123.923219,"location":"Country Grocer","region":"Nanaimo Area","url":"https://nanaimoaa.org/meetings/sunday-morning-breakfast-group/","group":"Sunday Morning Breakfast Group (in-person)","timezone":"America/Los_Angeles"},{"feed":"nanaimoaa.org","slug":"sunlight-of-the-spirit","name":"Sunlight of the Spirit (in-person)","day":0,"time":"11:00","end_time":"12:00","types":["D","O","X"],"state":"BC","postal_code":"V9T 5W5","city":"Nanaimo","address":"3137 Barons Rd","latitude":49.2085924,"longitude":-124.002176,"location":"Nanaimo District Teachers Assoc Bldg.","region":"Nanaimo Area","url":"https://nanaimoaa.org/meetings/sunlight-of-the-spirit/","group":"Sunlight of the Spirit (in-person)","timezone":"America/Los_Angeles"},{"feed":"vancouveraa.ca","slug":"district-26","name":"District 26: Monthly Meeting","day":0,"time":"11:30","types":["C","ONL"],"state":"BC","postal_code":"V5R 5L5","city":"Vancouver","latitude":49.2320987,"longitude":-123.0300465,"location":"ONLINE ONLY VAN","region":"Vancouver","notes":"This is a monthly service meeting. Every month on the 4th Sunday only.","conference_url":"https://cwilson.zoom.us/j/92906379111","url":"https://vancouveraa.ca/meetings/district-26/","group":"BC/ YUKON AREA 79","timezone":"America/Vancouver"},{"feed":"vancouveraa.ca","slug":"attitude-adjustment-hour-sun","name":"ATTITUDE ADJUSTMENT HOUR","day":0,"time":"12:00","types":["D","O"],"state":"BC","postal_code":"V7C 1A1","city":"Richmond","address":"5400 River Rd","latitude":49.1735684,"longitude":-123.1691262,"location":"Park House","region":"Richmond","url":"https://vancouveraa.ca/meetings/attitude-adjustment-hour-sun/","group":"ATTITUDE ADJUSTMENT GRP","timezone":"America/Vancouver"},{"feed":"vancouveraa.ca","slug":"daily-reflections-sun","name":"DAILY REFLECTIONS","day":0,"time":"12:00","types":["O","X","XB"],"state":"BC","postal_code":"V4B 1P9","city":"White Rock","address":"15302 Pacific Ave","latitude":49.0226022,"longitude":-122.798238,"location":"Masonic Hall","region":"White Rock","url":"https://vancouveraa.ca/meetings/daily-reflections-sun/","group":"DAILY REFLECTIONS","timezone":"America/Vancouver"},{"feed":"vancouveraa.ca","slug":"daily-reprieve-sun","name":"DAILY REPRIEVE","day":0,"time":"12:00","types":["DB","O","ONL"],"state":"BC","postal_code":"V3N 1C4","city":"Burnaby","latitude":49.2315479,"longitude":-122.9275677,"location":"ONLINE ONLY BURNABY","region":"Burnaby","conference_url":"https://zoom.us/j/198058170","url":"https://vancouveraa.ca/meetings/daily-reprieve-sun/","group":"DAILY REPRIEVE","timezone":"America/Vancouver"},{"feed":"vancouveraa.ca","slug":"district-28","name":"District 28: Monthly meeting","day":0,"time":"12:00","types":["C","ONL"],"state":"BC","postal_code":"V5R 5L5","city":"Vancouver","latitude":49.2320987,"longitude":-123.0300465,"location":"ONLINE ONLY VAN","region":"Vancouver","notes":"\u26a0 This is a monthly service meeting for GSRs from groups in Vancouver \u2013 East End, Downtown East Side. Any group member in this District is invited to attend.\n\ud83d\udcc5 Every month on the 4th Sunday","conference_url":"https://zoom.us/j/95685948744?pwd=aytpNUV2TUh4enI1Z3A3TjI1V3hzZz09","url":"https://vancouveraa.ca/meetings/district-28/","group":"BC/ YUKON AREA 79","timezone":"America/Vancouver"},{"feed":"nanaimoaa.org","slug":"noon-group-sun","name":"Noon Group (in-person)","day":0,"time":"12:00","types":["D","O","X"],"state":"BC","postal_code":"V9Y 1Y9","city":"Port Alberni","address":"3028 2nd Ave","latitude":49.2337396,"longitude":-124.8092354,"location":"Port Alberni Alano Club","region":"Port Alberni &amp; Nitinaht Lake","url":"https://nanaimoaa.org/meetings/noon-group-sun/","group":"Noon Group (Port Alberni","timezone":"America/Los_Angeles"},{"feed":"vancouveraa.ca","slug":"river-group-sun-noon","name":"RIVER GROUP","day":0,"time":"12:00","types":["O"],"state":"BC","postal_code":"V4K 3N2","city":"Delta","address":"3900 Arthur Dr","latitude":49.074919,"longitude":-123.077788,"location":"Sacred Heart Monastery","region":"Ladner","url":"https://vancouveraa.ca/meetings/river-group-sun-noon/","group":"RIVER GROUP","timezone":"America/Vancouver"},{"feed":"vancouveraa.ca","slug":"sunday-solution","name":"SUNDAY SOLUTION","day":0,"time":"12:00","types":["0","D","O","OUT"],"state":"BC","postal_code":"V5C 5J9","city":"Burnaby","address":"250 Willingdon Ave","latitude":49.2831039,"longitude":-122.9995011,"location":"Confederation Park","region":"Burnaby","url":"https://vancouveraa.ca/meetings/sunday-solution/","group":"SUNDAY SOLUTION","timezone":"America/Vancouver"},{"feed":"vancouveraa.ca","slug":"the-nooner-sun","name":"THE NOONER","day":0,"time":"12:00","types":["B","O","ONL"],"state":"BC","postal_code":"V6E 1Z6","city":"Vancouver","address":"1170 Bute St","latitude":49.2818913,"longitude":-123.1329814,"location":"QMUNITY","region":"Vancouver","conference_url":"https://us04web.zoom.us/j/851238688","url":"https://vancouveraa.ca/meetings/the-nooner-sun/","group":"THE NOONER - lgbtq","timezone":"America/Vancouver"},{"feed":"nanaimoaa.org","slug":"tofino-group-sun-noon","name":"Tofino Forever Group","day":0,"time":"12:00","end_time":"13:00","types":["D","ONLINE","O","ONL"],"state":"BC","city":"Tofino","latitude":49.1529842,"longitude":-125.9066184,"location":"Tofino, BC, Canada","region":"Tofino &amp; Ucluelet","notes":"Meeting ID: 4195859765\nPassword: 376942","conference_url":"https://zoom.us/j/4195859765","url":"https://nanaimoaa.org/meetings/tofino-group-sun-noon/","group":"Tofino Forever Group","timezone":"America/Los_Angeles"},{"feed":"aavictoria.ca","slug":"welcome-group-7","name":"Welcome Group","day":0,"time":"12:00","end_time":"13:00","types":["D","O","X"],"state":"BC","postal_code":"V8K 1S1","city":"Salt Spring Island","address":"901 N End Rd","latitude":48.8731776,"longitude":-123.5288504,"location":"Fritz Theatre Central Hall","notes":"Salt Spring Island","url":"https://aavictoria.ca/meetings/welcome-group-7/","timezone":"America/Vancouver"},{"feed":"vancouveraa.ca","slug":"aa-womens-meeting-sun-1215","name":"AA WOMEN'S MEETING","day":0,"time":"12:15","types":["D","O","X","XB","W","ONL"],"state":"BC","postal_code":"V7V 1K5","city":"West Vancouver","address":"2225 Marine Dr","latitude":49.3310793,"longitude":-123.1716411,"location":"Avalon Women's Centre North Shore","region":"West Vancouver","conference_url":"https://zoom.us/j/97348773262","url":"https://vancouveraa.ca/meetings/aa-womens-meeting-sun-1215/","group":"AVALON WOMEN'S CENTRE NORTH VANCOUVER","timezone":"America/Vancouver"},{"feed":"vancouveraa.ca","slug":"aa-womens-meeting-sun-1230","name":"AA WOMEN'S MEETING","day":0,"time":"12:30","types":["D","O","X","XB","W","ONL"],"state":"BC","postal_code":"V6M 3X1","city":"Vancouver","address":"5957 West Blvd","latitude":49.2322779,"longitude":-123.1559016,"location":"Avalon Women's Centre","region":"Vancouver","conference_url":"https://zoom.us/j/97288841083","url":"https://vancouveraa.ca/meetings/aa-womens-meeting-sun-1230/","group":"AVALON WOMEN'S CENTRE VANCOUVER","timezone":"America/Vancouver"},{"feed":"aavictoria.ca","slug":"joe-charlie-meeting","name":"Discovery Joe & Charlie Meeting","day":0,"time":"12:30","end_time":"13:30","state":"BC","postal_code":"V8T 2L7","city":"Victoria","address":"627 Dunedin St","latitude":48.4413961,"longitude":-123.3713418,"notes":"In person","url":"https://aavictoria.ca/meetings/joe-charlie-meeting/","timezone":"America/Vancouver"},{"feed":"vancouveraa.ca","slug":"o-t-l-b-online-sun","name":"O.T.L.B. ONLINE","day":0,"time":"12:30","types":["O","ONL"],"state":"BC","postal_code":"V5R 5L5","city":"Vancouver","latitude":49.2320987,"longitude":-123.0300465,"location":"ONLINE ONLY VAN","region":"Vancouver","conference_url":"https://us04web.zoom.us/j/78536104637","url":"https://vancouveraa.ca/meetings/o-t-l-b-online-sun/","group":"O.T.L.B. ONLINE","timezone":"America/Vancouver"},{"feed":"vancouveraa.ca","slug":"out-to-lunch-bunch-sunday","name":"OUT TO LUNCH BUNCH","day":0,"time":"12:30","types":["O","X","XB"],"state":"BC","postal_code":"V6A 0A7","city":"Vancouver","address":"57 E Hastings St","latitude":49.2815806,"longitude":-123.1030879,"location":"The Dugout","region":"Vancouver","url":"https://vancouveraa.ca/meetings/out-to-lunch-bunch-sunday/","group":"OUT TO LUNCH BUNCH","timezone":"America/Vancouver"},{"feed":"vancouveraa.ca","slug":"keystone-grp-sun","name":"KEYSTONE GRP BEGINNERS BOOK STUDY","day":0,"time":"13:00","types":["B","BE","O","ONL"],"state":"BC","postal_code":"V5R 5L5","city":"Vancouver","latitude":49.2320987,"longitude":-123.0300465,"location":"ONLINE ONLY VAN","region":"Vancouver","conference_url":"https://zoom.us/j/6488658508","url":"https://vancouveraa.ca/meetings/keystone-grp-sun/","group":"KEYSTONE GRP","timezone":"America/Vancouver"},{"feed":"vancouveraa.ca","slug":"riff-raff-grp-sun-1pm","name":"RIFF RAFF GRP","day":0,"time":"13:00","types":["BE","O","X"],"state":"BC","postal_code":"V6E 1L3","city":"Vancouver","address":"1157 Jepson-Young Ln","latitude":49.2823123,"longitude":-123.1311512,"location":"Mole Hill","region":"Vancouver","url":"https://vancouveraa.ca/meetings/riff-raff-grp-sun-1pm/","group":"RIFF RAFF GRP","timezone":"America/Vancouver"},{"feed":"vancouveraa.ca","slug":"sober-surrey-sisters","name":"SOBER SURREY SISTERS","day":0,"time":"13:30","types":["O","W","ONL"],"state":"BC","postal_code":"V3W 5A7","city":"Surrey","address":"7277 King George Blvd","latitude":49.1349162,"longitude":-122.8460247,"location":"Easy Does It Club","region":"Surrey","notes":"Hybrid meeting.","conference_url":"https://zoom.us/j/91865270048","url":"https://vancouveraa.ca/meetings/sober-surrey-sisters/","group":"SOBER SURREY SISTERS","timezone":"America/Vancouver"},{"feed":"vancouveraa.ca","slug":"aa-vancouver-sun","name":"AA VANCOUVER","day":0,"time":"14:00","types":["12x12","B","D","O","ONL"],"state":"BC","postal_code":"V5R 5L5","city":"Vancouver","latitude":49.2320987,"longitude":-123.0300465,"location":"ONLINE ONLY VAN","region":"Vancouver","conference_url":"https://zoom.us/j/83314248802","url":"https://vancouveraa.ca/meetings/aa-vancouver-sun/","group":"AA VANCOUVER","timezone":"America/Vancouver"},{"feed":"aavictoria.ca","slug":"discovery-32","name":"Discovery Discussion","day":0,"time":"14:30","end_time":"15:30","types":["C","D"],"state":"BC","postal_code":"V8T 2L7","city":"Victoria","address":"627 Dunedin St","latitude":48.4413961,"longitude":-123.3713418,"url":"https://aavictoria.ca/meetings/discovery-32/","timezone":"America/Vancouver"},{"feed":"vancouveraa.ca","slug":"ya-you-too","name":"YA! YOU TOO!","day":0,"time":"15:00","types":["D","O","ST","X","XB"],"state":"BC","postal_code":"V6B 5R1","city":"Vancouver","address":"609 Helmcken St","latitude":49.2780262,"longitude":-123.1234443,"location":"Gathering Place","region":"Vancouver","url":"https://vancouveraa.ca/meetings/ya-you-too/","group":"YA! YOU TOO!","timezone":"America/Vancouver"},{"feed":"aavictoria.ca","slug":"westshore-womens-solutions-2","name":"Westshore Women's Solutions","day":0,"time":"16:00","end_time":"17:00","types":["O","W"],"state":"BC","postal_code":"V9B 0A7","city":"Victoria","address":"3024 Jacklin Rd","latitude":48.4402084,"longitude":-123.5115006,"location":"Redeemer Lutheran Church","url":"https://aavictoria.ca/meetings/westshore-womens-solutions-2/","timezone":"America/Vancouver"},{"feed":"vancouveraa.ca","slug":"district-24","name":"District 24: Monthly meeting","day":0,"time":"16:45","types":["C","ONL"],"state":"BC","postal_code":"V5R 5L5","city":"Vancouver","latitude":49.2320987,"longitude":-123.0300465,"location":"ONLINE ONLY VAN","region":"Vancouver","notes":"\u26a0 This is a monthly service meeting for GSRs from groups in Vancouver west of Artbus from Fraser River south to Kitsilano Point, Downtown, West Cambie Bridge and Cambie St. to the water. Any group member in this District is invited to attend.\n\ud83d\udcc5 Every month on the 4th Sunday","conference_url":"https://zoom.us/j/81779597481","url":"https://vancouveraa.ca/meetings/district-24/","group":"BC/ YUKON AREA 79","timezone":"America/Vancouver"},{"feed":"vancouveraa.ca","slug":"how-it-works-sun-530","name":"HOW IT WORKS","day":0,"time":"17:30","types":["D","O","X","XB"],"state":"BC","postal_code":"V4K 3C9","city":"Delta","address":"4748 57 St b","latitude":49.0887356,"longitude":-123.0652742,"location":"Ladner Adult Learning Centre","region":"Ladner","url":"https://vancouveraa.ca/meetings/how-it-works-sun-530/","group":"HOW IT WORKS","timezone":"America/Vancouver"},{"feed":"vancouveraa.ca","slug":"river-group-sun-6","name":"RIVER GROUP","day":0,"time":"18:00","types":["O"],"state":"BC","postal_code":"V4K 3N2","city":"Delta","address":"3900 Arthur Dr","latitude":49.074919,"longitude":-123.077788,"location":"Sacred Heart Monastery","region":"Ladner","url":"https://vancouveraa.ca/meetings/river-group-sun-6/","group":"RIVER GROUP","timezone":"America/Vancouver"},{"feed":"area78.org","slug":"1416-0","name":"Fernie Serenity","day":0,"time":"18:30","end_time":"19:30","types":["O"],"state":"BC","postal_code":"V0B 1M0","city":"Fernie","address":"591 4 Ave","latitude":49.5047897,"longitude":-115.0634773,"location":"Anglican Church of Canada Christ Church","region":"Fernie","notes":"Anglican Church Basement","url":"https://area78aa.org/meetings/1416-0/","group":"Fernie Serenity Group","timezone":"America/Edmonton"},{"feed":"vancouveraa.ca","slug":"e-d-i-punjabi-speaking","name":"E.D.I. PUNJABI SPEAKING","day":0,"time":"18:30","types":["O","PUN"],"state":"BC","postal_code":"V3W 5A7","city":"Surrey","address":"7277 King George Blvd","latitude":49.1349162,"longitude":-122.8460247,"location":"Easy Does It Club","region":"Surrey","url":"https://vancouveraa.ca/meetings/e-d-i-punjabi-speaking/","group":"E.D.I. PUNJABI SPEAKING","timezone":"America/Vancouver"},{"feed":"vancouveraa.ca","slug":"phoenix-mens-step","name":"PHOENIX MEN'S STEP","day":0,"time":"18:30","end_time":"19:15","types":["12x12","C","M","ST","TR","X","EN"],"state":"BC","postal_code":"V4C 6P6","city":"Delta","address":"7655 120 St","latitude":49.1424751,"longitude":-122.8914931,"location":"Crossroad's United Church","region":"Delta","notes":"No meeting on the first Sunday of the month","url":"https://vancouveraa.ca/meetings/phoenix-mens-step/","group":"PHOENIX MEN'S","timezone":"America/Vancouver"},{"feed":"vancouveraa.ca","slug":"renfrew-beginners-meeting","name":"RENFREW BEGINNERS MEETING","day":0,"time":"18:30","types":["DB","BE","O","ONL"],"state":"BC","postal_code":"V5K 1X5","city":"Vancouver","address":"2595 Franklin St","latitude":49.2823223,"longitude":-123.0523122,"location":"Longhouse","region":"Vancouver","notes":"No meeting 1st Sunday of the month.","conference_url":"https://zoom.us/j/4826848292","url":"https://vancouveraa.ca/meetings/renfrew-beginners-meeting/","group":"RENFREW GROUP","timezone":"America/Vancouver"},{"feed":"nanaimoaa.org","slug":"sunday-night-ladies-meeting","name":"Sunday Night Ladies Meeting (hybrid / in-person)","day":0,"time":"18:30","end_time":"19:30","types":["LIT","O","X","W","ONL"],"state":"BC","postal_code":"V9S 5B6","city":"Nanaimo","address":"321 Wallace St #206","latitude":49.1654604,"longitude":-123.939767,"location":"Nanaimo Alano Club","region":"Nanaimo Area","conference_url":"https://zoom.us/j/87098271273","url":"https://nanaimoaa.org/meetings/sunday-night-ladies-meeting/","group":"Sunday Night Ladies Meeting (hybrid / in-person)","timezone":"America/Los_Angeles"},{"feed":"vancouveraa.ca","slug":"sunday-night-topic","name":"SUNDAY NIGHT TOPIC","day":0,"time":"18:30","types":["O","SP","X"],"state":"BC","postal_code":"V7L 1C3","city":"North Vancouver","address":"176 2nd St E","latitude":49.3116413,"longitude":-123.074965,"location":"North Shore Alano Club","region":"North Vancouver","url":"https://vancouveraa.ca/meetings/sunday-night-topic/","group":"SUNDAY NIGHT TOPIC","timezone":"America/Vancouver"},{"feed":"vancouveraa.ca","slug":"you-are-not-alone-yana-women","name":"YOU ARE NOT ALONE: YANA WOMEN","day":0,"time":"18:30","types":["DR","DB","D","O","W","ONL"],"state":"BC","postal_code":"V5R 5L5","city":"Vancouver","latitude":49.2320987,"longitude":-123.0300465,"location":"ONLINE ONLY VAN","region":"Vancouver","conference_url":"https://zoom.us/j/4787414665","url":"https://vancouveraa.ca/meetings/you-are-not-alone-yana-women/","group":"YOU ARE NOT ALONE","timezone":"America/Vancouver"},{"feed":"area78.org","slug":"482-0","name":"Back To The Basics Cranbrook","day":0,"time":"19:00","end_time":"20:00","types":["DR","D","O","EN"],"state":"BC","postal_code":"V1C 5X1","city":"Cranbrook","address":"1200 Kootenay St","latitude":49.5234254,"longitude":-115.7433179,"location":"Alliance Church","region":"Cranbrook","url":"https://area78aa.org/meetings/482-0/","group":"Back To The Basics Cranbrook Group","timezone":"America/Edmonton"},{"feed":"area78.org","slug":"493-0","name":"Seeds Of Serenity","day":0,"time":"19:00","types":["O","X"],"state":"BC","postal_code":"V1A 3C8","city":"Kimberley","address":"10 Boundary St","latitude":49.6880084,"longitude":-115.9819017,"location":"United Church","region":"Kimberley","notes":"Upstairs. Big Book Meeting.","url":"https://area78aa.org/meetings/493-0/","group":"Seeds Of Serenity Group","timezone":"America/Edmonton"},{"feed":"vancouveraa.ca","slug":"a-new-freedom-van","name":"A NEW FREEDOM (Van)","day":0,"time":"19:00","types":["D","O","SP","X","XB"],"city":"BC V5K","address":"3096 E Hastings St, Vancouver","state":"BC","latitude":49.280658,"longitude":-123.0394186,"location":"Hastings Community Preschool","region":"Vancouver","notes":"Enter from Pender Street or Lillooet Street via car park.","url":"https://vancouveraa.ca/meetings/a-new-freedom-van/","group":"A NEW FREEDOM","timezone":"America/Vancouver"},{"feed":"nanaimoaa.org","slug":"alberni-valley-group-sunday","name":"Alberni Valley Group (in-person)","day":0,"time":"19:00","end_time":"20:00","types":["C","D"],"state":"BC","postal_code":"V9Y 1V9","city":"Port Alberni","address":"4835 Argyle St","latitude":49.2348468,"longitude":-124.8059103,"location":"Salvation Army Building","region":"Port Alberni &amp; Nitinaht Lake","url":"https://nanaimoaa.org/meetings/alberni-valley-group-sunday/","group":"Alberni Valley Group","timezone":"America/Los_Angeles"},{"feed":"aavictoria.ca","slug":"any-lenth-found","name":"Any Length Found","day":0,"time":"19:00","end_time":"20:00","types":["12x12","D","O"],"state":"BC","postal_code":"V8S 3Y7","city":"Victoria","address":"600 Richmond Ave","latitude":48.4177183,"longitude":-123.3321188,"location":"St. Matthias Church","notes":"12 x 12 Discussion","url":"https://aavictoria.ca/meetings/any-lenth-found/","timezone":"America/Vancouver"},{"feed":"vancouveraa.ca","slug":"big-book-club","name":"BIG BOOK CLUB","day":0,"time":"19:00","types":["B","D","O","SP","ONL"],"state":"BC","postal_code":"V5R 5L5","city":"Vancouver","latitude":49.2320987,"longitude":-123.0300465,"location":"ONLINE ONLY VAN","region":"Vancouver","conference_url":"https://zoom.us/j/4353030651","url":"https://vancouveraa.ca/meetings/big-book-club/","group":"MEDITATE AT 8","timezone":"America/Vancouver"},{"feed":"vancouveraa.ca","slug":"fellowship-of-the-spirit-newcomers","name":"FELLOWSHIP OF THE SPIRIT NEWCOMERS","day":0,"time":"19:00","types":["D","BE","O","X","XB"],"state":"BC","postal_code":"V6K 2L2","city":"Vancouver","address":"3214 W 10th Ave","latitude":49.2630337,"longitude":-123.1762386,"location":"St. James Community Square","region":"Vancouver","notes":"Downstairs - Back room","url":"https://vancouveraa.ca/meetings/fellowship-of-the-spirit-newcomers/","group":"FELLOWSHIP OF THE SPIRIT","timezone":"America/Vancouver"},{"feed":"aavictoria.ca","slug":"gabriola-island-meeting-2","name":"Gabriola Island Meeting","day":0,"time":"19:00","end_time":"20:00","types":["O","X"],"state":"BC","postal_code":"V0R 1X3","city":"Gabriola","address":"775 Church St","latitude":49.1752967,"longitude":-123.8358654,"location":"Fellowship Church","url":"https://aavictoria.ca/meetings/gabriola-island-meeting-2/","timezone":"America/Vancouver"},{"feed":"nanaimoaa.org","slug":"nanaimo-correctional-centre-meeting-2","name":"Nanaimo Correctional Centre Meeting","day":0,"time":"19:00","end_time":"20:00","types":["D","M","X"],"state":"BC","postal_code":"V9T 5P9","city":"Nanaimo","address":"3945 Biggs Rd","latitude":49.2070705,"longitude":-124.0476768,"location":"Nanaimo Correctional Centre","region":"Nanaimo Area","notes":"Meetings open to men and women. Pre-clearance is required. Paperwork to be filed out before hand in larger font and CAPITAL LETTERS. Forms can be found at the link below\n\nPlease contact Harry S at 778-268-2356 or harry1978@shaw.ca or Joyce F at 250-716-6658 or joycef@shaw.ca for more information","url":"https://nanaimoaa.org/meetings/nanaimo-correctional-centre-meeting-2/","group":"Corrections Meeting","timezone":"America/Vancouver"},{"feed":"vancouveraa.ca","slug":"nueva-esperanza-sun","name":"NUEVA ESPERANZA","day":0,"time":"19:00","types":["O","S"],"state":"BC","postal_code":"V6A 1L4","city":"Vancouver","address":"381 E Cordova St","latitude":49.2823456,"longitude":-123.0960333,"location":"St. Paul's Roman Catholic Church","region":"Vancouver","url":"https://vancouveraa.ca/meetings/nueva-esperanza-sun/","group":"NUEVA ESPERANZA","timezone":"America/Vancouver"},{"feed":"nanaimoaa.org","slug":"one-day-at-a-time","name":"One Day at a Time (in-person)","day":0,"time":"19:00","end_time":"20:00","types":["B","O","ST","X"],"state":"BC","postal_code":"V0R 1X3","city":"Gabriola","address":"775 Church St","latitude":49.1752967,"longitude":-123.8358654,"location":"Gabriola Fellowship Church","region":"Gabriola Island","url":"https://nanaimoaa.org/meetings/one-day-at-a-time/","group":"One Day at a Time","timezone":"America/Los_Angeles"},{"feed":"aavictoria.ca","slug":"sober-sunday","name":"Sober Sunday","day":0,"time":"19:00","end_time":"20:00","types":["C","D","X"],"state":"BC","postal_code":"V8L 5S9","city":"North Saanich","address":"1319 Mills Rd","latitude":48.6552031,"longitude":-123.4453973,"location":"Holy Trinity Church","url":"https://aavictoria.ca/meetings/sober-sunday/","timezone":"America/Vancouver"},{"feed":"nanaimoaa.org","slug":"sunday-living-sober","name":"Sunday Living Sober","day":0,"time":"19:00","end_time":"20:00","types":["O"],"state":"BC","postal_code":"V9R 5H2","city":"Nanaimo","address":"100 Chapel St","latitude":49.1675862,"longitude":-123.93734,"location":"St. Paul's Anglican Church","region":"Nanaimo Area","url":"https://nanaimoaa.org/meetings/sunday-living-sober/","group":"Sunday Living Sober (in-person)","timezone":"America/Los_Angeles"},{"feed":"vancouveraa.ca","slug":"sunday-night-big-book-meeting","name":"SUNDAY NIGHT BIG BOOK MEETING","day":0,"time":"19:00","types":["O","ONL"],"state":"BC","postal_code":"V5R 5L5","city":"Vancouver","latitude":49.2320987,"longitude":-123.0300465,"location":"ONLINE ONLY VAN","region":"Vancouver","conference_url":"https://us06web.zoom.us/j/456434693","url":"https://vancouveraa.ca/meetings/sunday-night-big-book-meeting/","group":"SUNDAY NIGHT BIG BOOK MEETING","timezone":"America/Vancouver"},{"feed":"vancouveraa.ca","slug":"sunday-night-serenity","name":"SUNDAY NIGHT SERENITY","day":0,"time":"19:00","types":["D","O","X","XB"],"state":"BC","postal_code":"V2X 2L5","city":"Maple Ridge","address":"22270 North Ave","latitude":49.215699,"longitude":-122.6054353,"location":"One Way Club","region":"Maple Ridge","url":"https://vancouveraa.ca/meetings/sunday-night-serenity/","group":"SUNDAY NIGHT SERENITY","timezone":"America/Vancouver"},{"feed":"vancouveraa.ca","slug":"the-12-steps","name":"THE 12 STEPS","day":0,"time":"19:00","types":["LIT","O","ST"],"state":"BC","postal_code":"V4B 2G4","city":"White Rock","address":"15417 Roper Ave","latitude":49.0259353,"longitude":-122.795352,"location":"The Salvation Army White Rock","region":"White Rock","url":"https://vancouveraa.ca/meetings/the-12-steps/","group":"THE 12 STEPS","timezone":"America/Vancouver"},{"feed":"vancouveraa.ca","slug":"tsawwassen-sunday-night","name":"TSAWWASSEN SUNDAY NIGHT","day":0,"time":"19:00","types":["O","X"],"state":"BC","postal_code":"V4M 2A7","city":"Delta","address":"5061 12 Ave","latitude":49.0249174,"longitude":-123.0836027,"location":"Little House","region":"Tsawwassen","url":"https://vancouveraa.ca/meetings/tsawwassen-sunday-night/","group":"TSAWWASSEN SUNDAY NIGHT","timezone":"America/Vancouver"},{"feed":"aavictoria.ca","slug":"discovery-19","name":"Discovery","day":0,"time":"19:30","end_time":"20:30","types":["C","D"],"state":"BC","postal_code":"V8T 2L7","city":"Victoria","address":"627 Dunedin St","latitude":48.4413961,"longitude":-123.3713418,"notes":"Birthday meeting at noon on the last Saturday of each month.\n\nBusiness meeting at 5:30 pm on the second Tuesday of each month.","url":"https://aavictoria.ca/meetings/discovery-19/","timezone":"America/Vancouver"},{"feed":"aavictoria.ca","slug":"fearless-thorough","name":"Fearless & Thorough","day":0,"time":"19:30","end_time":"20:30","types":["B","O"],"state":"BC","postal_code":"V8V 1S1","city":"Victoria","address":"511 Michigan St","latitude":48.416761,"longitude":-123.3725357,"location":"James Bay United Church","url":"https://aavictoria.ca/meetings/fearless-thorough/","timezone":"America/Vancouver"},{"feed":"aavictoria.ca","slug":"fifth-tradition-group-5","name":"Fifth Tradition group","day":0,"time":"19:30","end_time":"20:30","types":["O"],"state":"BC","postal_code":"V0N 2M1","city":"Pender Island","address":"4405 Bedwell Harbour Rd","latitude":48.7988821,"longitude":-123.2818153,"location":"Community Church","notes":"Downstairs, around back\nAA contact Fred 1-250-526-0550","url":"https://aavictoria.ca/meetings/fifth-tradition-group-5/","timezone":"America/Vancouver"},{"feed":"vancouveraa.ca","slug":"journey-to-serenity","name":"JOURNEY TO SERENITY","day":0,"time":"19:30","types":["12x12","CAN","D","O","X"],"state":"BC","postal_code":"V3J 1M3","city":"Burnaby","address":"9887 Cameron St","latitude":49.2537732,"longitude":-122.894884,"location":"St. Stephen's Church","region":"Burnaby","url":"https://vancouveraa.ca/meetings/journey-to-serenity/","group":"JOURNEY TO SERENITY","timezone":"America/Vancouver"},{"feed":"vancouveraa.ca","slug":"living-room-group","name":"LIVING ROOM GROUP","day":0,"time":"19:30","types":["O","X","XB"],"state":"BC","postal_code":"V6A 1K8","city":"Vancouver","address":"119 E Cordova St","latitude":49.2824234,"longitude":-123.1012752,"location":"Salvation Army - Chapel","region":"Vancouver","url":"https://vancouveraa.ca/meetings/living-room-group/","group":"DOUBLE JEOPARDY","timezone":"America/Vancouver"},{"feed":"vancouveraa.ca","slug":"phoenix-mens","name":"PHOENIX MEN'S","day":0,"time":"19:30","types":["C","M","X"],"state":"BC","postal_code":"V4C 6P6","city":"Delta","address":"7655 120 St","latitude":49.1424751,"longitude":-122.8914931,"location":"Crossroad's United Church","region":"Delta","url":"https://vancouveraa.ca/meetings/phoenix-mens/","group":"PHOENIX MEN'S","timezone":"America/Vancouver"},{"feed":"vancouveraa.ca","slug":"sober-sunday-poco","name":"SOBER SUNDAY (Poco)","day":0,"time":"19:30","types":["DB","LIT","O","X","XB","ONL"],"state":"BC","postal_code":"V3B 7H3","city":"Port Coquitlam","address":"2175 Coquitlam Ave","latitude":49.2676666,"longitude":-122.7745509,"location":"Kinsmen Centre","region":"Port Coquitlam","notes":"\ud83c\udfa4This group uses a microphone","conference_url":"https://zoom.us/j/462624775","url":"https://vancouveraa.ca/meetings/sober-sunday-poco/","group":"SOBER SUNDAY","timezone":"America/Vancouver"},{"feed":"nanaimoaa.org","slug":"sunday-12-12-group","name":"Sunday 12 & 12 Group (in-person)","day":0,"time":"19:30","end_time":"20:30","types":["12x12","C"],"state":"BC","postal_code":"V9P 2G9","city":"Parksville","address":"245 Hirst Ave W","latitude":49.3195527,"longitude":-124.3175932,"location":"SOS Hall (Society of Organized Services)","region":"Parksville, Coombs &amp; Nanoose","url":"https://nanaimoaa.org/meetings/sunday-12-12-group/","group":"Sunday 12 & 12 Group (in-person)","timezone":"America/Los_Angeles"},{"feed":"aavictoria.ca","slug":"sunday-night-action-group","name":"Sunday Night Action Group","day":0,"time":"19:30","end_time":"20:30","types":["D"],"state":"BC","postal_code":"V8Z 1H1","city":"Victoria","address":"274 Hampton Rd","latitude":48.4545103,"longitude":-123.3916048,"location":"Burnside Lawn Bowling Club","url":"https://aavictoria.ca/meetings/sunday-night-action-group/","timezone":"America/Vancouver"},{"feed":"nanaimoaa.org","slug":"tofino-group-sun-pm","name":"Tofino Forever Group","day":0,"time":"19:30","end_time":"20:30","types":["D","ONLINE","O","ONL"],"state":"BC","city":"Tofino","latitude":49.1529842,"longitude":-125.9066184,"location":"Tofino, BC, Canada","region":"Tofino &amp; Ucluelet","notes":"Meeting ID: 4195859765\nPassword: 376942","conference_url":"https://zoom.us/j/4195859765","url":"https://nanaimoaa.org/meetings/tofino-group-sun-pm/","group":"Tofino Forever Group","timezone":"America/Los_Angeles"},{"feed":"vancouveraa.ca","slug":"unity-service-and-recovery","name":"UNITY, SERVICE AND RECOVERY","day":0,"time":"19:30","types":["DB","O","X"],"state":"BC","postal_code":"V3X 1Y7","city":"Surrey","address":"6230 120 St","latitude":49.1159141,"longitude":-122.8896201,"location":"Sunshine Ridge Baptist Church","region":"Surrey","url":"https://vancouveraa.ca/meetings/unity-service-and-recovery/","group":"UNITY, SERVICE AND RECOVERY","timezone":"America/Vancouver"},{"feed":"aavictoria.ca","slug":"westshore-womens-solutions","name":"Westshore Women's Solutions","day":0,"time":"19:30","end_time":"20:30","types":["B","D","O","TC","X"],"state":"BC","postal_code":"V9B 2Y2","city":"Victoria","address":"935 Goldstream Ave","latitude":48.4506088,"longitude":-123.5074187,"location":"Gordon United Church","notes":"\"Big Book Stories Discussion\"","url":"https://aavictoria.ca/meetings/westshore-womens-solutions/","timezone":"America/Vancouver"},{"feed":"vancouveraa.ca","slug":"white-rock-sunday-night-big-book","name":"WHITE ROCK SUNDAY NIGHT BIG BOOK","day":0,"time":"19:30","types":["B","C","X","XB"],"state":"BC","postal_code":"V4B 1P9","city":"White Rock","address":"15302 Pacific Ave","latitude":49.0226022,"longitude":-122.798238,"location":"Masonic Hall","region":"White Rock","notes":"Closed meeting except for the last Sunday of the month.","url":"https://vancouveraa.ca/meetings/white-rock-sunday-night-big-book/","group":"WHITE ROCK SUNDAY NIGHT BIG BOOK","timezone":"America/Vancouver"},{"feed":"aavictoria.ca","slug":"women-in-recovery","name":"Women in Recovery","day":0,"time":"19:30","end_time":"20:30","types":["C","X"],"state":"BC","postal_code":"V9Z 0A2","city":"Sooke","address":"1962 Murray Rd","latitude":48.3752933,"longitude":-123.7228854,"location":"Holy Trinity Church","notes":"No meeting Dec 14th (due to Church event)","url":"https://aavictoria.ca/meetings/women-in-recovery/","timezone":"America/Vancouver"},{"feed":"area78.org","slug":"1018-0","name":"Sunday Night","day":0,"time":"20:00","end_time":"21:00","types":["12x12","C","EN","X"],"state":"BC","postal_code":"V1G 4G2","city":"Dawson Creek","address":"11401 8th St","latitude":55.746897,"longitude":-120.225452,"location":"Northern Lights College","region":"Dawson Creek","notes":"Energy Room","url":"https://area78aa.org/meetings/1018-0/","group":"Sunday Night Meeting","timezone":"America/Edmonton"},{"feed":"vancouveraa.ca","slug":"as-bill-sees-it-van","name":"AS BILL SEES IT (Van)","day":0,"time":"20:00","types":["C","D"],"state":"BC","postal_code":"V5L 2N8","city":"Vancouver","address":"2025 Napier St","latitude":49.2749997,"longitude":-123.0632305,"location":"St. Francis of Assisi Church","region":"Vancouver","url":"https://vancouveraa.ca/meetings/as-bill-sees-it-van/","group":"AS BILL SEES IT (VAN)","timezone":"America/Vancouver"},{"feed":"vancouveraa.ca","slug":"easy-does-it","name":"EASY DOES IT","day":0,"time":"20:00","types":["O"],"state":"BC","postal_code":"V3W 5A7","city":"Surrey","address":"7277 King George Blvd","latitude":49.1349162,"longitude":-122.8460247,"location":"Easy Does It Club","region":"Surrey","url":"https://vancouveraa.ca/meetings/easy-does-it/","group":"EASY DOES IT","timezone":"America/Vancouver"},{"feed":"vancouveraa.ca","slug":"fellowship-of-the-spirit","name":"FELLOWSHIP OF THE SPIRIT","day":0,"time":"20:00","types":["DB","D","O","X","XB"],"state":"BC","postal_code":"V6K 2L2","city":"Vancouver","address":"3214 W 10th Ave","latitude":49.2630337,"longitude":-123.1762386,"location":"St. James Community Square","region":"Vancouver","notes":"\ud83c\udfa4 this meeting uses a microphone, the meeting is downstairs","url":"https://vancouveraa.ca/meetings/fellowship-of-the-spirit/","group":"FELLOWSHIP OF THE SPIRIT","timezone":"America/Vancouver"},{"feed":"vancouveraa.ca","slug":"fraser-valley-young-people","name":"FRASER VALLEY YOUNG PEOPLE","day":0,"time":"20:00","types":["O","X","XB"],"state":"BC","postal_code":"V3M 2K5","city":"New Westminster","address":"1320 7th Ave","latitude":49.207243,"longitude":-122.9348846,"location":"St. Aidan's Church","region":"New Westminster","notes":"First Sunday of each month there are two pre-selected speakers. On all other Sundays, this is a call-up meeting.","url":"https://vancouveraa.ca/meetings/fraser-valley-young-people/","group":"FRASER VALLEY YOUNG PEOPLE","timezone":"America/Vancouver"},{"feed":"aavictoria.ca","slug":"last-chance","name":"Last Chance","day":0,"time":"20:00","end_time":"21:00","types":["C","X"],"state":"BC","postal_code":"V9A 2N4","city":"Victoria","address":"500 Admirals Rd","latitude":48.4284569,"longitude":-123.4173809,"location":"Esquimalt United Church","url":"https://aavictoria.ca/meetings/last-chance/","timezone":"America/Vancouver"},{"feed":"vancouveraa.ca","slug":"power-hour","name":"POWER HOUR","day":0,"time":"20:00","types":["O","ONL"],"state":"BC","postal_code":"V5R 5L5","city":"Vancouver","latitude":49.2320987,"longitude":-123.0300465,"location":"ONLINE ONLY VAN","region":"Vancouver","conference_url":"https://zoom.us/j/84853399282","url":"https://vancouveraa.ca/meetings/power-hour/","group":"POWER HOUR","timezone":"America/Vancouver"},{"feed":"vancouveraa.ca","slug":"renfrew-group","name":"RENFREW GROUP","day":0,"time":"20:00","types":["O","ONL"],"state":"BC","postal_code":"V5K 1X5","city":"Vancouver","address":"2595 Franklin St","latitude":49.2823223,"longitude":-123.0523122,"location":"Longhouse","region":"Vancouver","conference_url":"https://zoom.us/j/4826848292","url":"https://vancouveraa.ca/meetings/renfrew-group/","group":"RENFREW GROUP","timezone":"America/Vancouver"},{"feed":"aavictoria.ca","slug":"sobriety-tonite-7","name":"Sobriety Tonite","day":0,"time":"20:00","end_time":"21:00","types":["12x12","O","ONL"],"state":"BC","city":"Victoria","latitude":48.4284207,"longitude":-123.3656444,"location":"zoom meeting","conference_url":"https://us06web.zoom.us/j/2304281465","url":"https://aavictoria.ca/meetings/sobriety-tonite-7/","timezone":"America/Vancouver"},{"feed":"vancouveraa.ca","slug":"steveston-group","name":"STEVESTON GROUP","day":0,"time":"20:00","types":["O","X","XB"],"state":"BC","postal_code":"V7E 4Y8","city":"Richmond","address":"3720 Broadway St","latitude":49.1270632,"longitude":-123.1836813,"location":"Steveston United Church","region":"Richmond","url":"https://vancouveraa.ca/meetings/steveston-group/","group":"STEVESTON GROUP","timezone":"America/Vancouver"},{"feed":"area78.org","slug":"tri-unity-group","name":"Tri Unity Group","day":0,"time":"20:00","end_time":"21:00","types":["12x12","C","EN"],"state":"BC","postal_code":"V1J 1Y6","city":"Fort St John","address":"10116 100 Ave","latitude":56.246705,"longitude":-120.849742,"location":"Old Salvation Army","region":"Fort Saint John","url":"https://area78aa.org/meetings/tri-unity-group/","timezone":"America/Edmonton"},{"feed":"aavictoria.ca","slug":"westshore-basics-2","name":"Westshore Basics","day":0,"time":"20:00","end_time":"21:00","types":["C","D"],"state":"BC","postal_code":"V9B 2Y2","city":"Victoria","address":"935 Goldstream Ave","latitude":48.4506088,"longitude":-123.5074187,"location":"Gordon United Church","url":"https://aavictoria.ca/meetings/westshore-basics-2/","timezone":"America/Vancouver"},{"feed":"vancouveraa.ca","slug":"you-are-not-alone-remote-connections","name":"YOU ARE NOT ALONE: Remote Connections","day":0,"time":"22:00","types":["D","O","ONL"],"state":"BC","postal_code":"V5R 5L5","city":"Vancouver","latitude":49.2320987,"longitude":-123.0300465,"location":"ONLINE ONLY VAN","region":"Vancouver","conference_url":"https://zoom.us/j/4787414665","url":"https://vancouveraa.ca/meetings/you-are-not-alone-remote-connections/","group":"YOU ARE NOT ALONE","timezone":"America/Vancouver"},{"feed":"vancouveraa.ca","slug":"recovery-club-sun","name":"RECOVERY CLUB","day":0,"time":"23:00","types":["D","O"],"state":"BC","postal_code":"V5T 3L1","city":"Vancouver","address":"2775 Sophia St","latitude":49.2605572,"longitude":-123.0985737,"location":"Vancouver Recovery Club","region":"Vancouver","url":"https://vancouveraa.ca/meetings/recovery-club-sun/","group":"RECOVERY CLUB","timezone":"America/Vancouver"},{"feed":"area78.org","slug":"sunrise-meeting","name":"Sunrise Meeting","day":1,"time":"06:00","end_time":"07:00","types":["C","DR","X"],"state":"BC","postal_code":"V1G 4V8","city":"Dawson Creek","address":"1100 Alaska Ave #104","latitude":55.7604851,"longitude":-120.2305797,"location":"1100 Alaska Ave #104, Dawson Creek, BC V1G 4V8, Canada","region":"Dawson Creek","url":"https://area78aa.org/meetings/sunrise-meeting/","timezone":"America/Edmonton"},{"feed":"aavictoria.ca","slug":"daybreak-8","name":"Daybreak","day":1,"time":"06:30","end_time":"07:30","types":["X","ONL"],"state":"BC","city":"Victoria","latitude":48.4284207,"longitude":-123.3656444,"location":"zoom meeting","notes":"In person Fri-Sat-Sun-Mon and all Stat holidays\nZoom 7 days a week","conference_url":"https://zoom.us/j/544309988","url":"https://aavictoria.ca/meetings/daybreak-8/","timezone":"America/Vancouver"},{"feed":"aavictoria.ca","slug":"attitude-adjustment","name":"Attitude Adjustment","day":1,"time":"07:00","end_time":"08:00","types":["C"],"state":"BC","postal_code":"V8V 1S1","city":"Victoria","address":"511 Michigan St","latitude":48.416761,"longitude":-123.3725357,"location":"James Bay United Church","url":"https://aavictoria.ca/meetings/attitude-adjustment/","group":"Attitude Adjustment Group","timezone":"America/Vancouver"},{"feed":"aavictoria.ca","slug":"attitude-adjustment-8","name":"Attitude Adjustment","day":1,"time":"07:00","end_time":"08:00","types":["ONL"],"state":"BC","city":"Victoria","latitude":48.4284207,"longitude":-123.3656444,"location":"zoom meeting","conference_url":"https://us02web.zoom.us/j/9509922231?pwd=amFaOXZVMmhVakVPamo0N0JvWkF0QT09","url":"https://aavictoria.ca/meetings/attitude-adjustment-8/","timezone":"America/Vancouver"},{"feed":"vancouveraa.ca","slug":"can-us-group","name":"CAN-US GROUP","day":1,"time":"07:00","types":["O","ONL"],"state":"BC","postal_code":"V4B 1Y6","city":"White Rock","latitude":49.0235407,"longitude":-122.7977163,"location":"ONLINE ONLY WHITE ROCK","region":"White Rock","conference_url":"https://us04web.zoom.us/j/73360742943","url":"https://vancouveraa.ca/meetings/can-us-group/","group":"CAN-US GROUP","timezone":"America/Vancouver"},{"feed":"vancouveraa.ca","slug":"early-risers","name":"EARLY RISERS","day":1,"time":"07:00","types":["C","D"],"state":"BC","postal_code":"V4B 2E8","city":"White Rock","address":"15115 Roper Ave","latitude":49.0259333,"longitude":-122.8035445,"location":"Church of the Holy Trinity","region":"White Rock","url":"https://vancouveraa.ca/meetings/early-risers/","group":"EARLY RISERS","timezone":"America/Vancouver"},{"feed":"aavictoria.ca","slug":"new-dawn-morning-womens-meeting","name":"New Dawn","day":1,"time":"07:00","end_time":"08:00","types":["W","ONL"],"state":"BC","city":"Victoria","latitude":48.4284207,"longitude":-123.3656444,"location":"zoom meeting","notes":"Womens meeting","conference_url":"https://zoom.us/j/85988284221?pwd=NVBCem5Yb1Y3bDMvTmtoVzhIdnBPQT09","url":"https://aavictoria.ca/meetings/new-dawn-morning-womens-meeting/","timezone":"America/Vancouver"},{"feed":"nanaimoaa.org","slug":"pass-it-on-mon","name":"Pass It On (Hybrid / in-person)","day":1,"time":"07:00","types":["D","O","X","ONL"],"state":"BC","postal_code":"V9S 5B6","city":"Nanaimo","address":"321 Wallace St #206","latitude":49.1654604,"longitude":-123.939767,"location":"Nanaimo Alano Club","region":"Nanaimo Area","notes":"Hybrid meeting - both Zoom and in person meeting\nMeeting ID: 365 940 2175\nPasscode: 02092000","conference_url":"https://us02web.zoom.us/j/3659402175?pwd=YWs0QUMxYWx4ZjhLRU1HT0xGdTNvdz09","url":"https://nanaimoaa.org/meetings/pass-it-on-mon/","group":"Pass It On","timezone":"America/Los_Angeles"},{"feed":"vancouveraa.ca","slug":"singleness-of-purpose-mon","name":"SINGLENESS OF PURPOSE","day":1,"time":"07:00","types":["C","D","X","XB","ONL"],"state":"BC","postal_code":"V4B 1P9","city":"White Rock","address":"15302 Pacific Ave","latitude":49.0226022,"longitude":-122.798238,"location":"Masonic Hall","region":"White Rock","conference_url":"https://us06web.zoom.us/j/82978326098","url":"https://vancouveraa.ca/meetings/singleness-of-purpose-mon/","group":"SINGLENESS OF PURPOSE","timezone":"America/Vancouver"},{"feed":"vancouveraa.ca","slug":"west-end-7-am-mon","name":"WEST END 7 AM","day":1,"time":"07:00","types":["O","ONL"],"state":"BC","postal_code":"V5R 5L5","city":"Vancouver","latitude":49.2320987,"longitude":-123.0300465,"location":"ONLINE ONLY VAN","region":"Vancouver","conference_url":"https://zoom.us/j/337590538","url":"https://vancouveraa.ca/meetings/west-end-7-am-mon/","group":"WEST END 7 AM","timezone":"America/Vancouver"},{"feed":"aavictoria.ca","slug":"monday-night-step-and-tradition","name":"Monday Night Step and Tradition","day":1,"time":"07:30","end_time":"08:30","types":["ONL"],"state":"BC","city":"Sidney","latitude":48.6502411,"longitude":-123.399005,"conference_url":"https://zoom.us/j/86193846685?pwd=SUNHYTE4M0pqUTc3Z2ZpWVUyb21zdz09","url":"https://aavictoria.ca/meetings/monday-night-step-and-tradition/","timezone":"America/Vancouver"},{"feed":"vancouveraa.ca","slug":"new-dawn","name":"NEW DAWN","day":1,"time":"07:30","types":["O","X","XB"],"state":"BC","postal_code":"V3E 1K9","city":"Coquitlam","address":"2635 Barnet Hwy","latitude":49.2781876,"longitude":-122.8141428,"location":"Coquitlam Grill","region":"Coquitlam","url":"https://vancouveraa.ca/meetings/new-dawn/","group":"NEW DAWN","timezone":"America/Vancouver"},{"feed":"vancouveraa.ca","slug":"a-vision-for-you-mon","name":"A VISION FOR YOU","day":1,"time":"08:00","types":["ONL"],"state":"BC","postal_code":"V5R 5L5","city":"Vancouver","latitude":49.2320987,"longitude":-123.0300465,"location":"ONLINE ONLY VAN","region":"Vancouver","conference_url":"https://zoom.us/j/2242263446","url":"https://vancouveraa.ca/meetings/a-vision-for-you-mon/","group":"A VISION FOR YOU","timezone":"America/Vancouver"},{"feed":"vancouveraa.ca","slug":"early-bird-mon","name":"EARLY BIRD","day":1,"time":"08:00","types":["O","X","ONL"],"state":"BC","postal_code":"V7L 1C3","city":"North Vancouver","address":"176 2nd St E","latitude":49.3116413,"longitude":-123.074965,"location":"North Shore Alano Club","region":"North Vancouver","conference_url":"https://zoom.us/j/162516620","url":"https://vancouveraa.ca/meetings/early-bird-mon/","group":"EARLY BIRD","timezone":"America/Vancouver"},{"feed":"vancouveraa.ca","slug":"how-it-works-mon-800","name":"HOW IT WORKS","day":1,"time":"08:00","types":["D","O","X","XB"],"state":"BC","postal_code":"V4K 3C9","city":"Delta","address":"4748 57 St b","latitude":49.0887356,"longitude":-123.0652742,"location":"Ladner Adult Learning Centre","region":"Ladner","url":"https://vancouveraa.ca/meetings/how-it-works-mon-800/","group":"HOW IT WORKS","timezone":"America/Vancouver"},{"feed":"vancouveraa.ca","slug":"meditate-at-8","name":"MEDITATE AT 8","day":1,"time":"08:00","types":["MED","O","ONL"],"state":"BC","postal_code":"V5R 5L5","city":"Vancouver","latitude":49.2320987,"longitude":-123.0300465,"location":"ONLINE ONLY VAN","region":"Vancouver","conference_url":"https://zoom.us/j/4353030651","url":"https://vancouveraa.ca/meetings/meditate-at-8/","group":"MEDITATE AT 8","timezone":"America/Vancouver"},{"feed":"vancouveraa.ca","slug":"river-group-mon-8am","name":"RIVER GROUP","day":1,"time":"08:00","types":["D","O"],"state":"BC","postal_code":"V4K 3N2","city":"Delta","address":"3900 Arthur Dr","latitude":49.074919,"longitude":-123.077788,"location":"Sacred Heart Monastery","region":"Ladner","url":"https://vancouveraa.ca/meetings/river-group-mon-8am/","group":"RIVER GROUP","timezone":"America/Vancouver"},{"feed":"vancouveraa.ca","slug":"sunrise-serenity-mon-8am","name":"SUNRISE SERENITY","day":1,"time":"08:00","types":["B","O","X","XB","ONL"],"state":"BC","postal_code":"V3M 1B2","city":"New Westminster","address":"715 Columbia St","latitude":49.2020262,"longitude":-122.9104198,"location":"Waves Coffee House","region":"New Westminster","conference_url":"https://us04web.zoom.us/j/869799013","url":"https://vancouveraa.ca/meetings/sunrise-serenity-mon-8am/","group":"SUNRISE SERENITY","timezone":"America/Vancouver"},{"feed":"aavictoria.ca","slug":"discovery-3","name":"Discovery","day":1,"time":"09:30","end_time":"10:30","types":["12x12","D"],"state":"BC","postal_code":"V8T 2L7","city":"Victoria","address":"627 Dunedin St","latitude":48.4413961,"longitude":-123.3713418,"url":"https://aavictoria.ca/meetings/discovery-3/","timezone":"America/Vancouver"},{"feed":"vancouveraa.ca","slug":"early-morning-coffee-and-donuts-mon","name":"EARLY MORNING COFFEE AND DONUTS","day":1,"time":"09:45","types":["D","O","ONL"],"state":"BC","postal_code":"V3W 5A7","city":"Surrey","latitude":49.1345818,"longitude":-122.8461717,"location":"ONLINE ONLY SURREY","region":"Surrey","conference_url":"https://us02web.zoom.us/j/383660385?status=success","url":"https://vancouveraa.ca/meetings/early-morning-coffee-and-donuts-mon/","group":"EARLY MORNING COFFEE AND DONUTS GRP","timezone":"America/Vancouver"},{"feed":"vancouveraa.ca","slug":"nine-fourty-five-mon","name":"NINE FOURTY-FIVE","day":1,"time":"09:45","types":["O"],"state":"BC","postal_code":"V3W 5A7","city":"Surrey","address":"7277 King George Blvd","latitude":49.1349162,"longitude":-122.8460247,"location":"Easy Does It Club","region":"Surrey","url":"https://vancouveraa.ca/meetings/nine-fourty-five-mon/","group":"EASY DOES IT","timezone":"America/Vancouver"},{"feed":"vancouveraa.ca","slug":"viewpoint","name":"VIEWPOINT","day":1,"time":"10:00","types":["O"],"state":"BC","postal_code":"V6J 1S1","city":"Vancouver","address":"1525 W 7th Ave","latitude":49.265524,"longitude":-123.1394983,"location":"Alano Club of Vancouver","region":"Vancouver","url":"https://vancouveraa.ca/meetings/viewpoint/","group":"ALANO CLUB OF VANCOUVER MEETINGS","timezone":"America/Vancouver"},{"feed":"vancouveraa.ca","slug":"aa-womens-meeting-mon-1030","name":"AA WOMEN'S MEETING","day":1,"time":"10:30","types":["D","O","X","XB","W","ONL"],"state":"BC","postal_code":"V4B 3Z8","city":"White Rock","address":"1548 Johnston Rd","latitude":49.0300912,"longitude":-122.8008489,"location":"Avalon Women's Centre White Rock","region":"White Rock","conference_url":"https://zoom.us/j/98668239663","url":"https://vancouveraa.ca/meetings/aa-womens-meeting-mon-1030/","group":"Avalon Women's Centre White Rock","timezone":"America/Vancouver"},{"feed":"vancouveraa.ca","slug":"aa-lunch-bunch-mon","name":"AA LUNCH BUNCH","day":1,"time":"12:00","types":["O","X"],"state":"BC","postal_code":"V7L 1C3","city":"North Vancouver","address":"176 2nd St E","latitude":49.3116413,"longitude":-123.074965,"location":"North Shore Alano Club","region":"North Vancouver","url":"https://vancouveraa.ca/meetings/aa-lunch-bunch-mon/","group":"AA LUNCH BUNCH","timezone":"America/Vancouver"},{"feed":"vancouveraa.ca","slug":"attitude-adjustment-hour-mon","name":"ATTITUDE ADJUSTMENT HOUR","day":1,"time":"12:00","types":["D","O"],"state":"BC","postal_code":"V7C 1A1","city":"Richmond","address":"5400 River Rd","latitude":49.1735684,"longitude":-123.1691262,"location":"Park House","region":"Richmond","url":"https://vancouveraa.ca/meetings/attitude-adjustment-hour-mon/","group":"ATTITUDE ADJUSTMENT GRP","timezone":"America/Vancouver"},{"feed":"vancouveraa.ca","slug":"bf-noon-mtg-mon","name":"BURNABY FELLOWSHIP NOON MEETING","day":1,"time":"12:00","types":["D","O","X"],"state":"BC","postal_code":"V3N 3M5","city":"Burnaby","address":"7638 6th St","latitude":49.2221006,"longitude":-122.9313597,"location":"Burnaby Fellowship Centre","region":"Burnaby","url":"https://vancouveraa.ca/meetings/bf-noon-mtg-mon/","group":"BURNABY FELLOWSHIP NOON MEETING","timezone":"America/Vancouver"},{"feed":"nanaimoaa.org","slug":"brown-baggers-monday","name":"Brown Baggers Monday (in-person)","day":1,"time":"12:00","end_time":"13:00","types":["D","O"],"state":"BC","postal_code":"V9P 1T7","city":"Parksville","address":"186 Shelly Rd","latitude":49.3186961,"longitude":-124.2924723,"location":"Shelly Road Centre","region":"Parksville, Coombs &amp; Nanoose","url":"https://nanaimoaa.org/meetings/brown-baggers-monday/","group":"Brown Baggers","timezone":"America/Los_Angeles"},{"feed":"area78.org","slug":"conscious-contact-11th-step-group","name":"Conscious Contact 11th Step Group","day":1,"time":"12:00","end_time":"13:00","types":["C","DR"],"state":"BC","postal_code":"V1A 1H3","city":"Kimberley","address":"395 Marsden St","latitude":49.66946,"longitude":-115.973616,"location":"The Baptist Church","region":"Kimberley","url":"https://area78aa.org/meetings/conscious-contact-11th-step-group/","timezone":"America/Edmonton"},{"feed":"vancouveraa.ca","slug":"d-day","name":"D-DAY GROUP","day":1,"time":"12:00","types":["O"],"state":"BC","postal_code":"V5T 3L1","city":"Vancouver","address":"2775 Sophia St","latitude":49.2605572,"longitude":-123.0985737,"location":"Vancouver Recovery Club","region":"Vancouver","url":"https://vancouveraa.ca/meetings/d-day/","group":"D-DAY GROUP","timezone":"America/Vancouver"},{"feed":"vancouveraa.ca","slug":"daily-reflections-mon","name":"DAILY REFLECTIONS","day":1,"time":"12:00","types":["O","X","XB"],"state":"BC","postal_code":"V4B 1P9","city":"White Rock","address":"15302 Pacific Ave","latitude":49.0226022,"longitude":-122.798238,"location":"Masonic Hall","region":"White Rock","url":"https://vancouveraa.ca/meetings/daily-reflections-mon/","group":"DAILY REFLECTIONS","timezone":"America/Vancouver"},{"feed":"aavictoria.ca","slug":"daily-reprieve","name":"Daily Reprieve","day":1,"time":"12:00","end_time":"13:00","types":["C"],"state":"BC","postal_code":"V8W 1C1","city":"Victoria","address":"680 Courtney St","latitude":48.4234372,"longitude":-123.3663494,"location":"Kirk Hall, St. Andrew's Presbyterian Church","url":"https://aavictoria.ca/meetings/daily-reprieve/","timezone":"America/Vancouver"},{"feed":"vancouveraa.ca","slug":"daily-reprieve","name":"DAILY REPRIEVE","day":1,"time":"12:00","types":["DB","O","ONL"],"state":"BC","postal_code":"V3N 1C4","city":"Burnaby","latitude":49.2315479,"longitude":-122.9275677,"location":"ONLINE ONLY BURNABY","region":"Burnaby","conference_url":"https://us04web.zoom.us/j/198058170","url":"https://vancouveraa.ca/meetings/daily-reprieve/","group":"DAILY REPRIEVE","timezone":"America/Vancouver"},{"feed":"aavictoria.ca","slug":"discovery","name":"Discovery","day":1,"time":"12:00","end_time":"13:00","types":["C","D"],"state":"BC","postal_code":"V8T 2L7","city":"Victoria","address":"627 Dunedin St","latitude":48.4413961,"longitude":-123.3713418,"notes":"Birthday meeting at noon on the last Saturday of each month.\n\nBusiness meeting at 5:30 pm on the second Tuesday of each month.","url":"https://aavictoria.ca/meetings/discovery/","group":"Discovery Group","timezone":"America/Vancouver"},{"feed":"vancouveraa.ca","slug":"edmonds-sobriety-mon","name":"EDMONDS SOBRIETY","day":1,"time":"12:00","types":["D","O"],"state":"BC","postal_code":"V3N 1E8","city":"Burnaby","address":"7717 19th Ave","latitude":49.2237391,"longitude":-122.9399045,"location":"St. Alban's Church","region":"Burnaby","url":"https://vancouveraa.ca/meetings/edmonds-sobriety-mon/","group":"EDMONDS SOBRIETY","timezone":"America/Vancouver"},{"feed":"vancouveraa.ca","slug":"journey-to-freedom-mon","name":"JOURNEY TO FREEDOM","day":1,"time":"12:00","types":["O","X"],"state":"BC","postal_code":"V3J 1M3","city":"Burnaby","address":"9887 Cameron St","latitude":49.2537732,"longitude":-122.894884,"location":"St. Stephen's Church","region":"Burnaby","url":"https://vancouveraa.ca/meetings/journey-to-freedom-mon/","group":"JOURNEY TO FREEDOM","timezone":"America/Vancouver"},{"feed":"aavictoria.ca","slug":"keystone-group","name":"Keystone Group","day":1,"time":"12:00","end_time":"13:00","types":["X","ONL"],"state":"BC","postal_code":"V8V 3G8","city":"Victoria","address":"911 Quadra St","latitude":48.42205,"longitude":-123.35878,"location":"Christ Church Cathedral","notes":"Hybrid meeting; zoom and in person","conference_url":"https://zoom.us/j/86455288508?pwd=ZVRkWIg3NHIqbU0ySHJvYW15Tn0UT09","url":"https://aavictoria.ca/meetings/keystone-group/","timezone":"America/Vancouver"},{"feed":"nanaimoaa.org","slug":"let-it-begin-with-me-mon","name":"Let it Begin With Me (in-person)","day":1,"time":"12:00","end_time":"13:00","types":["D","O","X"],"state":"BC","postal_code":"V9R 3J2","city":"Nanaimo","address":"445 Comox Rd","latitude":49.1692173,"longitude":-123.9441625,"location":"Scout Hut","region":"Nanaimo Area","url":"https://nanaimoaa.org/meetings/let-it-begin-with-me-mon/","group":"Let it Begin with me","timezone":"America/Los_Angeles"},{"feed":"vancouveraa.ca","slug":"meditation-meeting","name":"MEDITATION MEETING","day":1,"time":"12:00","types":["MED","O"],"state":"BC","postal_code":"V6J 1S1","city":"Vancouver","address":"1525 W 7th Ave","latitude":49.265524,"longitude":-123.1394983,"location":"Alano Club of Vancouver","region":"Vancouver","url":"https://vancouveraa.ca/meetings/meditation-meeting/","group":"ALANO CLUB OF VANCOUVER MEETINGS","timezone":"America/Vancouver"},{"feed":"vancouveraa.ca","slug":"monday-messages","name":"MONDAY MESSAGES","day":1,"time":"12:00","types":["O","X","XB"],"state":"BC","postal_code":"V2X 2L5","city":"Maple Ridge","address":"22270 North Ave","latitude":49.215699,"longitude":-122.6054353,"location":"One Way Club","region":"Maple Ridge","url":"https://vancouveraa.ca/meetings/monday-messages/","group":"ONE WAY CLUB MEETINGS","timezone":"America/Vancouver"},{"feed":"nanaimoaa.org","slug":"noon-group-mon","name":"Noon Group (in-person)","day":1,"time":"12:00","types":["D","O","X"],"state":"BC","postal_code":"V9Y 1Y9","city":"Port Alberni","address":"3028 2nd Ave","latitude":49.2337396,"longitude":-124.8092354,"location":"Port Alberni Alano Club","region":"Port Alberni &amp; Nitinaht Lake","url":"https://nanaimoaa.org/meetings/noon-group-mon/","group":"Noon Group (Port Alberni","timezone":"America/Los_Angeles"},{"feed":"nanaimoaa.org","slug":"north-port-nooner","name":"North Port Nooner","day":1,"time":"12:00","end_time":"13:00","state":"BC","postal_code":"V9Y 5W9","city":"Port Alberni","address":"4283 Glenside Rd","latitude":49.2663285,"longitude":-124.8009761,"location":"Arrowsmith Baptist Church","region":"Port Alberni &amp; Nitinaht Lake","url":"https://nanaimoaa.org/meetings/north-port-nooner/","group":"North Port Nooner","timezone":"America/Los_Angeles"},{"feed":"vancouveraa.ca","slug":"river-group-mon-noon","name":"RIVER GROUP","day":1,"time":"12:00","types":["O"],"state":"BC","postal_code":"V4K 3N2","city":"Delta","address":"3900 Arthur Dr","latitude":49.074919,"longitude":-123.077788,"location":"Sacred Heart Monastery","region":"Ladner","url":"https://vancouveraa.ca/meetings/river-group-mon-noon/","group":"RIVER GROUP","timezone":"America/Vancouver"},{"feed":"vancouveraa.ca","slug":"serenity-on-the-mountain","name":"SERENITY ON THE MOUNTAIN","day":1,"time":"12:00","types":["B","D","O","X","ONL"],"state":"BC","postal_code":"V5A 1S6","city":"Burnaby","address":"8888 University Dr W #3200","latitude":49.2796202,"longitude":-122.9184617,"location":"Simon Fraser University, Multifaith Centre","region":"Burnaby","notes":"Multifaith centre which is EDB7529","conference_url":"https://zoom.us/j/89956843729","url":"https://vancouveraa.ca/meetings/serenity-on-the-mountain/","group":"SERENITY ON THE MOUNTAIN","timezone":"America/Vancouver"},{"feed":"aavictoria.ca","slug":"sidney-noon-serenity-10","name":"Sidney Noon Serenity","day":1,"time":"12:00","end_time":"13:00","types":["C","X"],"state":"BC","postal_code":"V8L 3B3","city":"Sidney","address":"10030 Third St","latitude":48.654502,"longitude":-123.398196,"location":"St. Elisabeth's Church","notes":"Social Distancing and masks required","url":"https://aavictoria.ca/meetings/sidney-noon-serenity-10/","timezone":"America/Vancouver"},{"feed":"vancouveraa.ca","slug":"the-nooner-mon","name":"THE NOONER","day":1,"time":"12:00","types":["LGBTQ","O"],"state":"BC","postal_code":"V6E 1Z6","city":"Vancouver","address":"1170 Bute St","latitude":49.2818913,"longitude":-123.1329814,"location":"QMUNITY","region":"Vancouver","url":"https://vancouveraa.ca/meetings/the-nooner-mon/","group":"THE NOONER - lgbtq","timezone":"America/Vancouver"},{"feed":"nanaimoaa.org","slug":"tofino-group-mon-noon","name":"Tofino Forever Group","day":1,"time":"12:00","end_time":"13:00","types":["D","ONLINE","O","ONL"],"state":"BC","city":"Tofino","latitude":49.1529842,"longitude":-125.9066184,"location":"Tofino, BC, Canada","region":"Tofino &amp; Ucluelet","notes":"Meeting ID: 4195859765\nPassword: 376942","conference_url":"https://zoom.us/j/4195859765","url":"https://nanaimoaa.org/meetings/tofino-group-mon-noon/","group":"Tofino Forever Group","timezone":"America/Los_Angeles"},{"feed":"nanaimoaa.org","slug":"trudging-the-broad-hwy","name":"Trudging The Broad Hwy (in-person) Meeting","day":1,"time":"12:00","end_time":"13:00","types":["D","O","X"],"state":"BC","postal_code":"V9T 1C9","city":"Nanaimo","address":"4235 Departure Bay Rd","latitude":49.2068381,"longitude":-124.0007394,"location":"St. Andrews Presbyterian","region":"Nanaimo Area","notes":"In compliance with the rental premise's direction, proof of vaccination must be shown prior to entry.","url":"https://nanaimoaa.org/meetings/trudging-the-broad-hwy/","timezone":"America/Los_Angeles"},{"feed":"aavictoria.ca","slug":"welcome-group","name":"Welcome Group","day":1,"time":"12:00","end_time":"13:00","types":["B","D","O","X"],"state":"BC","postal_code":"V8K 1S1","city":"Salt Spring Island","address":"901 N End Rd","latitude":48.8731776,"longitude":-123.5288504,"location":"Fritz Theatre Central Hall","notes":"Salt Spring Island","url":"https://aavictoria.ca/meetings/welcome-group/","timezone":"America/Vancouver"},{"feed":"aavictoria.ca","slug":"what-it-was-like","name":"What it was like","day":1,"time":"12:00","end_time":"13:00","types":["O","X"],"state":"BC","postal_code":"V9B 1X1","city":"Victoria","address":"2250 Sooke Rd","latitude":48.4345197,"longitude":-123.4934744,"location":"Colwood Church","url":"https://aavictoria.ca/meetings/what-it-was-like/","timezone":"America/Vancouver"},{"feed":"vancouveraa.ca","slug":"poco-nooner-mon-1205","name":"POCO NOONER","day":1,"time":"12:05","types":["O","X","XB"],"state":"BC","postal_code":"V3B 7H3","city":"Port Coquitlam","address":"2175 Coquitlam Ave","latitude":49.2676666,"longitude":-122.7745509,"location":"Kinsmen Centre","region":"Port Coquitlam","url":"https://vancouveraa.ca/meetings/poco-nooner-mon-1205/","group":"POCO NOONER","timezone":"America/Vancouver"},{"feed":"vancouveraa.ca","slug":"aa-womens-meeting-mon-1215","name":"AA WOMEN'S MEETING","day":1,"time":"12:15","types":["D","O","X","XB","W","ONL"],"state":"BC","postal_code":"V7V 1K5","city":"West Vancouver","address":"2225 Marine Dr","latitude":49.3310793,"longitude":-123.1716411,"location":"Avalon Women's Centre North Shore","region":"West Vancouver","conference_url":"https://zoom.us/j/97348773262","url":"https://vancouveraa.ca/meetings/aa-womens-meeting-mon-1215/","group":"AVALON WOMEN'S CENTRE NORTH VANCOUVER","timezone":"America/Vancouver"},{"feed":"vancouveraa.ca","slug":"mtwtf","name":"MTWTF","day":1,"time":"12:15","types":["B","D","BE","O","ST","X","XB"],"state":"BC","postal_code":"V6C 3L1","city":"Vancouver","address":"690 Burrard St","latitude":49.2845792,"longitude":-123.1203097,"location":"Christ Church Cathedral","region":"Vancouver","notes":"No Meeting on stat. holidays.","url":"https://vancouveraa.ca/meetings/mtwtf/","group":"MTWTF","timezone":"America/Vancouver"},{"feed":"vancouveraa.ca","slug":"no-bull","name":"NO BULL","day":1,"time":"12:15","types":["B","C","M","X"],"state":"BC","postal_code":"V5L 1J2","city":"Vancouver","address":"1901 Powell St","latitude":49.2849895,"longitude":-123.0650706,"location":"Princeton Grill","region":"Vancouver","notes":"$7.99 Minimum purchase","url":"https://vancouveraa.ca/meetings/no-bull/","group":"NO BULL","timezone":"America/Vancouver"},{"feed":"vancouveraa.ca","slug":"aa-womens-meeting-mon-1230","name":"AA WOMEN'S MEETING","day":1,"time":"12:30","types":["D","O","X","XB","W","ONL"],"state":"BC","postal_code":"V6M 3X1","city":"Vancouver","address":"5957 West Blvd","latitude":49.2322779,"longitude":-123.1559016,"location":"Avalon Women's Centre","region":"Vancouver","conference_url":"https://zoom.us/j/97288841083","url":"https://vancouveraa.ca/meetings/aa-womens-meeting-mon-1230/","group":"AVALON WOMEN'S CENTRE VANCOUVER","timezone":"America/Vancouver"},{"feed":"aavictoria.ca","slug":"high-nooners-2","name":"High Nooners","day":1,"time":"12:30","end_time":"13:30","types":["O"],"state":"BC","postal_code":"V0N 2M1","city":"Pender Island","address":"4405 Bedwell Harbour Rd","latitude":48.7988821,"longitude":-123.2818153,"location":"Community Church","url":"https://aavictoria.ca/meetings/high-nooners-2/","timezone":"America/Vancouver"},{"feed":"vancouveraa.ca","slug":"out-to-lunch-bunch-mon","name":"OUT TO LUNCH BUNCH","day":1,"time":"12:30","types":["O","X","XB"],"state":"BC","postal_code":"V6A 0A7","city":"Vancouver","address":"57 E Hastings St","latitude":49.2815806,"longitude":-123.1030879,"location":"The Dugout","region":"Vancouver","url":"https://vancouveraa.ca/meetings/out-to-lunch-bunch-mon/","group":"OUT TO LUNCH BUNCH","timezone":"America/Vancouver"},{"feed":"vancouveraa.ca","slug":"soul-food","name":"SOUL FOOD","day":1,"time":"12:30","types":["BE","O","SP"],"state":"BC","postal_code":"V3M 1A8","city":"New Westminster","address":"658 Clarkson St","latitude":49.2028578,"longitude":-122.9097043,"location":"Union Gospel Mission New Westminster","region":"New Westminster","notes":"Mtg is held in a room in the basement. Our format is to have 2 speakers share for the first half of the meeting, and in the second half we open up the floor for questions, discussion, and general sharing.","url":"https://vancouveraa.ca/meetings/soul-food/","group":"SOUL FOOD","timezone":"America/Vancouver"},{"feed":"vancouveraa.ca","slug":"aa-vancouver","name":"AA VANCOUVER","day":1,"time":"14:00","types":["B","D","O","ONL"],"state":"BC","postal_code":"V5R 5L5","city":"Vancouver","latitude":49.2320987,"longitude":-123.0300465,"location":"ONLINE ONLY VAN","region":"Vancouver","conference_url":"https://us02web.zoom.us/j/83314248802","url":"https://vancouveraa.ca/meetings/aa-vancouver/","group":"AA VANCOUVER","timezone":"America/Vancouver"},{"feed":"vancouveraa.ca","slug":"reflections-meeting","name":"REFLECTIONS MEETING","day":1,"time":"14:00","types":["DR","O"],"state":"BC","postal_code":"V6J 1S1","city":"Vancouver","address":"1525 W 7th Ave","latitude":49.265524,"longitude":-123.1394983,"location":"Alano Club of Vancouver","region":"Vancouver","url":"https://vancouveraa.ca/meetings/reflections-meeting/","group":"ALANO CLUB OF VANCOUVER MEETINGS","timezone":"America/Vancouver"},{"feed":"vancouveraa.ca","slug":"simple-at-4-mon","name":"SIMPLE AT 4","day":1,"time":"16:00","types":["O","X"],"state":"BC","postal_code":"V7L 1C3","city":"North Vancouver","address":"176 2nd St E","latitude":49.3116413,"longitude":-123.074965,"location":"North Shore Alano Club","region":"North Vancouver","url":"https://vancouveraa.ca/meetings/simple-at-4-mon/","group":"SIMPLE AT 4","timezone":"America/Vancouver"},{"feed":"nanaimoaa.org","slug":"beyond-belief-agnostic-meeting","name":"Beyond Belief (Agnostic Meeting)","day":1,"time":"16:30","end_time":"17:30","types":["D","O","X"],"state":"BC","postal_code":"V9T 5M4","city":"Nanaimo","address":"6250 Hammond Bay Rd","latitude":49.2349688,"longitude":-124.0385868,"location":"Nanaimo North Library","region":"Nanaimo Area","notes":"Beyond Belief is an agnostic and freethinkers meeting of Alcoholics Anonymous. All are welcome. Please do not smoke anywhere on library property and attendees are asked to keep voices down outside the meeting room in the main lobby of the library.","url":"https://nanaimoaa.org/meetings/beyond-belief-agnostic-meeting/","group":"Beyond Belief","timezone":"America/Vancouver"},{"feed":"nanaimoaa.org","slug":"early-evening-candlelight-group","name":"5pm Candlelight Meeting (in-person)","day":1,"time":"17:00","types":["D","O","X"],"state":"BC","postal_code":"V9S 3W9","city":"Nanaimo","address":"2730 Departure Bay Rd","latitude":49.2031204,"longitude":-123.9703271,"location":"Kin Hut","region":"Nanaimo Area","notes":"***NOTE***\nThe 5 pm Candlelight group will not be able to meet at the Kin Hut, where it normally meets, on Monday July 1st because of Canada Day Celebrations happening at Departure Bay Beach. Instead, we will be meeting in the field of Departure Bay Centennial Park, across the road from the beach, with parking on Wingrove street. It is hoped that there will be lots of room for us to meet there even with the busy festivities at the beach that day. Please bring chairs.","url":"https://nanaimoaa.org/meetings/early-evening-candlelight-group/","group":"5pm Candlelight Meeting (in-person)","timezone":"America/Los_Angeles"},{"feed":"vancouveraa.ca","slug":"gay-men-55-online-meeting","name":"GAY MEN 55+ ONLINE MEETING","day":1,"time":"17:00","types":["G","M","O","SP","ONL"],"state":"BC","postal_code":"V5R 5L5","city":"Vancouver","latitude":49.2320987,"longitude":-123.0300465,"location":"ONLINE ONLY VAN","region":"Vancouver","conference_url":"https://us06web.zoom.us/j/6617784810","url":"https://vancouveraa.ca/meetings/gay-men-55-online-meeting/","group":"GAY MEN 55+ ONLINE MEETING","timezone":"America/Vancouver"},{"feed":"vancouveraa.ca","slug":"white-rock-fiver-mon","name":"WHITE ROCK FIVER","day":1,"time":"17:00","types":["D","O","X","XB"],"state":"BC","postal_code":"V4B 1P9","city":"White Rock","address":"15302 Pacific Ave","latitude":49.0226022,"longitude":-122.798238,"location":"Masonic Hall","region":"White Rock","url":"https://vancouveraa.ca/meetings/white-rock-fiver-mon/","group":"WHITE ROCK FIVER","timezone":"America/Vancouver"},{"feed":"vancouveraa.ca","slug":"yaletown-happy-hour-mon","name":"YALETOWN HAPPY HOUR","day":1,"time":"17:15","types":["O","X","XB"],"state":"BC","postal_code":"V6Z 2W3","city":"Vancouver","address":"181 Roundhouse Mews","latitude":49.2733614,"longitude":-123.1217433,"location":"Roundhouse Community Centre","region":"Vancouver","notes":"Multi-media room on 2nd Floor. No meeting on stat holidays.","url":"https://vancouveraa.ca/meetings/yaletown-happy-hour-mon/","group":"YALETOWN HAPPY HOUR","timezone":"America/Vancouver"},{"feed":"vancouveraa.ca","slug":"yaletown-happy-hour-online","name":"YALETOWN HAPPY HOUR ONLINE","day":1,"time":"17:15","types":["C","DB","ST","TR","ONL"],"state":"BC","postal_code":"V5R 5L5","city":"Vancouver","latitude":49.2320987,"longitude":-123.0300465,"location":"ONLINE ONLY VAN","region":"Vancouver","conference_url":"https://zoom.us/j/87850593192","url":"https://vancouveraa.ca/meetings/yaletown-happy-hour-online/","group":"YALETOWN HAPPY HOUR ONLINE","timezone":"America/Vancouver"},{"feed":"vancouveraa.ca","slug":"how-it-works-mon-530","name":"HOW IT WORKS","day":1,"time":"17:30","types":["O","SP","X","XB"],"state":"BC","postal_code":"V4K 3C9","city":"Delta","address":"4748 57 St b","latitude":49.0887356,"longitude":-123.0652742,"location":"Ladner Adult Learning Centre","region":"Ladner","url":"https://vancouveraa.ca/meetings/how-it-works-mon-530/","group":"HOW IT WORKS","timezone":"America/Vancouver"},{"feed":"vancouveraa.ca","slug":"keystone-grp-mon-2","name":"WOMEN'S KEYSTONE GRP","day":1,"time":"18:00","types":["B","C","W","ONL"],"state":"BC","postal_code":"V5R 5L5","city":"Vancouver","latitude":49.2320987,"longitude":-123.0300465,"location":"ONLINE ONLY VAN","region":"Vancouver","conference_url":"https://zoom.us/j/6488658508","url":"https://vancouveraa.ca/meetings/keystone-grp-mon-2/","group":"KEYSTONE GRP","timezone":"America/Vancouver"},{"feed":"vancouveraa.ca","slug":"monday-night-ashtray","name":"MONDAY NIGHT ASHTRAY","day":1,"time":"18:00","types":["D","BE","O"],"state":"BC","postal_code":"V6A 0E6","city":"Vancouver","address":"144 E Hastings St","latitude":49.2812225,"longitude":-123.1010999,"location":"Regal Place Hotel","region":"Vancouver","url":"https://vancouveraa.ca/meetings/monday-night-ashtray/","group":"MONDAY NIGHT ASHTRAY","timezone":"America/Vancouver"},{"feed":"vancouveraa.ca","slug":"river-group-mon-6-2","name":"RIVER GROUP","day":1,"time":"18:00","types":["O"],"state":"BC","postal_code":"V4K 3N2","city":"Delta","address":"3900 Arthur Dr","latitude":49.074919,"longitude":-123.077788,"location":"Sacred Heart Monastery","region":"Ladner","url":"https://vancouveraa.ca/meetings/river-group-mon-6-2/","group":"RIVER GROUP","timezone":"America/Vancouver"},{"feed":"aavictoria.ca","slug":"sobrettes","name":"Soberettes","day":1,"time":"18:00","end_time":"19:00","types":["ABSI","C","X","XB","W","ONL"],"state":"BC","postal_code":"V8P 5J6","city":"Victoria","address":"1445 Ocean View Rd","latitude":48.4515258,"longitude":-123.3436776,"location":"Saanich Volunteer Services Society","notes":"Hybrid: simultaneous Zoom and in-person\n\nTopic readings from As Bill Sees It\nPDF of book is at:\n\nhttps://paintedbrain.org/wp-content/uploads/2020/07/As-Bill-Sees-It.pdf","conference_url":"https://us02web.zoom.us/j/83103325017?pwd=ZUpFU0ZSWGtnWHY2TkJTdy9tZnhaQT09","url":"https://aavictoria.ca/meetings/sobrettes/","timezone":"America/Vancouver"},{"feed":"vancouveraa.ca","slug":"bay-group-beginners","name":"BAY GROUP BEGINNER'S MEETING","day":1,"time":"18:30","types":["D","BE","O","ST"],"state":"BC","postal_code":"V5T 3L1","city":"Vancouver","address":"2775 Sophia St","latitude":49.2605572,"longitude":-123.0985737,"location":"Vancouver Recovery Club","region":"Vancouver","notes":"Meeting is in the Games Room. Topics for discussion based on selected readings from the Big Book, on Steps 1, 2, and 3.","url":"https://vancouveraa.ca/meetings/bay-group-beginners/","group":"BAY GROUP","timezone":"America/Vancouver"},{"feed":"aavictoria.ca","slug":"emotional-sobriety","name":"Emotional Sobriety","day":1,"time":"18:30","end_time":"19:30","types":["C","X","W"],"state":"BC","postal_code":"V8W 1M2","city":"Victoria","address":"525 Johnson St","latitude":48.4275164,"longitude":-123.3696701,"location":"Salvation Army","url":"https://aavictoria.ca/meetings/emotional-sobriety/","timezone":"America/Vancouver"},{"feed":"vancouveraa.ca","slug":"you-are-not-alone-remote-connections-mon-630","name":"YOU ARE NOT ALONE: Remote Connections","day":1,"time":"18:30","types":["D","O","ONL"],"state":"BC","postal_code":"V5R 5L5","city":"Vancouver","latitude":49.2320987,"longitude":-123.0300465,"location":"ONLINE ONLY VAN","region":"Vancouver","conference_url":"https://zoom.us/j/4787414665","url":"https://vancouveraa.ca/meetings/you-are-not-alone-remote-connections-mon-630/","group":"YOU ARE NOT ALONE","timezone":"America/Vancouver"},{"feed":"area78.org","slug":"1312-1","name":"Creston Central","day":1,"time":"19:00","end_time":"20:00","types":["O"],"state":"BC","postal_code":"V0B 1G0","city":"Creston","address":"422 7 Ave N","latitude":49.0999498,"longitude":-116.5170016,"location":"Anglican Christ Church","region":"Creston","notes":"Mon - Discussion Meeting /\nWed - Big Book Study /\nFri - Discussion Group. Potluck and birthday last Friday of the month, 6:30 PM.","url":"https://area78aa.org/meetings/1312-1/","group":"Creston Central Group","timezone":"America/Edmonton"},{"feed":"area78.org","slug":"1793-1","name":"Sparwood AA","day":1,"time":"19:00","end_time":"20:00","types":["B","O","EN"],"state":"BC","postal_code":"V0B 2G0","city":"Sparwood","address":"140 Spruce Ave","latitude":49.7332455,"longitude":-114.8867372,"location":"Sparwood USW Hall green bldg","region":"Sparwood","notes":"Monday at 7pm. Thursday 8 pm. Everyone welcome- can be open or closed as needed.","url":"https://area78aa.org/meetings/1793-1/","group":"Sparwood AA Group","timezone":"America/Edmonton"},{"feed":"area78.org","slug":"488-1","name":"Monday Night Downtown","day":1,"time":"19:00","end_time":"20:00","types":["C","DR","X"],"state":"BC","postal_code":"V1C 2W8","city":"Cranbrook","address":"1402 1st St S","latitude":49.5104683,"longitude":-115.76136,"location":"Community Living Center","region":"Cranbrook","notes":"The meeting takes place at the Community Living Center. Also known as the CCLC","url":"https://area78aa.org/meetings/488-1/","group":"Monday Night Downtown Group","timezone":"America/Edmonton"},{"feed":"nanaimoaa.org","slug":"big-book-group-mon","name":"Big Book Cover to Cover (in-person)","day":1,"time":"19:00","end_time":"20:00","types":["B","C","X"],"state":"BC","postal_code":"V9T 5W5","city":"Nanaimo","address":"3137 Barons Rd","latitude":49.2085924,"longitude":-124.002176,"location":"Nanaimo District Teachers Assoc Bldg.","region":"Nanaimo Area","notes":"Bring your Big Book","url":"https://nanaimoaa.org/meetings/big-book-group-mon/","group":"Big Book Cover to Cover (in-person)","timezone":"America/Los_Angeles"},{"feed":"vancouveraa.ca","slug":"brentwood-group","name":"BRENTWOOD GROUP","day":1,"time":"19:00","types":["D","O","X"],"state":"BC","postal_code":"V5C 3M7","city":"Burnaby","address":"4550 Kitchener St","latitude":49.2716621,"longitude":-123.002417,"location":"St Timothy Anglican Church","region":"Burnaby","url":"https://vancouveraa.ca/meetings/brentwood-group/","group":"BRENTWOOD GROUP","timezone":"America/Vancouver"},{"feed":"vancouveraa.ca","slug":"bridge-to-hope","name":"BRIDGE TO HOPE","day":1,"time":"19:00","types":["D","O","X","XB"],"state":"BC","postal_code":"V3T 2X7","city":"Surrey","address":"10776 King George Blvd","latitude":49.198466,"longitude":-122.84495,"location":"SUMS Place","region":"Surrey","url":"https://vancouveraa.ca/meetings/bridge-to-hope/","group":"BRIDGE TO HOPE","timezone":"America/Vancouver"},{"feed":"vancouveraa.ca","slug":"dolphin-beginners","name":"DOLPHIN BEGINNERS","day":1,"time":"19:00","types":["BE","O","X","XB"],"state":"BC","postal_code":"V5V 1K7","city":"Vancouver","address":"998 E 19th Ave","latitude":49.2533824,"longitude":-123.0841353,"location":"First Church of the Nazarene","region":"Vancouver","url":"https://vancouveraa.ca/meetings/dolphin-beginners/","group":"DOLPHIN GROUP","timezone":"America/Vancouver"},{"feed":"nanaimoaa.org","slug":"echo-group","name":"Echo Group (in-person)","day":1,"time":"19:00","types":["D","O"],"state":"BC","postal_code":"V9Y 3Z2","city":"Port Alberni","address":"4780 Roger St","latitude":49.2541122,"longitude":-124.80459,"location":"Mental Health Building","region":"Port Alberni &amp; Nitinaht Lake","url":"https://nanaimoaa.org/meetings/echo-group/","timezone":"America/Los_Angeles"},{"feed":"aavictoria.ca","slug":"fairfield-group","name":"Fairfield Group","day":1,"time":"19:00","end_time":"20:00","types":["O","X"],"state":"BC","postal_code":"V8V 3L4","city":"Victoria","address":"1273 Fort St","latitude":48.4230234,"longitude":-123.3461525,"location":"Grace Lutheran Church","url":"https://aavictoria.ca/meetings/fairfield-group/","timezone":"America/Vancouver"},{"feed":"vancouveraa.ca","slug":"fireside-white-rock-mon","name":"FIRESIDE WHITE ROCK","day":1,"time":"19:00","types":["DR","O","X","XB"],"state":"BC","postal_code":"V4B 1P9","city":"White Rock","address":"15302 Pacific Ave","latitude":49.0226022,"longitude":-122.798238,"location":"Masonic Hall","region":"White Rock","url":"https://vancouveraa.ca/meetings/fireside-white-rock-mon/","group":"FIRESIDE WHITE ROCK","timezone":"America/Vancouver"},{"feed":"vancouveraa.ca","slug":"frantic-serenity","name":"FRANTIC SERENITY","day":1,"time":"19:00","end_time":"20:00","types":["B","O","X","XB"],"state":"BC","postal_code":"V4B 2E8","city":"White Rock","address":"15115 Roper Ave","latitude":49.0259333,"longitude":-122.8035445,"location":"Church of the Holy Trinity","region":"White Rock","url":"https://vancouveraa.ca/meetings/frantic-serenity/","group":"FRANTIC SERENITY","timezone":"America/Vancouver"},{"feed":"vancouveraa.ca","slug":"g-f-strong-aa","name":"G.F. STRONG AA","day":1,"time":"19:00","types":["D","BE","O","X"],"state":"BC","postal_code":"V5Z 2G9","city":"Vancouver","address":"4255 Laurel St","latitude":49.2474522,"longitude":-123.1250688,"location":"GF Strong Rehabilitation Centre","region":"Vancouver","notes":"No Meeting on Stat. Holidays","url":"https://vancouveraa.ca/meetings/g-f-strong-aa/","group":"Hospital Committee","timezone":"America/Vancouver"},{"feed":"area78.org","slug":"grizzly-valley-big-book-study","name":"Grizzly Valley Big Book Study","day":1,"time":"19:00","end_time":"20:00","types":["B","O","EN"],"state":"BC","postal_code":"V0C 2W0","city":"Tumbler Ridge","address":"176 Chamberlain Crescent","latitude":55.1262073,"longitude":-121.0078166,"region":"Tumbler Ridge","url":"https://area78aa.org/meetings/grizzly-valley-big-book-study/","timezone":"America/Edmonton"},{"feed":"vancouveraa.ca","slug":"journey-together","name":"JOURNEY TOGETHER","day":1,"time":"19:00","types":["D","O","ONL"],"state":"BC","postal_code":"V5R 5L5","city":"Vancouver","latitude":49.2320987,"longitude":-123.0300465,"location":"ONLINE ONLY VAN","region":"Vancouver","conference_url":"https://us02web.zoom.us/j/4453926607","url":"https://vancouveraa.ca/meetings/journey-together/","group":"JOURNEY TOGETHER","timezone":"America/Vancouver"},{"feed":"vancouveraa.ca","slug":"monday-mens-step","name":"MONDAY MEN'S STEP","day":1,"time":"19:00","types":["C","ST","X"],"state":"BC","postal_code":"V7L 1C3","city":"North Vancouver","address":"176 2nd St E","latitude":49.3116413,"longitude":-123.074965,"location":"North Shore Alano Club","region":"North Vancouver","notes":"Long Timer guest speaker last Monday of each month.","url":"https://vancouveraa.ca/meetings/monday-mens-step/","group":"MONDAY MEN'S STEP","timezone":"America/Vancouver"},{"feed":"vancouveraa.ca","slug":"monday-night-meditation","name":"MONDAY NIGHT MEDITATION","day":1,"time":"19:00","types":["MED","O","X","XB"],"state":"BC","postal_code":"V6H 1M8","city":"Vancouver","address":"1440 W 12th Ave","latitude":49.2604583,"longitude":-123.1366234,"location":"Holy Trinity Church","region":"Vancouver","url":"https://vancouveraa.ca/meetings/monday-night-meditation/","group":"MONDAY NIGHT MEDITATION","timezone":"America/Vancouver"},