[{"feed":"area82aa.org","slug":"sunday-morning-group","name":"Sunday Morning Breakfast Group","day":0,"time":"09:30","end_time":"10:30","types":["D","O"],"state":"NL","postal_code":"A2H 1R7","city":"Corner Brook","address":"112 Premier Dr","latitude":48.9566983,"longitude":-57.9339119,"location":"Corner Brook, NL - The Summit Place","region":"All Districts","url":"https://area82aa.org/meetings/sunday-morning-group/","timezone":"America/St_Johns"},{"feed":"area82aa.org","slug":"helping-hands-group","name":"Helping Hands Group","day":0,"time":"10:30","end_time":"11:30","types":["C","D"],"state":"NL","postal_code":"A0E 1L0","city":"Creston North","address":"785 Ville Marie Dr","latitude":47.1508823,"longitude":-55.206536,"location":"7th Day Adventist Church Basement","region":"District 14","url":"https://area82aa.org/meetings/helping-hands-group/","timezone":"America/St_Johns"},{"feed":"area82aa.org","slug":"gander-care-and-share-3","name":"Gander Care and Share","day":0,"time":"19:00","end_time":"20:00","types":["O","ONL"],"state":"NL","postal_code":"A1V 1T3","city":"Gander","address":"1 Brochen St","latitude":48.9558973,"longitude":-54.6164378,"location":"United Church, Fraser Road","region":"All Districts","notes":"Hybrid Meeting\nMeeting ID: 853 6188 2647\nContact: Jeff 709-422-4363\n\nOpen Speaker meeting last Sunday of the month. Friends and family very welcome to attend.","conference_url":"https://us04web.zoom.us/j/85361882647","url":"https://area82aa.org/meetings/gander-care-and-share-3/","timezone":"America/St_Johns"},{"feed":"area82aa.org","slug":"road-to-emotional-sobriety-group","name":"Road to Emotional Sobriety Group","day":0,"time":"19:30","end_time":"20:30","state":"NL","postal_code":"A2H 4T9","city":"Corner Brook","address":"2 Carmen Ave","latitude":48.946817,"longitude":-57.9611413,"location":"Corner Brook - The Women's Centre","region":"All Districts","url":"https://area82aa.org/meetings/road-to-emotional-sobriety-group/","timezone":"America/St_Johns"},{"feed":"area82aa.org","slug":"bacalieu-trail-group-sunday-zoom","name":"Bacalieu Trail Group (Sunday Zoom)","day":0,"time":"20:00","end_time":"21:00","types":["12x12","B","C","ONL"],"state":"NL","postal_code":"A0A 3W0","city":"South River","latitude":47.5275846,"longitude":-53.2809166,"location":"37 Conception Bay Hwy","region":"District 14","notes":"New ID and Passcode as of Dec 2025\n\nID# 754 7921 1811\nPassword: 503907","conference_url":"https://us02web.zoom.us/","url":"https://area82aa.org/meetings/bacalieu-trail-group-sunday-zoom/","timezone":"America/St_Johns"},{"feed":"area82aa.org","slug":"easy-does-it-group-placentia","name":"Easy Does It Group, Placentia","day":0,"time":"20:00","end_time":"21:00","types":["C","D"],"state":"NL","postal_code":"A0B 2Y0","city":"Placentia","address":"14 Atlantic Ave","latitude":47.2448863,"longitude":-53.9642338,"location":"Library, Atlantic Place; Placentia","region":"District 14","url":"https://area82aa.org/meetings/easy-does-it-group-placentia/","timezone":"America/St_Johns"},{"feed":"area82aa.org","slug":"exploits-valley-group","name":"Exploits Valley Group","day":0,"time":"20:00","end_time":"21:00","types":["C","D","ONL"],"state":"NL","postal_code":"A2A 2J3","city":"Grand Falls-Windsor","latitude":48.927688,"longitude":-55.657249,"region":"All Districts","conference_url":"https://us06web.zoom.us/j/9460867102?pwd=eVBuQ3VTSnBOY29nbTNSNFZPNWd3Zz09","url":"https://area82aa.org/meetings/exploits-valley-group/","timezone":"America/St_Johns"},{"feed":"area82aa.org","slug":"twin-cities-group","name":"Twin Cities Group","day":0,"time":"20:00","end_time":"21:00","types":["D"],"state":"NL","postal_code":"A2V 1L4","city":"Labrador City","address":"Hudson Dr","latitude":52.9459554,"longitude":-66.9063254,"location":"Union Hall, Wabush","region":"District 16","url":"https://area82aa.org/meetings/twin-cities-group/","timezone":"America/St_Johns"},{"feed":"area82aa.org","slug":"the-midway-group","name":"The Midway Group","day":1,"time":"19:30","end_time":"20:30","types":["D","O"],"state":"NL","postal_code":"A5A 1Z7","city":"Clarenville","address":"13 Trinity Pl","latitude":48.1615415,"longitude":-53.9666184,"location":"Our Lady of Fatima Church","region":"District 14","notes":"For meeting information please call Lloyd 709 425 1979, or Stan 709 766 9624. This is an open meeting of AA, with daily readings and discussions on life in recovery, and the AA Daily reflections.","url":"https://area82aa.org/meetings/the-midway-group/","timezone":"America/St_Johns"},{"feed":"area82aa.org","slug":"brigus-group","name":"Brigus Group","day":1,"time":"20:00","end_time":"21:00","types":["C","D"],"state":"NL","postal_code":"A0A 1K0","city":"Brigus","address":"South St","latitude":47.535451,"longitude":-53.210213,"location":"Old Post Office Building, South Street Brigus","region":"District 14","url":"https://area82aa.org/meetings/brigus-group/","timezone":"America/St_Johns"},{"feed":"area82aa.org","slug":"curling","name":"Curling Group","day":1,"time":"20:00","end_time":"21:00","types":["C"],"state":"NL","postal_code":"A2H 1R7","city":"Corner Brook","address":"112 Premier Dr","latitude":48.9566983,"longitude":-57.9339119,"location":"Corner Brook, NL - The Summit Place","region":"All Districts","url":"https://area82aa.org/meetings/curling/","timezone":"America/St_Johns"},{"feed":"area82aa.org","slug":"new-horizons-group-2","name":"New Horizons Group","day":1,"time":"20:00","end_time":"21:00","types":["C"],"state":"NL","postal_code":"A1Y 1B1","city":"Carbonear","address":"163 Water St","latitude":47.7386479,"longitude":-53.2223816,"location":"50 Plus Club","region":"District 14","url":"https://area82aa.org/meetings/new-horizons-group-2/","timezone":"America/St_Johns"},{"feed":"area82aa.org","slug":"pioneer-group","name":"Pioneer Group","day":1,"time":"20:00","end_time":"21:00","types":["C","D"],"state":"NL","postal_code":"A8A 1E1","city":"Deer Lake","address":"Salvation Army Church, 20 Church St","latitude":49.1722368,"longitude":-57.4276351,"location":"Deer Lake, NL - Salvation Army Citadel","region":"All Districts","url":"https://area82aa.org/meetings/pioneer-group/","timezone":"America/St_Johns"},{"feed":"area82aa.org","slug":"big-book-study-group-2","name":"Clarenville AA Newcomers Meeting","day":2,"time":"19:00","end_time":"20:00","types":["BE"],"state":"NL","postal_code":"A5A 1K2","city":"Clarenville","address":"67 Manitoba Dr","latitude":48.1655443,"longitude":-53.985601,"location":"Dr. G.B. Cross Memorial Hospital","region":"District 14","notes":"709 433 2657","url":"https://area82aa.org/meetings/big-book-study-group-2/","timezone":"America/St_Johns"},{"feed":"area82aa.org","slug":"gander-care-and-share","name":"Gander Care and Share","day":2,"time":"19:00","end_time":"20:00","types":["C","ONL"],"state":"NL","postal_code":"A1V 1T3","city":"Gander","address":"1 Brochen St","latitude":48.9558973,"longitude":-54.6164378,"location":"United Church, Fraser Road","region":"All Districts","notes":"Hybrid Meeting\nMeeting ID: 853 6188 2647\nContact: Jeff 709-422-4363","conference_url":"https://us04web.zoom.us/j/85361882647","url":"https://area82aa.org/meetings/gander-care-and-share/","timezone":"America/St_Johns"},{"feed":"area82aa.org","slug":"cbe-serenity-big-book-study","name":"Corner Brook East Serenity Group","day":2,"time":"19:30","end_time":"20:30","types":["C","D"],"state":"NL","postal_code":"A2H 2W8","city":"Corner Brook","address":"19 Park St","latitude":48.9516737,"longitude":-57.944347,"location":"Corner Brook, NL - In Person meeting, use side entrance, First United Church,","region":"All Districts","url":"https://area82aa.org/meetings/cbe-serenity-big-book-study/","timezone":"America/St_Johns"},{"feed":"area82aa.org","slug":"exploits-valley-group-4","name":"Exploits Valley Group","day":2,"time":"20:00","end_time":"21:00","types":["C","D"],"state":"NL","postal_code":"A2A 1A9","city":"Grand Falls-Windsor","address":"31 Circular Rd","latitude":48.9289928,"longitude":-55.6517305,"location":"Salvation Army Citadel, 31 Circular Road","region":"All Districts","url":"https://area82aa.org/meetings/exploits-valley-group-4/","group":"Exploits Valley Group","timezone":"America/St_Johns"},{"feed":"area82aa.org","slug":"mortier-bay-group","name":"Mortier Bay Group","day":2,"time":"20:00","end_time":"21:00","types":["C","D"],"state":"NL","postal_code":"A0E 1E0","city":"Burin","address":"20 Union Rd","latitude":47.0382836,"longitude":-55.1639098,"location":"Masonic Hall","region":"District 14","url":"https://area82aa.org/meetings/mortier-bay-group/","timezone":"America/St_Johns"},{"feed":"area82aa.org","slug":"one-day-at-a-time-group","name":"One Day at a Time Group","day":2,"time":"20:00","end_time":"21:00","types":["C"],"state":"NL","postal_code":"A2N 2Y7","city":"Stephenville","address":"51 Carolina Ave","latitude":48.5518225,"longitude":-58.5674578,"location":"Stephenville, NL-Pentecostal Church","region":"All Districts","url":"https://area82aa.org/meetings/one-day-at-a-time-group/","timezone":"America/St_Johns"},{"feed":"area82aa.org","slug":"12-noon-group","name":"12 Noon Group","day":3,"time":"12:00","end_time":"13:00","types":["C","D"],"state":"NL","postal_code":"A2H 2W8","city":"Corner Brook","address":"25 Main St","latitude":48.9531808,"longitude":-57.9454024,"location":"Corner Brook, NL - Anglican Church","region":"All Districts","url":"https://area82aa.org/meetings/12-noon-group/","timezone":"America/St_Johns"},{"feed":"area82aa.org","slug":"serenity-in-springdale","name":"Serenity in Springdale","day":3,"time":"19:00","end_time":"20:00","types":["C","D"],"state":"NL","postal_code":"A0J 1T0","city":"Springdale","address":"292 Main St","latitude":49.5060633,"longitude":-56.0523173,"location":"Valley Vista Recreation Center","region":"All Districts","url":"https://area82aa.org/meetings/serenity-in-springdale/","timezone":"America/St_Johns"},{"feed":"area82aa.org","slug":"makkovik-recovery-group","name":"Area 82 Remote Communities Meeting of Alcoholics Anonymous","day":3,"time":"19:30","end_time":"20:30","types":["D","ONL"],"state":"NL","city":"Makkovik","latitude":55.0861676,"longitude":-59.1764336,"location":"The In Person meeting is held at the Fire Hall Boardroom","region":"District 16","conference_url":"https://us02web.zoom.us/j/87887876370","url":"https://area82aa.org/meetings/makkovik-recovery-group/","timezone":"America/Halifax"},{"feed":"area82aa.org","slug":"easy-does-it-group-placentia-2","name":"Easy Does It Group, Placentia","day":3,"time":"20:00","end_time":"21:00","types":["C","D"],"state":"NL","postal_code":"A0B 2Y0","city":"Placentia","address":"14 Atlantic Ave","latitude":47.2448863,"longitude":-53.9642338,"location":"Library, Atlantic Place; Placentia","region":"District 14","url":"https://area82aa.org/meetings/easy-does-it-group-placentia-2/","timezone":"America/St_Johns"},{"feed":"area82aa.org","slug":"exploits-valley-group-2","name":"Exploits Valley Group","day":3,"time":"20:00","end_time":"21:00","types":["C","D","ONL"],"state":"NL","postal_code":"A2A 2J3","city":"Grand Falls-Windsor","latitude":48.927688,"longitude":-55.657249,"region":"All Districts","notes":"Online Meeting","conference_url":"https://us06web.zoom.us/j/9460867102?pwd=eVBuQ3VTSnBOY29nbTNSNFZPNWd3Zz09","url":"https://area82aa.org/meetings/exploits-valley-group-2/","timezone":"America/St_Johns"},{"feed":"area82aa.org","slug":"new-horizons-group","name":"New Horizons Group","day":3,"time":"20:00","end_time":"21:00","types":["C","D"],"state":"NL","postal_code":"A1Y 1B1","city":"Carbonear","address":"163 Water St","latitude":47.7386479,"longitude":-53.2223816,"location":"50 Plus Club","region":"District 14","url":"https://area82aa.org/meetings/new-horizons-group/","timezone":"America/St_Johns"},{"feed":"area82aa.org","slug":"south-shore-group","name":"South Shore Group","day":3,"time":"20:00","end_time":"21:00","types":["C","D"],"state":"NL","postal_code":"A2H 1R7","city":"Corner Brook","address":"112 Premier Dr","latitude":48.9566983,"longitude":-57.9339119,"location":"Corner Brook, NL - The Summit Place","region":"All Districts","url":"https://area82aa.org/meetings/south-shore-group/","timezone":"America/St_Johns"},{"feed":"area82aa.org","slug":"harbour-main-group","name":"Harbour Main Group","day":3,"time":"20:30","end_time":"21:30","types":["C","TC"],"state":"NL","postal_code":"A0A 2P0","city":"Harbour Main","address":"351 Conception Bay Hwy","latitude":47.4340153,"longitude":-53.16056,"location":"Town Hall, Main Road, Harbour Main","region":"District 14","notes":"Currently Inactive","url":"https://area82aa.org/meetings/harbour-main-group/","timezone":"America/St_Johns"},{"feed":"area82aa.org","slug":"bacalieu-trail-group","name":"Bacalieu Trail Group","day":4,"time":"20:00","end_time":"21:00","types":["12x12","B","C","D","ONL"],"state":"NL","postal_code":"A0A 3W0","city":"South River","address":"37 Conception Bay Hwy","latitude":47.5261926,"longitude":-53.2670144,"location":"Anglican Church of the Resurrection, Conception Bay Highway, South River","region":"District 14","conference_url":"https://us02web.zoom.us/j/88010097895","url":"https://area82aa.org/meetings/bacalieu-trail-group/","timezone":"America/St_Johns"},{"feed":"area82aa.org","slug":"country-road-group","name":"Country Road Group","day":4,"time":"20:00","end_time":"21:00","types":["C","D"],"state":"NL","postal_code":"A2H 4T3","city":"Corner Brook","address":"5 Park Dr","latitude":48.9427652,"longitude":-57.9787292,"location":"Corner Brook, NL - St. Michael's Church Hall","region":"All Districts","url":"https://area82aa.org/meetings/country-road-group/","timezone":"America/St_Johns"},{"feed":"area82aa.org","slug":"glovertown-serenity-group","name":"Glovertown Serenity Group","day":4,"time":"20:00","end_time":"21:00","types":["C","D"],"state":"NL","postal_code":"A0G 4K0","city":"Traytown","address":"Aspen Dr","latitude":48.6623646,"longitude":-53.9677832,"location":"Traytown Community Center","region":"All Districts","url":"https://area82aa.org/meetings/glovertown-serenity-group/","timezone":"America/St_Johns"},{"feed":"area82aa.org","slug":"little-by-little-group","name":"Little by Little Group","day":4,"time":"20:00","end_time":"21:00","types":["C"],"state":"NL","postal_code":"A2A 1Z4","city":"Grand Falls-Windsor","address":"21 Church Rd","latitude":48.9312257,"longitude":-55.6594394,"location":"Holy Trinity Church","region":"All Districts","url":"https://area82aa.org/meetings/little-by-little-group/","timezone":"America/St_Johns"},{"feed":"area82aa.org","slug":"st-marys-group","name":"St Mary's Group","day":4,"time":"20:30","end_time":"21:30","types":["C","D"],"state":"NL","city":"Saint Mary's","address":"NL-90","latitude":46.9135651,"longitude":-53.5675857,"location":"Dunne Memorial Academy, St Mary's","region":"District 14","url":"https://area82aa.org/meetings/st-marys-group/","timezone":"America/St_Johns"},{"feed":"area82aa.org","slug":"gander-care-and-share-5","name":"Gander Care and Share","day":5,"time":"19:00","end_time":"20:00","types":["C","D","ONL"],"state":"NL","postal_code":"A1V 1T3","city":"Gander","address":"1 Brochen St","latitude":48.9558973,"longitude":-54.6164378,"location":"United Church, Fraser Road","region":"All Districts","conference_url":"https://us04web.zoom.us/j/85361882647","url":"https://area82aa.org/meetings/gander-care-and-share-5/","group":"Gander Care and Share","timezone":"America/St_Johns"},{"feed":"area82aa.org","slug":"the-midway-group-2","name":"The Midway Group","day":5,"time":"19:30","end_time":"20:30","types":["D","O"],"state":"NL","postal_code":"A5A 1Z7","city":"Clarenville","address":"13 Trinity Pl","latitude":48.1615415,"longitude":-53.9666184,"location":"Our Lady of Fatima Church","region":"District 14","notes":"For meeting information please call Lloyd 709 425 1979, or Stan 709 766 9624. This is an\nopen meeting of AA, with daily readings and discussions on life in recovery, and the AA Daily reflections.","url":"https://area82aa.org/meetings/the-midway-group-2/","timezone":"America/St_Johns"},{"feed":"area82aa.org","slug":"11180","name":"New Horizons Group","day":5,"time":"20:00","end_time":"21:00","types":["C","D"],"state":"NL","postal_code":"A1Y 1B1","city":"Carbonear","address":"163 Water St","latitude":47.7386479,"longitude":-53.2223816,"location":"50 Plus Club","region":"District 14","url":"https://area82aa.org/meetings/11180/","timezone":"America/St_Johns"},{"feed":"area82aa.org","slug":"exploits-valley-group-3","name":"**CANCELLED will resume Sept. 2025** Exploits Valley Group","day":5,"time":"20:00","end_time":"21:00","types":["C","D","ONL"],"state":"NL","postal_code":"A2A 2J3","city":"Grand Falls-Windsor","latitude":48.927688,"longitude":-55.657249,"region":"All Districts","notes":"Meeting is CANCELLED for the summer of 2025 and will resume in September 2025","conference_url":"https://us06web.zoom.us/j/9460867102?pwd=eVBuQ3VTSnBOY29nbTNSNFZPNWd3Zz09","url":"https://area82aa.org/meetings/exploits-valley-group-3/","group":"Exploits Valley Group","timezone":"America/St_Johns"},{"feed":"area82aa.org","slug":"friday-nite-group","name":"Friday Nite Group","day":5,"time":"20:00","end_time":"21:00","types":["C"],"state":"NL","postal_code":"A0A 2R0","city":"Holyrood","address":"160 Holyrood Access","latitude":47.3510119,"longitude":-53.1127767,"location":"IBEW Building","region":"District 14","url":"https://area82aa.org/meetings/friday-nite-group/","timezone":"America/St_Johns"},{"feed":"area82aa.org","slug":"happy-hour-group","name":"Happy Hour Group","day":5,"time":"20:00","end_time":"21:00","types":["C","D"],"state":"NL","postal_code":"A0N 1K0","city":"Channel-Port aux Basques","address":"Church Ln","latitude":47.5681987,"longitude":-59.1357036,"location":"Channel-Port aux Basques, NL - St James Anglican Church","region":"All Districts","url":"https://area82aa.org/meetings/happy-hour-group/","timezone":"America/St_Johns"},{"feed":"area82aa.org","slug":"on-day-at-a-time-group","name":"One Day at A Time Group","day":5,"time":"20:00","end_time":"21:00","types":["C"],"state":"NL","postal_code":"A2N 2Y7","city":"Stephenville","address":"51 Carolina Ave","latitude":48.5518225,"longitude":-58.5674578,"location":"Stephenville, NL-Pentecostal Church","region":"All Districts","url":"https://area82aa.org/meetings/on-day-at-a-time-group/","timezone":"America/St_Johns"},{"feed":"area82aa.org","slug":"twin-cities-group-2","name":"Twin Cities Group","day":5,"time":"20:00","end_time":"21:00","types":["C","D"],"state":"NL","postal_code":"A2V 1L4","city":"Labrador City","address":"Hudson Dr","latitude":52.9459554,"longitude":-66.9063254,"location":"Union Hall, Wabush","region":"District 16","url":"https://area82aa.org/meetings/twin-cities-group-2/","timezone":"America/St_Johns"},{"feed":"area82aa.org","slug":"pasadena-group","name":"Pasadena Group","day":6,"time":"20:00","end_time":"21:00","types":["C","D"],"state":"NL","postal_code":"A0L 1K0","city":"Pasadena","address":"3 Fourth Ave","latitude":49.0117118,"longitude":-57.6022993,"location":"Pasadena NL-Pasadena Pentecostal Church","region":"All Districts","notes":"Pasadena Pentecostal Church, entrance with wooden stairs\n\n3 Fourth Avenue, Pasadena, NL, A0L 1K0","url":"https://area82aa.org/meetings/pasadena-group/","timezone":"America/St_Johns"}]