[{"feed":"arkansascentraloffice.org","slug":"cosmopolitan-group-2","name":"Cosmopolitan Group","day":0,"time":"06:30","types":["ONL"],"state":"AR","postal_code":"72207","city":"Little Rock","address":"2323 Durwood Rd","latitude":34.7740113,"longitude":-92.3495676,"location":"Corner of Durwood & Hawthorne","region":"Little Rock","notes":"Password: 72207\nIf you need proof of attendance, send an e-mail to lrcosmopolitangroup@gmail.com.\nInclude the date, time, chairperson's name, meeting topic, and a confirmation of attendance.\nThe response will be e-mailed to you.","conference_url":"https://zoom.us/j/863934775","url":"https://arkansascentraloffice.org/meetings/cosmopolitan-group-2/","group":"Cosmopolitan Group","timezone":"America/Chicago"},{"feed":"arkansascentraloffice.org","slug":"breakfast-bunch","name":"Breakfast Bunch","day":0,"time":"07:00","end_time":"08:00","types":["O"],"state":"AR","postal_code":"72703","city":"Fayetteville","address":"568 W Sycamore St","latitude":36.0853989,"longitude":-94.165754,"location":"Alano Club","region":"Fayetteville","url":"https://arkansascentraloffice.org/meetings/breakfast-bunch/","group":"Breakfast Bunch","timezone":"America/Chicago"},{"feed":"arkansascentraloffice.org","slug":"rogers-group-5-2","name":"Rogers Group","day":0,"time":"07:00","end_time":"08:00","types":["D","O"],"state":"AR","postal_code":"72756","city":"Rogers","address":"218 W Cherry St","latitude":36.3298735,"longitude":-94.1188764,"location":"Rogers Group","region":"Rogers","notes":"Sunday : 7 am open discussion","url":"https://arkansascentraloffice.org/meetings/rogers-group-5-2/","group":"Rogers Group","timezone":"America/Chicago"},{"feed":"aafsig.org","slug":"pioneer-club-7","name":"Pioneer Group","day":0,"time":"07:30","end_time":"08:30","types":["D","O"],"state":"AR","postal_code":"72901","city":"Fort Smith","address":"500 N F St","latitude":35.3921016,"longitude":-94.4215923,"location":"Pioneer Club","region":"Fort Smith, AR","url":"https://aafsig.org/meetings/pioneer-club-7/","group":"Pioneer Group","timezone":"America/Chicago"},{"feed":"arkansascentraloffice.org","slug":"pioneer-club-7","name":"Pioneer Group","day":0,"time":"07:30","end_time":"08:30","types":["D","O"],"state":"AR","postal_code":"72901","city":"Fort Smith","address":"500 N F St","latitude":35.3921157,"longitude":-94.4215816,"location":"Pioneer Club","region":"Fort Smith, AR","url":"https://arkansascentraloffice.org/meetings/pioneer-club-7/","group":"Pioneer Group","timezone":"America/Chicago"},{"feed":"arkansascentraloffice.org","slug":"last-house-on-the-block-18","name":"Last House on the Block","day":0,"time":"08:00","end_time":"09:00","types":["O"],"state":"AR","postal_code":"71901","city":"Hot Springs","address":"Hollywood Park, 400-425 Hollywood Ave","latitude":34.4867994,"longitude":-93.0479802,"location":"Last House on the Block","region":"Hot Springs","url":"https://arkansascentraloffice.org/meetings/last-house-on-the-block-18/","group":"Last House on the Block","timezone":"America/Chicago"},{"feed":"arkansascentraloffice.org","slug":"sunday-morning-serenity","name":"Sunday Morning Serenity","day":0,"time":"08:30","end_time":"09:30","types":["B","O"],"state":"AR","postal_code":"72758","city":"Rogers","address":"1200 W Walnut St","latitude":36.3328623,"longitude":-94.1339446,"location":"Center for non-profits","region":"Rogers","notes":"Room 1728","url":"https://arkansascentraloffice.org/meetings/sunday-morning-serenity/","group":"Sunday Morning Serenity","timezone":"America/Chicago"},{"feed":"arkansascentraloffice.org","slug":"11th-step-meeting","name":"11th Step Meeting","day":0,"time":"09:00","types":["O"],"state":"AR","postal_code":"72015","city":"Benton","address":"506 Lillian","latitude":34.568162,"longitude":-92.5826028,"location":"Lillian St.","region":"Benton","notes":"Step Study","url":"https://arkansascentraloffice.org/meetings/11th-step-meeting/","group":"11th Step Meeting","timezone":"America/Chicago"},{"feed":"arkansascentraloffice.org","slug":"cosmopolitan-group-2-2","name":"Cosmopolitan Group","day":0,"time":"09:00","types":["ABSI","C","ONL"],"state":"AR","postal_code":"72207","city":"Little Rock","address":"2323 Durwood Rd","latitude":34.7740113,"longitude":-92.3495676,"location":"Corner of Durwood & Hawthorne","region":"Little Rock","notes":"Password: 72207\nIf you need proof of attendance, send an e-mail to lrcosmopolitangroup@gmail.com.\nInclude the date, time, chairperson's name, meeting topic, and a confirmation of attendance.\nThe response will be e-mailed to you.","conference_url":"https://zoom.us/j/489360288","url":"https://arkansascentraloffice.org/meetings/cosmopolitan-group-2-2/","group":"Cosmopolitan Group","timezone":"America/Chicago"},{"feed":"arkansascentraloffice.org","slug":"happy-hour-group-10","name":"Happy Hour Group","day":0,"time":"09:30","end_time":"10:30","types":["O"],"state":"AR","postal_code":"72703","city":"Fayetteville","address":"568 W Sycamore St","latitude":36.0853989,"longitude":-94.165754,"location":"Alano Club","region":"Fayetteville","url":"https://arkansascentraloffice.org/meetings/happy-hour-group-10/","group":"Happy Hour Group","timezone":"America/Chicago"},{"feed":"arkansascentraloffice.org","slug":"animal-house","name":"Animal House","day":0,"time":"10:00","types":["D","O"],"state":"AR","postal_code":"72032","city":"Conway","address":"420 Willow St","latitude":35.0945377,"longitude":-92.4315454,"location":"Willow Hall","region":"Conway","url":"https://arkansascentraloffice.org/meetings/animal-house/","group":"Animal House","timezone":"America/Chicago"},{"feed":"arkansascentraloffice.org","slug":"ashdown-group","name":"Ashdown Group","day":0,"time":"10:00","end_time":"11:00","types":["O"],"state":"AR","postal_code":"71822","city":"Ashdown","address":"521 S 5th St","latitude":33.6673359,"longitude":-94.1361838,"location":"521 S 5th St, Ashdown, AR 71822, USA","region":"Ashdown","notes":"Gratitude Arrive by 9:00 AM for breakfast","url":"https://arkansascentraloffice.org/meetings/ashdown-group/","timezone":"America/Chicago"},{"feed":"tyler-aa.org","slug":"ashdown-group","name":"Ashdown Group","day":0,"time":"10:00","types":["D","O"],"state":"AR","postal_code":"71822","city":"Ashdown","address":"521 S 5th St","latitude":33.6673359,"longitude":-94.1361838,"location":"521 S 5th St, Ashdown, AR 71822, USA","region":"Ashdown","notes":"Non-Smoking, Arrive at 9:00 am for Breakfast","url":"https://www.tyler-aa.org/meetings/ashdown-group/","timezone":"America/Chicago"},{"feed":"arkansascentraloffice.org","slug":"before-house-group-8","name":"Before House Group","day":0,"time":"10:00","end_time":"11:00","types":["MED","O"],"state":"AR","postal_code":"71603","city":"Pine Bluff","address":"5408 Middle Warren Rd","latitude":34.1732638,"longitude":-92.0467735,"location":"5408 Middle Warren Rd, Pine Bluff, AR 71603, USA","region":"Pine Bluff","notes":"Contact: Benjamin G. 870-717-7361","url":"https://arkansascentraloffice.org/meetings/before-house-group-8/","group":"Before House Group","timezone":"America/Chicago"},{"feed":"arkansascentraloffice.org","slug":"borderline-group","name":"Borderline Group","day":0,"time":"10:00","end_time":"11:30","types":["B","O"],"state":"AR","postal_code":"72761","city":"Siloam Springs","address":"419 S Washington St","latitude":36.182673,"longitude":-94.5370812,"location":"Borderline Group","region":"Siloam Springs","url":"https://arkansascentraloffice.org/meetings/borderline-group/","group":"Borderline Group","timezone":"America/Chicago"},{"feed":"arkansascentraloffice.org","slug":"coffee-pot-group","name":"Coffee Pot Group","day":0,"time":"10:00","end_time":"11:00","types":["D","O"],"state":"AR","postal_code":"72632","city":"Eureka Springs","address":"103 Stadium Rd","latitude":36.3871385,"longitude":-93.7276274,"location":"Coffee Pot Club House","region":"Eureka Springs","url":"https://arkansascentraloffice.org/meetings/coffee-pot-group/","group":"Coffee Pot Group","timezone":"America/Chicago"},{"feed":"aafsig.org","slug":"fin-y-principio-group-7","name":"Fin y Principio Group","day":0,"time":"10:00","end_time":"11:30","types":["D","O","S"],"state":"AR","postal_code":"72904","city":"Fort Smith","address":"1121 N S St","latitude":35.3992923,"longitude":-94.4044294,"location":"1121 N S St","region":"Fort Smith, AR","url":"https://aafsig.org/meetings/fin-y-principio-group-7/","group":"Fin y Principio Group","timezone":"America/Chicago"},{"feed":"arkansascentraloffice.org","slug":"fin-y-principio-group-7","name":"Fin y Principio Group","day":0,"time":"10:00","end_time":"11:30","types":["D","O","S"],"state":"AR","postal_code":"72904","city":"Fort Smith","address":"1121 N S St","latitude":35.3992953,"longitude":-94.4044256,"location":"1121 N S St","region":"Fort Smith, AR","url":"https://arkansascentraloffice.org/meetings/fin-y-principio-group-7/","group":"Fin y Principio Group","timezone":"America/Chicago"},{"feed":"arkansascentraloffice.org","slug":"hour-of-power-2","name":"Hour of Power","day":0,"time":"10:00","types":["O"],"state":"AR","postal_code":"72202","city":"Little Rock","address":"1015 S Louisiana St","latitude":34.7389314,"longitude":-92.2730032,"location":"Wolfe Street Center","region":"Little Rock","notes":"Upstairs main meeting room.\n8:30 AM Fellowship Breakfast October through May; Contact: Robert G. 501-218-6695","url":"https://arkansascentraloffice.org/meetings/hour-of-power-2/","group":"Hour of Power","timezone":"America/Chicago"},{"feed":"arkansascentraloffice.org","slug":"lake-dardanelle-group","name":"Lake Dardanelle Group","day":0,"time":"10:00","types":["D","O"],"state":"AR","postal_code":"72801","city":"Russellville","address":"215 N Denver Ave","latitude":35.280169,"longitude":-93.1361517,"location":"American Legion Hut","region":"Russellville","notes":"Contact: 479-967-3260","url":"https://arkansascentraloffice.org/meetings/lake-dardanelle-group/","group":"Lake Dardanelle Group","timezone":"America/Chicago"},{"feed":"arkansascentraloffice.org","slug":"on-awakening","name":"On Awakening","day":0,"time":"10:00","end_time":"11:00","types":["D","LIT","ONL"],"state":"AR","city":"Fayetteville","latitude":36.0626579,"longitude":-94.1605839,"location":"Fayetteville AR","region":"Fayetteville","notes":"Meeting ID 96323656361\nPW: Awaken1ng","conference_url":"https://zoom.us/j/96323656361?pwd=VW1RY3FnY3VNVjhGSXBTNlJ2VExqZz09","url":"https://arkansascentraloffice.org/meetings/on-awakening/","group":"On Awakening","timezone":"America/Chicago"},{"feed":"arkansascentraloffice.org","slug":"s-o-s","name":"S.O.S.","day":0,"time":"10:00","end_time":"11:00","types":["ABSI","C"],"state":"AR","postal_code":"72653","city":"Mountain Home","address":"915 McClure Ln","latitude":36.3317898,"longitude":-92.3652055,"location":"Twin Lakes Fellowship Center","region":"Mountain Home","notes":"Contact: Dennis 870-421-7039","url":"https://arkansascentraloffice.org/meetings/s-o-s/","group":"Sunday Serenity","timezone":"America/Chicago"},{"feed":"arkansascentraloffice.org","slug":"sos-as-bill-sees-it","name":"SOS As Bill Sees It","day":0,"time":"10:00","end_time":"11:00","types":["C"],"state":"AR","postal_code":"72653","city":"Mountain Home","address":"915 McClure Ln","latitude":36.3317898,"longitude":-92.3652055,"location":"Twin Lakes Fellowship Center","region":"Mountain Home","notes":"Contact: Jessie N. 870-404-8879","url":"https://arkansascentraloffice.org/meetings/sos-as-bill-sees-it/","timezone":"America/Chicago"},{"feed":"arkansascentraloffice.org","slug":"sunday-morning-serenity-3","name":"Sunday Morning Serenity","day":0,"time":"10:00","end_time":"11:00","types":["D","O"],"state":"AR","postal_code":"72758","city":"Rogers","address":"1200 W Walnut St","latitude":36.3328623,"longitude":-94.1339446,"location":"Center for non-profits","region":"Rogers","notes":"Room 1728","url":"https://arkansascentraloffice.org/meetings/sunday-morning-serenity-3/","group":"Sunday Morning Serenity","timezone":"America/Chicago"},{"feed":"arkansascentraloffice.org","slug":"top-of-the-hill","name":"Top of the Hill","day":0,"time":"10:00","end_time":"11:00","types":["O"],"state":"AR","postal_code":"72543","city":"Heber Springs","address":"2319 State Hwy 110 W","latitude":35.4885992,"longitude":-92.0580363,"location":"Judge Claude Dill Center (Use the first driveway with the Sulphur Creek Trail and County Extension Services signs. Drive around to the end of the building.)","region":"Heber Springs","notes":"Contact: Steve: 870-317-0993","url":"https://arkansascentraloffice.org/meetings/top-of-the-hill/","group":"Heber Springs AA Contact: Charlie 870-818-1003","timezone":"America/Chicago"},{"feed":"memphis-aa.org","slug":"west-memphis-group-11","name":"West Memphis Group","day":0,"time":"10:00","types":["C","D"],"state":"AR","postal_code":"72301","city":"West Memphis","address":"1233 Park Dr","latitude":35.1609171,"longitude":-90.1856283,"location":"Behind Flash Market on Missouri","region":"West Memphis","url":"https://www.memphis-aa.org/meetings/west-memphis-group-11","timezone":"America/Chicago"},{"feed":"arkansascentraloffice.org","slug":"west-memphis-group-2","name":"West Memphis Group","day":0,"time":"10:00","types":["C","D"],"state":"AR","postal_code":"72301","city":"West Memphis","address":"1233 Park Dr","latitude":35.1608737,"longitude":-90.1856599,"location":"House behind Shell Station at 1230 Missouri Street","region":"West Memphis","notes":"Contact: Greg M. 870-514-8561 or Mike L. 870-225-1416","url":"https://arkansascentraloffice.org/meetings/west-memphis-group-2/","group":"West Memphis Group","timezone":"America/Chicago"},{"feed":"arkansascentraloffice.org","slug":"camden-group","name":"Camden Group","day":0,"time":"10:30","end_time":"11:30","types":["O"],"state":"AR","postal_code":"71701","city":"Camden","address":"805 Monroe Ave","latitude":33.5963486,"longitude":-92.8313982,"location":"805 Monroe Ave, Camden, AR 71701, USA","region":"Camden","url":"https://arkansascentraloffice.org/meetings/camden-group/","group":"Camden Group","timezone":"America/Chicago"},{"feed":"arkansascentraloffice.org","slug":"hot-springs-a-a-group-18","name":"Hot Springs A.A. Group","day":0,"time":"11:00","types":["O"],"state":"AR","postal_code":"71901","city":"Hot Springs","address":"411 Sellers St","latitude":34.4812243,"longitude":-93.0522795,"location":"411 Sellers","region":"Hot Springs","notes":"Speaker Meeting","url":"https://arkansascentraloffice.org/meetings/hot-springs-a-a-group-18/","group":"Hot Springs A.A. Group","timezone":"America/Chicago"},{"feed":"aafsig.org","slug":"the-leftovers-4","name":"The Leftovers","day":0,"time":"11:00","end_time":"12:00","types":["BE","O","ONL"],"state":"AR","postal_code":"72908","city":"Fort Smith","address":"2700 Cavanaugh Rd","latitude":35.311146,"longitude":-94.4063909,"location":"Fort Smith Senior Activity Center","region":"Fort Smith, AR","notes":"Zoom: Meeting ID: 886 2067 4037 Passcode: 842730","conference_url":"https://us06web.zoom.us/j/88620674037?pwd=ef3bTL8LfWH2jePoTGVGF6UGMN3Ywe.1","url":"https://aafsig.org/meetings/the-leftovers-4/","group":"The Leftovers","timezone":"America/Chicago"},{"feed":"arkansascentraloffice.org","slug":"the-leftovers-4","name":"The Leftovers","day":0,"time":"11:00","end_time":"12:00","types":["BE","O","ONL"],"state":"AR","postal_code":"72908","city":"Fort Smith","address":"2700 Cavanaugh Rd","latitude":35.311146,"longitude":-94.4063909,"location":"Fort Smith Senior Activity Center","region":"Fort Smith, AR","notes":"Zoom: Meeting ID: 886 2067 4037 Passcode: 842730","conference_url":"https://us06web.zoom.us/j/88620674037?pwd=ef3bTL8LfWH2jePoTGVGF6UGMN3Ywe.1","url":"https://arkansascentraloffice.org/meetings/the-leftovers-4/","group":"The Leftovers","timezone":"America/Chicago"},{"feed":"arkansascentraloffice.org","slug":"brownbagger-group-6","name":"Brown Baggers Group","day":0,"time":"12:00","end_time":"13:00","types":["D","O"],"state":"AR","postal_code":"72703","city":"Fayetteville","address":"568 W Sycamore St","latitude":36.0853989,"longitude":-94.165754,"location":"Alano Club","region":"Fayetteville","url":"https://arkansascentraloffice.org/meetings/brownbagger-group-6/","group":"Brown Baggers Group","timezone":"America/Chicago"},{"feed":"arkansascentraloffice.org","slug":"f-street-group-2","name":"F Street Group","day":0,"time":"12:00","end_time":"13:00","types":["LIT","O"],"state":"AR","postal_code":"72116","city":"North Little Rock","address":"123 E F Ave","latitude":34.7882092,"longitude":-92.2594813,"location":"Across from Park Hill Presbyterian Church","region":"North Little Rock","notes":"Rotating \"drop the rock\" and \"drop the rock : ripple effect\".","url":"https://arkansascentraloffice.org/meetings/f-street-group-2/","group":"F Street Group","timezone":"America/Chicago"},{"feed":"arkansascentraloffice.org","slug":"harrison-group-2","name":"Harrison Group","day":0,"time":"12:00","end_time":"13:00","types":["O"],"state":"AR","postal_code":"72601","city":"Harrison","address":"206 S Cherry St","latitude":36.2282552,"longitude":-93.112663,"location":"Harrison Group","region":"Harrison","url":"https://arkansascentraloffice.org/meetings/harrison-group-2/","group":"Harrison Group","timezone":"America/Chicago"},{"feed":"arkansascentraloffice.org","slug":"high-nooners","name":"High Nooners","day":0,"time":"12:00","end_time":"13:00","types":["BE","O"],"state":"AR","postal_code":"72764","city":"Springdale","address":"708 Quandt Ave","latitude":36.1791311,"longitude":-94.1370701,"location":"High Nooners","region":"Springdale","url":"https://arkansascentraloffice.org/meetings/high-nooners/","group":"High Nooners","timezone":"America/Chicago"},{"feed":"arkansascentraloffice.org","slug":"open-door-group","name":"El Dorado Open Door Group","day":0,"time":"12:00","types":["D","O"],"state":"AR","postal_code":"71730","city":"El Dorado","address":"801 E 6th St","latitude":33.2227155,"longitude":-92.6555751,"location":"801 East 6th Street","region":"El Dorado","url":"https://arkansascentraloffice.org/meetings/open-door-group/","group":"El Dorado Open Door Group","timezone":"America/Chicago"},{"feed":"aafsig.org","slug":"pioneer-club-14","name":"Pioneer Group","day":0,"time":"12:00","end_time":"13:00","types":["D","O"],"state":"AR","postal_code":"72901","city":"Fort Smith","address":"500 N F St","latitude":35.3921016,"longitude":-94.4215923,"location":"Pioneer Club","region":"Fort Smith, AR","url":"https://aafsig.org/meetings/pioneer-club-14/","group":"Pioneer Group","timezone":"America/Chicago"},{"feed":"arkansascentraloffice.org","slug":"pioneer-club-14","name":"Pioneer Group","day":0,"time":"12:00","end_time":"13:00","types":["D","O"],"state":"AR","postal_code":"72901","city":"Fort Smith","address":"500 N F St","latitude":35.3921157,"longitude":-94.4215816,"location":"Pioneer Club","region":"Fort Smith, AR","url":"https://arkansascentraloffice.org/meetings/pioneer-club-14/","group":"Pioneer Group","timezone":"America/Chicago"},{"feed":"arkansascentraloffice.org","slug":"jacksonville-aa","name":"Jacksonville AA","day":0,"time":"12:30","types":["C"],"state":"AR","postal_code":"72076","city":"Jacksonville","address":"119 N Spring St","latitude":34.8659865,"longitude":-92.1094542,"location":"AA Group Building","region":"Jacksonville","notes":"Contact: Charles C. 501-560-2724; 4th Sunday Open Speaker","url":"https://arkansascentraloffice.org/meetings/jacksonville-aa/","group":"Jacksonville AA","timezone":"America/Chicago"},{"feed":"arkansascentraloffice.org","slug":"allsopp-park-group-8","name":"Pavilion of Recovery Group","day":0,"time":"13:00","types":["11","O"],"state":"AR","postal_code":"72202","city":"Little Rock","address":"1015 S Louisiana St","latitude":34.7389314,"longitude":-92.2730032,"location":"Wolfe Street Center","region":"Little Rock","notes":"Room 3;\nBirthday Night: first Friday of every month at 5:30 PM;\nBusiness Meeting: 3rd Sunday of every month at 2:15 PM;\nContact: Chynna S. 501 650 1585","url":"https://arkansascentraloffice.org/meetings/allsopp-park-group-8/","group":"Pavilion of Recovery Group","timezone":"America/Chicago"},{"feed":"arkansascentraloffice.org","slug":"fe-y-esperanza","name":"FE Y ESPERANZA","day":0,"time":"13:00","end_time":"14:30","types":["S"],"state":"AR","postal_code":"72764","city":"Springdale","address":"902c Ash St","latitude":36.1779953,"longitude":-94.1399924,"location":"FE Y ESPERANZA","region":"NWA Spanish Speaking GRPS","url":"https://arkansascentraloffice.org/meetings/fe-y-esperanza/","group":"FE Y ESPERANZA","timezone":"America/Chicago"},{"feed":"arkansascentraloffice.org","slug":"lamplighters-group-3","name":"Lamplighters Group","day":0,"time":"13:00","end_time":"14:00","types":["D","O"],"state":"AR","postal_code":"72015","city":"Benton","address":"506 Lillian","latitude":34.568162,"longitude":-92.5826028,"location":"Lillian St.","region":"Benton","url":"https://arkansascentraloffice.org/meetings/lamplighters-group-3/","group":"Lamplighters Group","timezone":"America/Chicago"},{"feed":"arkansascentraloffice.org","slug":"rogers-group-2","name":"Rogers Group","day":0,"time":"13:00","end_time":"14:00","types":["D","O"],"state":"AR","postal_code":"72756","city":"Rogers","address":"218 W Cherry St","latitude":36.3298735,"longitude":-94.1188764,"location":"Rogers Group","region":"Rogers","url":"https://arkansascentraloffice.org/meetings/rogers-group-2/","group":"Rogers Group","timezone":"America/Chicago"},{"feed":"arkansascentraloffice.org","slug":"women-at-f-street","name":"Women at F Street","day":0,"time":"13:30","types":["TC","O"],"state":"AR","postal_code":"72116","city":"North Little Rock","address":"123 E F Ave","latitude":34.7882092,"longitude":-92.2594813,"location":"Across from Park Hill Presbyterian Church","region":"North Little Rock","notes":"Contact: 501-416-5686","url":"https://arkansascentraloffice.org/meetings/women-at-f-street/","group":"Women at F Street","timezone":"America/Chicago"},{"feed":"arkansascentraloffice.org","slug":"before-house-group-11","name":"Before House Group","day":0,"time":"14:00","end_time":"15:00","types":["D","O","W"],"state":"AR","postal_code":"71603","city":"Pine Bluff","address":"5408 Middle Warren Rd","latitude":34.1732638,"longitude":-92.0467735,"location":"5408 Middle Warren Rd, Pine Bluff, AR 71603, USA","region":"Pine Bluff","notes":"Contact: Benjamin G. 870-717-7361","url":"https://arkansascentraloffice.org/meetings/before-house-group-11/","group":"Before House Group","timezone":"America/Chicago"},{"feed":"arkansascentraloffice.org","slug":"jonesboro-group","name":"Jonesboro Group","day":0,"time":"14:00","types":["C"],"state":"AR","postal_code":"72401","city":"Jonesboro","address":"2901 W Washington Ave","latitude":35.8378017,"longitude":-90.7475815,"location":"The Shed","region":"Jonesboro","notes":"Contact: 870-316-1284; 870-926-2993","url":"https://arkansascentraloffice.org/meetings/jonesboro-group/","group":"Jonesboro Group","timezone":"America/Chicago"},{"feed":"aafsig.org","slug":"going-to-any-lengths","name":"Going to Any Lengths","day":0,"time":"15:00","end_time":"16:00","types":["D","O"],"state":"AR","postal_code":"71953","city":"Mena","address":"106 Mena St","latitude":34.5888457,"longitude":-94.2390229,"location":"Crossings Church","region":"Mena, AR","url":"https://aafsig.org/meetings/going-to-any-lengths/","group":"Going To Any Lengths","timezone":"America/Chicago"},{"feed":"arkansascentraloffice.org","slug":"going-to-any-lengths","name":"Going to Any Lengths","day":0,"time":"15:00","end_time":"16:00","types":["D","O"],"state":"AR","postal_code":"71953","city":"Mena","address":"106 Mena St","latitude":34.588893,"longitude":-94.2389027,"location":"Crossings Church","region":"Mena, AR","url":"https://arkansascentraloffice.org/meetings/going-to-any-lengths/","group":"Going To Any Lengths","timezone":"America/Chicago"},{"feed":"arkansascentraloffice.org","slug":"grupo-aqui-me-quedo-3","name":"GRUPO AQU\u00cd ME QUEDO","day":0,"time":"16:00","end_time":"17:00","types":["O","S"],"state":"AR","postal_code":"72801","city":"Russellville","address":"1019 S Arkansas Ave","latitude":35.2687948,"longitude":-93.1339029,"region":"Russellville","notes":"Contact: 479-477-2719 or 479-280-8734","url":"https://arkansascentraloffice.org/meetings/grupo-aqui-me-quedo-3/","timezone":"America/Chicago"},{"feed":"arkansascentraloffice.org","slug":"sunday-serenity","name":"Sunday Serenity","day":0,"time":"16:00","types":["D","O"],"state":"AR","postal_code":"72653","city":"Mountain Home","address":"915 McClure Ln","latitude":36.3317898,"longitude":-92.3652055,"location":"Twin Lakes Fellowship Center","region":"Mountain Home","notes":"Contact: Fred 417-712-3204","url":"https://arkansascentraloffice.org/meetings/sunday-serenity/","group":"Sunday Serenity","timezone":"America/Chicago"},{"feed":"arkansascentraloffice.org","slug":"harrison-group-birthday-potluck-last-sunday-only","name":"Harrison Group Birthday Potluck (last Sunday only)","day":0,"time":"17:00","end_time":"19:00","types":["H"],"state":"AR","postal_code":"72601","city":"Harrison","address":"206 S Cherry St","latitude":36.2282552,"longitude":-93.112663,"location":"Harrison Group","region":"Harrison","notes":"Last Sunday of the month is Potluck Birthday meeting starting @ 5 PM, Speakers start at 6","url":"https://arkansascentraloffice.org/meetings/harrison-group-birthday-potluck-last-sunday-only/","group":"Harrison Group","timezone":"America/Chicago"},{"feed":"arkansascentraloffice.org","slug":"pocahontas-group","name":"Pocahontas Group","day":0,"time":"17:00","types":["O"],"state":"AR","postal_code":"72455","city":"Pocahontas","address":"1004 Prince St","latitude":36.2479834,"longitude":-90.9602354,"location":"Randolph Masonic Lodge #71 - Behind ICE Company on Hwy 67","region":"Pocahontas","notes":"Contact: 870-758-0334 or 870-647-1007 or 870-378-0633","url":"https://arkansascentraloffice.org/meetings/pocahontas-group/","group":"Pocahontas Group","timezone":"America/Chicago"},{"feed":"arkansascentraloffice.org","slug":"we-are-not-saints-11","name":"We Are Not Saints","day":0,"time":"17:00","end_time":"18:00","types":["D","O"],"state":"AR","postal_code":"72715","city":"Bella Vista","address":"1 St Bernard Ln","latitude":36.4558506,"longitude":-94.2936855,"location":"St Bernard's Church","region":"Bella Vista","url":"https://arkansascentraloffice.org/meetings/we-are-not-saints-11/","group":"We Are Not Saints","timezone":"America/Chicago"},{"feed":"arkansascentraloffice.org","slug":"yana-2","name":"YANA","day":0,"time":"17:00","end_time":"18:00","types":["C"],"state":"AR","postal_code":"72560","city":"Mountain View","address":"116 E Jefferson St","latitude":35.8669202,"longitude":-92.1169685,"location":"First United Methodist Church","region":"Mountain View","notes":"Contact: Lewis 601-951-5897","url":"https://arkansascentraloffice.org/meetings/yana-2/","group":"YANA","timezone":"America/Chicago"},{"feed":"arkansascentraloffice.org","slug":"coffee-pot-group-2","name":"Coffee Pot Group","day":0,"time":"17:30","end_time":"18:30","types":["BE","O"],"state":"AR","postal_code":"72632","city":"Eureka Springs","address":"103 Stadium Rd","latitude":36.3871385,"longitude":-93.7276274,"location":"Coffee Pot Club House","region":"Eureka Springs","url":"https://arkansascentraloffice.org/meetings/coffee-pot-group-2/","group":"Coffee Pot Group","timezone":"America/Chicago"},{"feed":"arkansascentraloffice.org","slug":"cosmopolitan-group-2-8","name":"Cosmopolitan Group","day":0,"time":"17:30","end_time":"18:30","types":["C"],"state":"AR","postal_code":"72207","city":"Little Rock","address":"2323 Durwood Rd","latitude":34.7740113,"longitude":-92.3495676,"location":"Corner of Durwood & Hawthorne","region":"Little Rock","notes":"Contact: 501-663-9979","url":"https://arkansascentraloffice.org/meetings/cosmopolitan-group-2-8/","group":"Cosmopolitan Group","timezone":"America/Chicago"},{"feed":"arkansascentraloffice.org","slug":"first-recovery","name":"First Recovery","day":0,"time":"17:30","types":["TC","O"],"state":"AR","postal_code":"71601","city":"Pine Bluff","address":"1210 S Cherry St","latitude":34.2173178,"longitude":-92.0138135,"location":"1210 South Cherry Street","region":"Pine Bluff","notes":"Contact: Sam B. 870-872-0267","url":"https://arkansascentraloffice.org/meetings/first-recovery/","group":"First Recovery","timezone":"America/Chicago"},{"feed":"arkansascentraloffice.org","slug":"lake-village-group","name":"Lake Village Group","day":0,"time":"17:30","types":["C","D"],"state":"AR","postal_code":"71653","city":"Lake Village","address":"521 N Lakeshore Dr","latitude":33.3351593,"longitude":-91.2807156,"location":"Emmanuel Episcopal Church","region":"Lake Village","notes":"Contact: Christie O. 870-737-3135","url":"https://arkansascentraloffice.org/meetings/lake-village-group/","group":"Lake Village Group","timezone":"America/Chicago"},{"feed":"arkansascentraloffice.org","slug":"pig-pen","name":"Pig Pen","day":0,"time":"17:30","types":["B","O","ONL"],"state":"AR","postal_code":"72202","city":"Little Rock","address":"1015 S Louisiana St","latitude":34.7389314,"longitude":-92.2730032,"location":"Wolfe Street Center","region":"Little Rock","notes":"Downstairs main meeting room.\nContact: Marck B. 501-912-4882","conference_url":"https://zoom.us/j/83904390765","url":"https://arkansascentraloffice.org/meetings/pig-pen/","group":"Pig Pen","timezone":"America/Chicago"},{"feed":"arkansascentraloffice.org","slug":"rogers-group-34","name":"Rogers Group","day":0,"time":"17:30","end_time":"18:30","types":["B","LIT","O"],"state":"AR","postal_code":"72756","city":"Rogers","address":"218 W Cherry St","latitude":36.3298735,"longitude":-94.1188764,"location":"Rogers Group","region":"Rogers","url":"https://arkansascentraloffice.org/meetings/rogers-group-34/","group":"Rogers Group","timezone":"America/Chicago"},{"feed":"arkansascentraloffice.org","slug":"the-young-and-the-restless","name":"The Young and The Restless","day":0,"time":"17:30","end_time":"18:30","types":["D","O"],"state":"AR","postal_code":"72703","city":"Fayetteville","address":"568 W Sycamore St","latitude":36.0853989,"longitude":-94.165754,"location":"Alano Club","region":"Fayetteville","notes":"First Sunday \u2014 Candlelight Meeting\nLast Sunday \u2014 Speaker Meeting","url":"https://arkansascentraloffice.org/meetings/the-young-and-the-restless/","group":"The Young and The Restless","timezone":"America/Chicago"},{"feed":"arkansascentraloffice.org","slug":"greenbrier-happy-hour-6","name":"Greenbrier Happy Hour","day":0,"time":"17:45","end_time":"18:45","types":["D","O"],"state":"AR","postal_code":"72058","city":"Greenbrier","address":"675 US-65","latitude":35.1892644,"longitude":-92.3928756,"location":"The Club at Springhill","region":"Greenbrier","notes":"Contact: 501-295-4982","url":"https://arkansascentraloffice.org/meetings/greenbrier-happy-hour-6/","group":"Greenbrier Happy Hour","timezone":"America/Chicago"},{"feed":"arkansascentraloffice.org","slug":"cosmopolitan-group-too","name":"Cosmopolitan Group Too","day":0,"time":"18:00","end_time":"19:00","types":["D","LGBTQ","O","ONL","TC"],"state":"AR","postal_code":"72207","city":"Little Rock","address":"2323 Durwood Rd","latitude":34.7740113,"longitude":-92.3495676,"location":"Corner of Durwood & Hawthorne","region":"Little Rock","conference_url":"https://zoom.us/j/83675974706","url":"https://arkansascentraloffice.org/meetings/cosmopolitan-group-too/","group":"Cosmopolitan Group Too","timezone":"America/Chicago"},{"feed":"arkansascentraloffice.org","slug":"hi-lifers-group-17","name":"Hi Lifer's Group","day":0,"time":"18:00","end_time":"19:00","types":["B","D","O"],"state":"AR","postal_code":"72764","city":"Springdale","address":"402 S Thompson St","latitude":36.182488,"longitude":-94.1399412,"location":"Hi Lifers Group","region":"Springdale","notes":"Steps 3 & 11 Meeting","url":"https://arkansascentraloffice.org/meetings/hi-lifers-group-17/","group":"Hi Lifer's Group","timezone":"America/Chicago"},{"feed":"arkansascentraloffice.org","slug":"last-chance","name":"Last Chance","day":0,"time":"18:00","end_time":"19:00","types":["D","O"],"state":"AR","postal_code":"72834","city":"Dardanelle","address":"402 S 5th St","latitude":35.215242,"longitude":-93.157613,"location":"Dardanelle Housing Authority","region":"Dardanelle","notes":"Contact: Ramona Scott","url":"https://arkansascentraloffice.org/meetings/last-chance/","group":"Last Chance","timezone":"America/Chicago"},{"feed":"arkansascentraloffice.org","slug":"new-beginnings-2","name":"New Beginnings","day":0,"time":"18:00","end_time":"19:00","types":["D","O"],"state":"AR","postal_code":"71957","city":"Mt Ida","address":"243 Whittington St","latitude":34.5561615,"longitude":-93.6355035,"location":"First United Methodist Church","region":"Mt. Ida","url":"https://arkansascentraloffice.org/meetings/new-beginnings-2/","timezone":"America/Chicago"},{"feed":"arkansascentraloffice.org","slug":"pinnacle-mountain-group","name":"Pinnacle Mountain Group","day":0,"time":"18:00","end_time":"19:00","types":["C","LIT"],"state":"AR","postal_code":"72223","city":"Little Rock","address":"20100 Cantrell Rd","latitude":34.8135444,"longitude":-92.4963573,"location":"Pinnacle View United Methodist Church.","region":"Little Rock","notes":"Contact: 501-920-1255\nAs per 1/1/2021 Sandy S. 501-993-2154\nPark around back and enter the door down the side walk by the chain link fence playground. Go down the hall then to your left, then right. Room 3","url":"https://arkansascentraloffice.org/meetings/pinnacle-mountain-group/","group":"Pinnacle Mountain Group","timezone":"America/Chicago"},{"feed":"aafsig.org","slug":"pioneer-club-21","name":"Pioneer Group","day":0,"time":"18:00","end_time":"19:00","types":["D","O"],"state":"AR","postal_code":"72901","city":"Fort Smith","address":"500 N F St","latitude":35.3921016,"longitude":-94.4215923,"location":"Pioneer Club","region":"Fort Smith, AR","url":"https://aafsig.org/meetings/pioneer-club-21/","group":"Pioneer Group","timezone":"America/Chicago"},{"feed":"arkansascentraloffice.org","slug":"pioneer-club-21","name":"Pioneer Group","day":0,"time":"18:00","end_time":"19:00","types":["D","O"],"state":"AR","postal_code":"72901","city":"Fort Smith","address":"500 N F St","latitude":35.3921157,"longitude":-94.4215816,"location":"Pioneer Club","region":"Fort Smith, AR","url":"https://arkansascentraloffice.org/meetings/pioneer-club-21/","group":"Pioneer Group","timezone":"America/Chicago"},{"feed":"arkansascentraloffice.org","slug":"sisters-of-sobriety-sos","name":"Sisters of Sobriety (SOS)","day":0,"time":"18:00","types":["C","W"],"state":"AR","postal_code":"72023","city":"Cabot","address":"2003 S Pine St","latitude":34.9440403,"longitude":-92.00545,"location":"Cabot United Methodist Church, Wesleyan Center","region":"Cabot","url":"https://arkansascentraloffice.org/meetings/sisters-of-sobriety-sos/","group":"Sisters of Sobriety (SOS)","timezone":"America/Chicago"},{"feed":"arkansascentraloffice.org","slug":"turning-point","name":"Turning Point","day":0,"time":"18:00","end_time":"19:00","types":["LIT","O"],"state":"AR","postal_code":"72730","city":"Farmington","address":"9 S Cherry St","latitude":36.0424963,"longitude":-94.2448311,"location":"Church of Nazarene","region":"Farmington","url":"https://arkansascentraloffice.org/meetings/turning-point/","group":"Turning Point","timezone":"America/Chicago"},{"feed":"arkansascentraloffice.org","slug":"f-street-group-18","name":"F Street Group","day":0,"time":"18:30","end_time":"19:30","types":["C"],"state":"AR","postal_code":"72116","city":"North Little Rock","address":"123 E F Ave","latitude":34.7882092,"longitude":-92.2594813,"location":"Across from Park Hill Presbyterian Church","region":"North Little Rock","notes":"Contact: 501-231-1982","url":"https://arkansascentraloffice.org/meetings/f-street-group-18/","group":"F Street Group","timezone":"America/Chicago"},{"feed":"arkansascentraloffice.org","slug":"hot-springs-a-a-group-7","name":"Hot Springs A.A. Group","day":0,"time":"18:30","types":["C"],"state":"AR","postal_code":"71901","city":"Hot Springs","address":"411 Sellers St","latitude":34.4812243,"longitude":-93.0522795,"location":"411 Sellers","region":"Hot Springs","notes":"Step Study","url":"https://arkansascentraloffice.org/meetings/hot-springs-a-a-group-7/","group":"Hot Springs A.A. Group","timezone":"America/Chicago"},{"feed":"arkansascentraloffice.org","slug":"12-12-en-accion","name":"12-12 en accion","day":0,"time":"19:00","end_time":"21:00","types":["O","S"],"state":"AR","postal_code":"72209","city":"Little Rock","address":"6602 Baseline Rd","latitude":34.670048,"longitude":-92.3511937,"location":"6602 Baseline Rd.","region":"Little Rock","notes":"Suite D","url":"https://arkansascentraloffice.org/meetings/12-12-en-accion/","group":"12-12 en accion","timezone":"America/Chicago"},{"feed":"arkansascentraloffice.org","slug":"120-1-2-group","name":"120 1/2 Group","day":0,"time":"19:00","types":["BE","O","ST","ST123","ONL"],"state":"AR","postal_code":"72202","city":"Little Rock","address":"1015 S Louisiana St","latitude":34.7389314,"longitude":-92.2730032,"location":"Wolfe Street Center","region":"Little Rock","conference_url":"https://zoom.us/j/81141801030","url":"https://arkansascentraloffice.org/meetings/120-1-2-group/","group":"120 1/2 Group","timezone":"America/Chicago"},{"feed":"arkansascentraloffice.org","slug":"16-de-julio-renovacion","name":"16 de Julio Renovacion","day":0,"time":"19:00","types":["O","S"],"state":"AR","postal_code":"72118","city":"North Little Rock","address":"4720 Camp Robinson Rd","latitude":34.7988687,"longitude":-92.2682966,"location":"Suite C","region":"North Little Rock","notes":"Contact: 501-838-4322","url":"https://arkansascentraloffice.org/meetings/16-de-julio-renovacion/","group":"16 de Julio Renovacion","timezone":"America/Chicago"},{"feed":"arkansascentraloffice.org","slug":"24-hour-group","name":"24 Hour Group","day":0,"time":"19:00","end_time":"20:00","types":["O"],"state":"AR","postal_code":"72701","city":"Fayetteville","address":"740 N Lollar Ave #3427","latitude":36.0731792,"longitude":-94.1586747,"location":"Law Office","region":"Fayetteville","notes":"Speaker meeting Last Saturday of the month","url":"https://arkansascentraloffice.org/meetings/24-hour-group/","group":"24 Hour Group","timezone":"America/Chicago"},{"feed":"arkansascentraloffice.org","slug":"dual-state","name":"Dual State","day":0,"time":"19:00","types":["D","O"],"state":"AR","postal_code":"71749","city":"Junction City","address":"112 W 1st St","latitude":33.0168312,"longitude":-92.7259071,"location":"First Methodist Church","region":"Junction City","notes":"Contact: Richard D. 870-814-5214","url":"https://arkansascentraloffice.org/meetings/dual-state/","group":"Dual State","timezone":"America/Chicago"},{"feed":"arkansascentraloffice.org","slug":"eastgate-group-2","name":"East Gate Group","day":0,"time":"19:00","types":["LIT","O"],"state":"AR","postal_code":"71909","city":"Hot Springs Village","address":"295 Balearic Rd","latitude":34.6540498,"longitude":-92.9832591,"location":"SACRED HEART OF JESUS CATHOLIC CHURCH","region":"Hot Springs Village","notes":"Literature Study\n\nTo visit the meeting by Zoom please call (337) 794-4488 and leave a message asking to receive a call back for the Eastgate Meeting Zoom login code.\n\nThe last Sunday of the month is a Speaker/Birthday meeting.","url":"https://arkansascentraloffice.org/meetings/eastgate-group-2/","group":"East Gate Group","timezone":"America/Chicago"},{"feed":"arkansascentraloffice.org","slug":"foxhall-south","name":"Foxhall South","day":0,"time":"19:00","types":["B","C"],"state":"AR","postal_code":"72120","city":"Sherwood","address":"9921 AR-107","latitude":34.8456799,"longitude":-92.2323733,"location":"Sylvan Hills First United Methodist Church","region":"Sherwood","notes":"Contact: 501-413-7218","url":"https://arkansascentraloffice.org/meetings/foxhall-south/","group":"Foxhall South","timezone":"America/Chicago"},{"feed":"arkansascentraloffice.org","slug":"grant-county-group-2","name":"Grant County Group","day":0,"time":"19:00","end_time":"20:00","types":["12x12","O"],"state":"AR","postal_code":"72150","city":"Sheridan","address":"204 N Red St","latitude":34.3080311,"longitude":-92.4089121,"location":"Grant County Group","region":"Sheridan","url":"https://arkansascentraloffice.org/meetings/grant-county-group-2/","group":"Grant County Group","timezone":"America/Chicago"},{"feed":"arkansascentraloffice.org","slug":"green-house-group-2","name":"Green House Group","day":0,"time":"19:00","types":["D","O"],"state":"AR","postal_code":"71743","city":"Gurdon","address":"201 E Walnut St","latitude":33.9200913,"longitude":-93.150713,"location":"201 E. Walnut St., Gurdon, AR 71743, USA","region":"Gurdon","url":"https://arkansascentraloffice.org/meetings/green-house-group-2/","group":"Green House Group","timezone":"America/Chicago"},{"feed":"arkansascentraloffice.org","slug":"grupo-nueva-amistad","name":"Grupo Nueva Amistad","day":0,"time":"19:00","end_time":"21:00","types":["O","S"],"state":"AR","postal_code":"72209","city":"Little Rock","address":"6602 Baseline Rd","latitude":34.670048,"longitude":-92.3511937,"location":"6602 Baseline Rd.","region":"Little Rock","notes":"Suite A","url":"https://arkansascentraloffice.org/meetings/grupo-nueva-amistad/","timezone":"America/Chicago"},{"feed":"arkansascentraloffice.org","slug":"jacksonville-aa-2","name":"Jacksonville AA","day":0,"time":"19:00","types":["C"],"state":"AR","postal_code":"72076","city":"Jacksonville","address":"119 N Spring St","latitude":34.8659865,"longitude":-92.1094542,"location":"AA Group Building","region":"Jacksonville","notes":"Contact: Charles C. 501-560-2724; The fourth Sunday is the Tom Anderson Round Robin Speaker Meeting","url":"https://arkansascentraloffice.org/meetings/jacksonville-aa-2/","group":"Jacksonville AA","timezone":"America/Chicago"},{"feed":"arkansascentraloffice.org","slug":"jonesboro-group-2","name":"Jonesboro Group","day":0,"time":"19:00","end_time":"20:00","types":["O"],"state":"AR","postal_code":"72401","city":"Jonesboro","address":"2901 W Washington Ave","latitude":35.8378017,"longitude":-90.7475815,"location":"The Shed","region":"Jonesboro","notes":"Contact: 870-316-1284; 870-926-2993; Pizza","url":"https://arkansascentraloffice.org/meetings/jonesboro-group-2/","group":"Jonesboro Group","timezone":"America/Chicago"},{"feed":"arkansascentraloffice.org","slug":"magnolia-group-2","name":"Magnolia Group","day":0,"time":"19:00","end_time":"20:00","types":["D","O"],"state":"AR","postal_code":"71753","city":"Magnolia","address":"914 Vine Ave","latitude":33.2749713,"longitude":-93.2432192,"location":"914 Vine Avenue","region":"Magnolia","url":"https://arkansascentraloffice.org/meetings/magnolia-group-2/","group":"Magnolia Group","timezone":"America/Chicago"},{"feed":"arkansascentraloffice.org","slug":"meeting-in-the-middle","name":"Meeting in the Middle","day":0,"time":"19:00","types":["B","O"],"state":"AR","postal_code":"72210","city":"Little Rock","address":"13000 W Baseline Rd","latitude":34.672482,"longitude":-92.421759,"location":"Henderson United Methodist Church","region":"Little Rock","notes":"Contact: Tim C. 501-251-5079\nLast Sunday of the Month Open Speaker","url":"https://arkansascentraloffice.org/meetings/meeting-in-the-middle/","group":"Meeting in the Middle","timezone":"America/Chicago"},{"feed":"arkansascentraloffice.org","slug":"new-hope-group","name":"New Hope Group","day":0,"time":"19:00","end_time":"20:00","types":["C"],"state":"AR","postal_code":"72543","city":"Heber Springs","address":"2319 State Hwy 110 W","latitude":35.4885992,"longitude":-92.0580363,"location":"Judge Claude Dill Center (Use the first driveway with the Sulphur Creek Trail and County Extension Services signs. Drive around to the end of the building.)","region":"Heber Springs","notes":"Contact: Steve 870-317-0993\nMeeting attendees may proceed into restricted area to access the Freedom Center.","url":"https://arkansascentraloffice.org/meetings/new-hope-group/","group":"New Hope Group","timezone":"America/Chicago"},{"feed":"arkansascentraloffice.org","slug":"nuevo-amanecer","name":"NUEVO AMANECER","day":0,"time":"19:00","end_time":"20:30","types":["S"],"state":"AR","postal_code":"72756","city":"Rogers","address":"1803 S 8th St #7","latitude":36.3143528,"longitude":-94.1253949,"location":"NUEVO AMANECER","region":"NWA Spanish Speaking GRPS","url":"https://arkansascentraloffice.org/meetings/nuevo-amanecer/","group":"NUEVO AMANECER","timezone":"America/Chicago"},{"feed":"memphis-aa.org","slug":"progress-3","name":"Progress","day":0,"time":"19:00","end_time":"20:00","types":["C","D"],"state":"AR","postal_code":"72301","city":"West Memphis","address":"215 N Missouri St","latitude":35.1488353,"longitude":-90.1840901,"location":"First Methodist Church","region":"West Memphis","notes":"Last Sunday Bday","url":"https://www.memphis-aa.org/meetings/progress-3","timezone":"America/Chicago"},{"feed":"arkansascentraloffice.org","slug":"progress-group","name":"Progress Group","day":0,"time":"19:00","end_time":"20:00","types":["C"],"state":"AR","postal_code":"72301","city":"West Memphis","address":"215 N Missouri St","latitude":35.1486536,"longitude":-90.1842557,"location":"First United Methodist Church (upstairs)","region":"West Memphis","notes":"Contact: 870-636-1965","url":"https://arkansascentraloffice.org/meetings/progress-group/","group":"Progress Group","timezone":"America/Chicago"},{"feed":"arkansascentraloffice.org","slug":"recuperando-uno-nueva-vida","name":"Recuperando Uno Nueva Vida","day":0,"time":"19:00","types":["C","TC","S"],"state":"AR","postal_code":"71601","city":"Pine Bluff","address":"1501 S Olive St","latitude":34.2142408,"longitude":-92.0068327,"location":"1501 South Olive Street","region":"Pine Bluff","notes":"Contact: 870-872-2767","url":"https://arkansascentraloffice.org/meetings/recuperando-uno-nueva-vida/","group":"Recuperando Uno Nueva Vida","timezone":"America/Chicago"},{"feed":"arkansascentraloffice.org","slug":"redfield-group","name":"Redfield Group","day":0,"time":"19:00","end_time":"20:00","types":["12x12","O","ONL"],"state":"AR","city":"Redfield","latitude":34.4442398,"longitude":-92.1852387,"location":"Redfield, AR","region":"Redfield","notes":"Contact for more information: Clyde O. 501-602-8491","conference_url":"https://zoom.us/j/4762425874","url":"https://arkansascentraloffice.org/meetings/redfield-group/","group":"Redfield Group","timezone":"America/Chicago"},{"feed":"arkansascentraloffice.org","slug":"searcy-group-7","name":"Searcy Group","day":0,"time":"19:00","end_time":"20:00","types":["C"],"state":"AR","postal_code":"72082","city":"Kensett","address":"307 Wilbur D Mills Ave","latitude":35.2349355,"longitude":-91.6697167,"location":"Triangle Club","region":"Kensett/Searcy","notes":"Contact: 501-388-1824; Alternate: 303-881-1629","url":"https://arkansascentraloffice.org/meetings/searcy-group-7/","group":"Searcy Group","timezone":"America/Chicago"},{"feed":"arkansascentraloffice.org","slug":"seeking-serenity","name":"Seeking Serenity","day":0,"time":"19:00","types":["12x12","O"],"state":"AR","postal_code":"72032","city":"Conway","address":"420 Willow St","latitude":35.0945377,"longitude":-92.4315454,"location":"Willow Hall","region":"Conway","notes":"12 X 12","url":"https://arkansascentraloffice.org/meetings/seeking-serenity/","group":"Seeking Serenity","timezone":"America/Chicago"},{"feed":"arkansascentraloffice.org","slug":"sevier-county-group","name":"Sevier County Group","day":0,"time":"19:00","end_time":"20:00","types":["O"],"state":"AR","postal_code":"71832","city":"De Queen","address":"424 W Heynecker Ave","latitude":34.0391473,"longitude":-94.3425048,"location":"First United Methodist Church Education Building","region":"DeQueen","notes":"Contact: Kerry T 870 279 2559","url":"https://arkansascentraloffice.org/meetings/sevier-county-group/","group":"Sevier County Group","timezone":"America/Chicago"},{"feed":"arkansascentraloffice.org","slug":"shipwreck-group-2","name":"Shipwreck group","day":0,"time":"19:00","types":["O"],"state":"AR","postal_code":"72348","city":"Hughes","address":"241 Lake Estates Dr","latitude":34.9160868,"longitude":-90.3107954,"location":"241 lake estates","region":"Hughes","notes":"Contact: 901-652-2459\nThe legal address of this group is in Hughes. However, the meeting is in Horseshoe Lake. See map for directions.","url":"https://arkansascentraloffice.org/meetings/shipwreck-group-2/","group":"Shipwreck group","timezone":"America/Chicago"},{"feed":"memphis-aa.org","slug":"the-shipwreck-group","name":"The Shipwreck Group","day":0,"time":"19:00","end_time":"20:00","types":["D","O","X"],"state":"AR","postal_code":"72348","city":"Hughes","address":"241 Lake Estates Dr","latitude":34.9160868,"longitude":-90.3107954,"location":"Horseshoe Lake Baptist Church","region":"West Memphis","url":"https://www.memphis-aa.org/meetings/the-shipwreck-group","timezone":"America/Chicago"},{"feed":"arkansascentraloffice.org","slug":"borderline-group-2","name":"Borderline Group","day":0,"time":"19:30","end_time":"20:30","types":["12x12","C"],"state":"AR","postal_code":"72761","city":"Siloam Springs","address":"419 S Washington St","latitude":36.182673,"longitude":-94.5370812,"location":"Borderline Group","region":"Siloam Springs","url":"https://arkansascentraloffice.org/meetings/borderline-group-2/","group":"Borderline Group","timezone":"America/Chicago"},{"feed":"arkansascentraloffice.org","slug":"grupo-bunkers","name":"Grupo Bunkers","day":0,"time":"19:30","end_time":"21:00","types":["S"],"state":"AR","postal_code":"72761","city":"Siloam Springs","address":"105 E Alpine St","latitude":36.18432,"longitude":-94.5410393,"location":"Grupo Bunkers","region":"NWA Spanish Speaking GRPS","notes":"Unit #24","url":"https://arkansascentraloffice.org/meetings/grupo-bunkers/","timezone":"America/Chicago"},{"feed":"arkansascentraloffice.org","slug":"cosmopolitan-group-5","name":"Cosmopolitan Group","day":0,"time":"20:00","types":["B","O"],"state":"AR","postal_code":"72207","city":"Little Rock","address":"2323 Durwood Rd","latitude":34.7740113,"longitude":-92.3495676,"location":"Corner of Durwood & Hawthorne","region":"Little Rock","notes":"Contact: 501-663-9979; Password: 72207","url":"https://arkansascentraloffice.org/meetings/cosmopolitan-group-5/","group":"Cosmopolitan Group","timezone":"America/Chicago"},{"feed":"arkansascentraloffice.org","slug":"eastside-group","name":"Eastside Group","day":0,"time":"20:00","types":["C","D","ONL"],"state":"AR","postal_code":"72015","city":"Benton","address":"506 Lillian","latitude":34.568162,"longitude":-92.5826028,"location":"Lillian St.","region":"Benton","notes":"Hybrid meeting","conference_url":"https://zoom.us/j/4443762254","url":"https://arkansascentraloffice.org/meetings/eastside-group/","group":"Eastside Group","timezone":"America/Chicago"},{"feed":"arkansascentraloffice.org","slug":"h-o-p-e","name":"H.O.P.E.","day":0,"time":"20:00","end_time":"21:00","types":["TC","O"],"state":"AR","postal_code":"72703","city":"Fayetteville","address":"568 W Sycamore St","latitude":36.0853989,"longitude":-94.165754,"location":"Alano Club","region":"Fayetteville","url":"https://arkansascentraloffice.org/meetings/h-o-p-e/","group":"H.O.P.E.","timezone":"America/Chicago"},{"feed":"arkansascentraloffice.org","slug":"harrison-group-3","name":"Harrison Group","day":0,"time":"20:00","end_time":"21:00","types":["O"],"state":"AR","postal_code":"72601","city":"Harrison","address":"206 S Cherry St","latitude":36.2282552,"longitude":-93.112663,"location":"Harrison Group","region":"Harrison","url":"https://arkansascentraloffice.org/meetings/harrison-group-3/","group":"Harrison Group","timezone":"America/Chicago"},{"feed":"arkansascentraloffice.org","slug":"hot-springs-a-a-group-3","name":"Hot Springs A.A. Group","day":0,"time":"20:00","types":["C","D"],"state":"AR","postal_code":"71901","city":"Hot Springs","address":"411 Sellers St","latitude":34.4812243,"longitude":-93.0522795,"location":"411 Sellers","region":"Hot Springs","url":"https://arkansascentraloffice.org/meetings/hot-springs-a-a-group-3/","group":"Hot Springs A.A. Group","timezone":"America/Chicago"},{"feed":"arkansascentraloffice.org","slug":"rogers-group-5","name":"Rogers Group","day":0,"time":"20:00","end_time":"21:00","types":["C","LS"],"state":"AR","postal_code":"72756","city":"Rogers","address":"218 W Cherry St","latitude":36.3298735,"longitude":-94.1188764,"location":"Rogers Group","region":"Rogers","url":"https://arkansascentraloffice.org/meetings/rogers-group-5/","group":"Rogers Group","timezone":"America/Chicago"},{"feed":"arkansascentraloffice.org","slug":"serenidad","name":"SERENIDAD","day":0,"time":"20:00","end_time":"21:30","types":["S"],"state":"AR","postal_code":"72756","city":"Rogers","address":"2505 N 17th St #403","latitude":36.3559082,"longitude":-94.1411756,"location":"SERENIDAD","region":"NWA Spanish Speaking GRPS","url":"https://arkansascentraloffice.org/meetings/serenidad/","group":"SERENIDAD","timezone":"America/Chicago"},{"feed":"arkansascentraloffice.org","slug":"turning-point-6","name":"Turning Point","day":0,"time":"20:00","end_time":"21:00","types":["O","SP"],"state":"AR","postal_code":"72653","city":"Mountain Home","address":"915 McClure Ln","latitude":36.3317898,"longitude":-92.3652055,"location":"Twin Lakes Fellowship Center","region":"Mountain Home","notes":"Contact: Buzz 714-812-9576","url":"https://arkansascentraloffice.org/meetings/turning-point-6/","group":"Sunday Serenity","timezone":"America/Chicago"},{"feed":"arkansascentraloffice.org","slug":"last-house-on-the-block-14","name":"Last House on the Block","day":1,"time":"06:00","end_time":"07:00","types":["O"],"state":"AR","postal_code":"71901","city":"Hot Springs","address":"Hollywood Park, 400-425 Hollywood Ave","latitude":34.4867994,"longitude":-93.0479802,"location":"Last House on the Block","region":"Hot Springs","url":"https://arkansascentraloffice.org/meetings/last-house-on-the-block-14/","group":"Last House on the Block","timezone":"America/Chicago"},{"feed":"arkansascentraloffice.org","slug":"cosmopolitan-group-6","name":"Cosmopolitan Group","day":1,"time":"06:30","types":["C","ONL"],"state":"AR","postal_code":"72207","city":"Little Rock","address":"2323 Durwood Rd","latitude":34.7740113,"longitude":-92.3495676,"location":"Corner of Durwood & Hawthorne","region":"Little Rock","notes":"Password: 72207\nIf you need proof of attendance, send an e-mail to lrcosmopolitangroup@gmail.com.\nInclude the date, time, chairperson's name, meeting topic, and a confirmation of attendance.\nThe response will be e-mailed to you.","conference_url":"https://zoom.us/j/863934775","url":"https://arkansascentraloffice.org/meetings/cosmopolitan-group-6/","group":"Cosmopolitan Group","timezone":"America/Chicago"},{"feed":"aafsig.org","slug":"pioneer-club","name":"Pioneer Group","day":1,"time":"06:30","end_time":"07:30","types":["D","O"],"state":"AR","postal_code":"72901","city":"Fort Smith","address":"500 N F St","latitude":35.3921016,"longitude":-94.4215923,"location":"Pioneer Club","region":"Fort Smith, AR","url":"https://aafsig.org/meetings/pioneer-club/","group":"Pioneer Group","timezone":"America/Chicago"},{"feed":"arkansascentraloffice.org","slug":"pioneer-club","name":"Pioneer Group","day":1,"time":"06:30","end_time":"07:30","types":["D","O"],"state":"AR","postal_code":"72901","city":"Fort Smith","address":"500 N F St","latitude":35.3921157,"longitude":-94.4215816,"location":"Pioneer Club","region":"Fort Smith, AR","url":"https://arkansascentraloffice.org/meetings/pioneer-club/","group":"Pioneer Group","timezone":"America/Chicago"},{"feed":"arkansascentraloffice.org","slug":"hour-of-power-3","name":"Hour of Power","day":1,"time":"06:45","end_time":"07:45","types":["O"],"state":"AR","postal_code":"72202","city":"Little Rock","address":"1015 S Louisiana St","latitude":34.7389314,"longitude":-92.2730032,"location":"Wolfe Street Center","region":"Little Rock","notes":"Upstairs main meeting room.\nContact: Robert G. 501-218-6695","url":"https://arkansascentraloffice.org/meetings/hour-of-power-3/","group":"Hour of Power","timezone":"America/Chicago"},{"feed":"arkansascentraloffice.org","slug":"breakfast-bunch-2","name":"Breakfast Bunch","day":1,"time":"07:00","end_time":"08:00","types":["O"],"state":"AR","postal_code":"72703","city":"Fayetteville","address":"568 W Sycamore St","latitude":36.0853989,"longitude":-94.165754,"location":"Alano Club","region":"Fayetteville","url":"https://arkansascentraloffice.org/meetings/breakfast-bunch-2/","group":"Breakfast Bunch","timezone":"America/Chicago"},{"feed":"arkansascentraloffice.org","slug":"coffee-pot-group-21","name":"Coffee Pot Group","day":1,"time":"07:00","end_time":"08:00","types":["D","O"],"state":"AR","postal_code":"72632","city":"Eureka Springs","address":"103 Stadium Rd","latitude":36.3871385,"longitude":-93.7276274,"location":"Coffee Pot Club House","region":"Eureka Springs","url":"https://arkansascentraloffice.org/meetings/coffee-pot-group-21/","group":"Coffee Pot Group","timezone":"America/Chicago"},{"feed":"arkansascentraloffice.org","slug":"morning-meeting","name":"Morning Meeting","day":1,"time":"07:00","end_time":"08:00","types":["D","O"],"state":"AR","postal_code":"72202","city":"Little Rock","address":"1015 S Louisiana St","latitude":34.7389314,"longitude":-92.2730032,"location":"Wolfe Street Center","region":"Little Rock","url":"https://arkansascentraloffice.org/meetings/morning-meeting/","group":"Morning Meeting","timezone":"America/Chicago"},{"feed":"arkansascentraloffice.org","slug":"our-daily-bread-group","name":"Our Daily Bread Group","day":1,"time":"07:00","end_time":"08:00","types":["C"],"state":"AR","postal_code":"72714","city":"Bella Vista","address":"220 NE Towncenter","latitude":36.4741382,"longitude":-94.2462217,"location":"Our Daily Bread","region":"Bella Vista","url":"https://arkansascentraloffice.org/meetings/our-daily-bread-group/","group":"Our Daily Bread","timezone":"America/Chicago"},{"feed":"arkansascentraloffice.org","slug":"rogers-group-5-2-2","name":"Rogers Group","day":1,"time":"07:00","end_time":"08:00","types":["B","C"],"state":"AR","postal_code":"72756","city":"Rogers","address":"218 W Cherry St","latitude":36.3298735,"longitude":-94.1188764,"location":"Rogers Group","region":"Rogers","url":"https://arkansascentraloffice.org/meetings/rogers-group-5-2-2/","group":"Rogers Group","timezone":"America/Chicago"},{"feed":"arkansascentraloffice.org","slug":"harrison-group-25","name":"Harrison Group","day":1,"time":"08:00","end_time":"09:00","types":["C"],"state":"AR","postal_code":"72601","city":"Harrison","address":"206 S Cherry St","latitude":36.2282552,"longitude":-93.112663,"location":"Harrison Group","region":"Harrison","url":"https://arkansascentraloffice.org/meetings/harrison-group-25/","group":"Harrison Group","timezone":"America/Chicago"},{"feed":"arkansascentraloffice.org","slug":"last-house-on-the-block-15","name":"Last House on the Block","day":1,"time":"08:00","end_time":"09:00","types":["O"],"state":"AR","postal_code":"71901","city":"Hot Springs","address":"Hollywood Park, 400-425 Hollywood Ave","latitude":34.4867994,"longitude":-93.0479802,"location":"Last House on the Block","region":"Hot Springs","url":"https://arkansascentraloffice.org/meetings/last-house-on-the-block-15/","group":"Last House on the Block","timezone":"America/Chicago"},{"feed":"arkansascentraloffice.org","slug":"the-not-so-serious-meeting-hsaa-2","name":"The Not So Serious Meeting - HSAA","day":1,"time":"08:00","types":["D","O"],"state":"AR","postal_code":"71901","city":"Hot Springs","address":"411 Sellers St","latitude":34.4812243,"longitude":-93.0522795,"location":"411 Sellers","region":"Hot Springs","url":"https://arkansascentraloffice.org/meetings/the-not-so-serious-meeting-hsaa-2/","group":"The Not So Serious Meeting - HSAA","timezone":"America/Chicago"},{"feed":"arkansascentraloffice.org","slug":"first-recovery-2","name":"First Recovery","day":1,"time":"09:00","types":["D","TC","O"],"state":"AR","postal_code":"71601","city":"Pine Bluff","address":"1210 S Cherry St","latitude":34.2173178,"longitude":-92.0138135,"location":"1210 South Cherry Street","region":"Pine Bluff","notes":"Contact: Sam B. 870-872-0267","url":"https://arkansascentraloffice.org/meetings/first-recovery-2/","group":"First Recovery","timezone":"America/Chicago"},{"feed":"arkansascentraloffice.org","slug":"1212-group-2","name":"12&12 Group","day":1,"time":"10:00","types":["12x12","C"],"state":"AR","postal_code":"72653","city":"Mountain Home","address":"915 McClure Ln","latitude":36.3317898,"longitude":-92.3652055,"location":"Twin Lakes Fellowship Center","region":"Mountain Home","notes":"Contact: Allison N. 870-373-0749","url":"https://arkansascentraloffice.org/meetings/1212-group-2/","group":"12&12 Group","timezone":"America/Chicago"},{"feed":"arkansascentraloffice.org","slug":"rule-62-meeting","name":"Rule 62 Meeting","day":1,"time":"10:00","types":["C","D","W"],"state":"AR","postal_code":"71901","city":"Hot Springs","address":"411 Sellers St","latitude":34.4812243,"longitude":-93.0522795,"location":"411 Sellers","region":"Hot Springs","notes":"Womens Meeting","url":"https://arkansascentraloffice.org/meetings/rule-62-meeting/","group":"Rule 62 Meeting","timezone":"America/Chicago"},{"feed":"arkansascentraloffice.org","slug":"before-and-after-group-2","name":"Before and After Group","day":1,"time":"12:00","types":["O","D"],"state":"AR","postal_code":"72015","city":"Benton","address":"506 Lillian","latitude":34.568162,"longitude":-92.5826028,"location":"Lillian St.","region":"Benton","url":"https://arkansascentraloffice.org/meetings/before-and-after-group-2/","group":"Before and After Group","timezone":"America/Chicago"},{"feed":"arkansascentraloffice.org","slug":"before-house-group","name":"Before House Group","day":1,"time":"12:00","end_time":"13:00","types":["D","O"],"state":"AR","postal_code":"71603","city":"Pine Bluff","address":"5408 Middle Warren Rd","latitude":34.1732638,"longitude":-92.0467735,"location":"5408 Middle Warren Rd, Pine Bluff, AR 71603, USA","region":"Pine Bluff","notes":"Relapse Prevention;\nContact: Benjamin G. 870-717-7361","url":"https://arkansascentraloffice.org/meetings/before-house-group/","group":"Before House Group","timezone":"America/Chicago"},{"feed":"arkansascentraloffice.org","slug":"bentonville-group","name":"Bentonville Group","day":1,"time":"12:00","end_time":"13:00","types":["B","O","ONL"],"state":"AR","postal_code":"72712","city":"Bentonville","address":"201 NW 2nd St","latitude":36.3726794,"longitude":-94.2109922,"location":"1st United Methodist Church","region":"Bentonville","conference_url":"https://us06web.zoom.us/j/81511710391?pwd=MyBDrdL1oXbafcIrk4YZ6rRX8gy6jC.1","url":"https://arkansascentraloffice.org/meetings/bentonville-group/","group":"Bentonville Group","timezone":"America/Chicago"},{"feed":"arkansascentraloffice.org","slug":"bentonville-group-13","name":"Bentonville Group","day":1,"time":"12:00","end_time":"13:00","types":["B","O","ONL"],"state":"AR","postal_code":"72712","city":"Bentonville","address":"201 NW 2nd St","latitude":36.3726794,"longitude":-94.2109922,"location":"1st United Methodist Church","region":"Bentonville","notes":"Entrance is a covered door up a few steps at the corner of NW A Street and NW 2nd Street\nthe meeting is Upstairs\n\nThis meeting meets in person and online simultaneously.\nIt is not hybrid.","conference_url":"https://us05web.zoom.us/j/81511710391?pwd=MyBDrdL1oXbafcIrk4YZ6rRX8gy6jC.1","url":"https://arkansascentraloffice.org/meetings/bentonville-group-13/","group":"Bentonville Group","timezone":"America/Chicago"},{"feed":"arkansascentraloffice.org","slug":"blytheville-group","name":"Blytheville Group","day":1,"time":"12:00","types":["C"],"state":"AR","postal_code":"72315","city":"Blytheville","address":"107 W Main St","latitude":35.927385,"longitude":-89.9031699,"location":"107 W Main St, Blytheville, AR 72315, USA","region":"Blytheville","notes":"Contact: 870-763-2939","url":"https://arkansascentraloffice.org/meetings/blytheville-group/","group":"Blytheville Group","timezone":"America/Chicago"},{"feed":"arkansascentraloffice.org","slug":"bridge-to-reason-group","name":"Bridge to Reason Group","day":1,"time":"12:00","types":["B","C"],"state":"AR","postal_code":"72801","city":"Russellville","address":"501 S Phoenix Ave","latitude":35.2740062,"longitude":-93.1482434,"location":"Episcopal Church","region":"Russellville","url":"https://arkansascentraloffice.org/meetings/bridge-to-reason-group/","group":"Bridge to Reason Group","timezone":"America/Chicago"},{"feed":"arkansascentraloffice.org","slug":"brown-bag","name":"Brown Bag","day":1,"time":"12:00","types":["O"],"state":"AR","postal_code":"72202","city":"Little Rock","address":"1015 S Louisiana St","latitude":34.7389314,"longitude":-92.2730032,"location":"Wolfe Street Center","region":"Little Rock","notes":"Downstairs main meeting room.\nContact: 501-954-9812","url":"https://arkansascentraloffice.org/meetings/brown-bag/","group":"Brown Bag","timezone":"America/Chicago"},{"feed":"arkansascentraloffice.org","slug":"brown-baggers-group-2","name":"Brown Baggers Group","day":1,"time":"12:00","end_time":"13:00","types":["D","O"],"state":"AR","postal_code":"72703","city":"Fayetteville","address":"568 W Sycamore St","latitude":36.0853989,"longitude":-94.165754,"location":"Alano Club","region":"Fayetteville","url":"https://arkansascentraloffice.org/meetings/brown-baggers-group-2/","group":"Brown Baggers Group","timezone":"America/Chicago"},{"feed":"arkansascentraloffice.org","slug":"cosmopolitan-group-4","name":"Cosmopolitan Group","day":1,"time":"12:00","end_time":"13:00","types":["C","D"],"state":"AR","postal_code":"72207","city":"Little Rock","address":"2323 Durwood Rd","latitude":34.7740113,"longitude":-92.3495676,"location":"Corner of Durwood & Hawthorne","region":"Little Rock","url":"https://arkansascentraloffice.org/meetings/cosmopolitan-group-4/","timezone":"America/Chicago"},{"feed":"arkansascentraloffice.org","slug":"dickson-street-group-2","name":"Dickson Street Group","day":1,"time":"12:00","end_time":"13:00","types":["B","D","LIT"],"state":"AR","postal_code":"72701","city":"Fayetteville","address":"6 W Dickson St","latitude":36.0667682,"longitude":-94.1595751,"location":"Central UMC Wesley Bldg Rm 103","region":"Fayetteville","notes":"\"How It Works\" Read and Discuss Steps 3-12","url":"https://arkansascentraloffice.org/meetings/dickson-street-group-2/","group":"Dickson Street Group","timezone":"America/Chicago"},{"feed":"arkansascentraloffice.org","slug":"f-street-group-3","name":"F Street Group","day":1,"time":"12:00","types":["C"],"state":"AR","postal_code":"72116","city":"North Little Rock","address":"123 E F Ave","latitude":34.7882092,"longitude":-92.2594813,"location":"Across from Park Hill Presbyterian Church","region":"North Little Rock","notes":"Contact: 501-231-1982","url":"https://arkansascentraloffice.org/meetings/f-street-group-3/","group":"F Street Group","timezone":"America/Chicago"},{"feed":"arkansascentraloffice.org","slug":"first-recovery-3","name":"First Recovery","day":1,"time":"12:00","types":["TC","O"],"state":"AR","postal_code":"71601","city":"Pine Bluff","address":"1210 S Cherry St","latitude":34.2173178,"longitude":-92.0138135,"location":"1210 South Cherry Street","region":"Pine Bluff","notes":"Contact: Sam B. 870-872-0267","url":"https://arkansascentraloffice.org/meetings/first-recovery-3/","group":"First Recovery","timezone":"America/Chicago"},{"feed":"arkansascentraloffice.org","slug":"harrison-group-5","name":"Harrison Group","day":1,"time":"12:00","end_time":"13:00","types":["BE","O"],"state":"AR","postal_code":"72601","city":"Harrison","address":"206 S Cherry St","latitude":36.2282552,"longitude":-93.112663,"location":"Harrison Group","region":"Harrison","url":"https://arkansascentraloffice.org/meetings/harrison-group-5/","group":"Harrison Group","timezone":"America/Chicago"},{"feed":"arkansascentraloffice.org","slug":"high-nooners-2","name":"High Nooners","day":1,"time":"12:00","end_time":"13:00","types":["12x12","O"],"state":"AR","postal_code":"72764","city":"Springdale","address":"708 Quandt Ave","latitude":36.1791311,"longitude":-94.1370701,"location":"High Nooners","region":"Springdale","notes":"Steps 3 & 11","url":"https://arkansascentraloffice.org/meetings/high-nooners-2/","group":"High Nooners","timezone":"America/Chicago"},{"feed":"arkansascentraloffice.org","slug":"hot-springs-a-a-group-13","name":"Hot Springs A.A. Group","day":1,"time":"12:00","types":["D","O"],"state":"AR","postal_code":"71901","city":"Hot Springs","address":"411 Sellers St","latitude":34.4812243,"longitude":-93.0522795,"location":"411 Sellers","region":"Hot Springs","url":"https://arkansascentraloffice.org/meetings/hot-springs-a-a-group-13/","group":"Hot Springs A.A. Group","timezone":"America/Chicago"},{"feed":"arkansascentraloffice.org","slug":"hsaa-online-zoom-meeting","name":"HSAA Online Zoom Meeting","day":1,"time":"12:00","end_time":"13:00","types":["D","O","ONL"],"state":"AR","postal_code":"71901","city":"Hot Springs","latitude":34.5166906,"longitude":-92.9775558,"location":"Meeting Location","region":"Hot Springs","notes":"Password: Sellers411","conference_url":"https://zoom.us/j/8272924514","url":"https://arkansascentraloffice.org/meetings/hsaa-online-zoom-meeting/","group":"Hot Springs A.A. Group","timezone":"America/Chicago"},{"feed":"arkansascentraloffice.org","slug":"jonesboro-group-3","name":"Jonesboro Group","day":1,"time":"12:00","types":["C"],"state":"AR","postal_code":"72401","city":"Jonesboro","address":"2901 W Washington Ave","latitude":35.8378017,"longitude":-90.7475815,"location":"The Shed","region":"Jonesboro","notes":"Contact: 870-316-1284; 870-926-2993","url":"https://arkansascentraloffice.org/meetings/jonesboro-group-3/","group":"Jonesboro Group","timezone":"America/Chicago"},{"feed":"arkansascentraloffice.org","slug":"nooners-2","name":"Nooners","day":1,"time":"12:00","types":["B","C"],"state":"AR","postal_code":"72032","city":"Conway","address":"420 Willow St","latitude":35.0945377,"longitude":-92.4315454,"location":"Willow Hall","region":"Conway","notes":"Contact: 501-514-5450","url":"https://arkansascentraloffice.org/meetings/nooners-2/","group":"Nooners","timezone":"America/Chicago"},{"feed":"arkansascentraloffice.org","slug":"open-door-group-3","name":"El Dorado Open Door Group","day":1,"time":"12:00","types":["D","O"],"state":"AR","postal_code":"71730","city":"El Dorado","address":"801 E 6th St","latitude":33.2227155,"longitude":-92.6555751,"location":"801 East 6th Street","region":"El Dorado","url":"https://arkansascentraloffice.org/meetings/open-door-group-3/","group":"El Dorado Open Door Group","timezone":"America/Chicago"},{"feed":"aafsig.org","slug":"pioneer-club-8","name":"Pioneer Group","day":1,"time":"12:00","end_time":"13:00","types":["D","O"],"state":"AR","postal_code":"72901","city":"Fort Smith","address":"500 N F St","latitude":35.3921016,"longitude":-94.4215923,"location":"Pioneer Club","region":"Fort Smith, AR","url":"https://aafsig.org/meetings/pioneer-club-8/","group":"Pioneer Group","timezone":"America/Chicago"},{"feed":"arkansascentraloffice.org","slug":"pioneer-club-8","name":"Pioneer Group","day":1,"time":"12:00","end_time":"13:00","types":["D","O"],"state":"AR","postal_code":"72901","city":"Fort Smith","address":"500 N F St","latitude":35.3921157,"longitude":-94.4215816,"location":"Pioneer Club","region":"Fort Smith, AR","url":"https://arkansascentraloffice.org/meetings/pioneer-club-8/","group":"Pioneer Group","timezone":"America/Chicago"},{"feed":"arkansascentraloffice.org","slug":"rogers-group-12","name":"Rogers Group","day":1,"time":"12:00","end_time":"13:00","types":["C","D"],"state":"AR","postal_code":"72756","city":"Rogers","address":"218 W Cherry St","latitude":36.3298735,"longitude":-94.1188764,"location":"Rogers Group","region":"Rogers","url":"https://arkansascentraloffice.org/meetings/rogers-group-12/","group":"Rogers Group","timezone":"America/Chicago"},{"feed":"arkansascentraloffice.org","slug":"rule-62-group-2","name":"Rule 62 Group","day":1,"time":"12:00","end_time":"13:00","types":["O"],"state":"AR","postal_code":"72034","city":"Conway","address":"1018 Salem Rd","latitude":35.0945013,"longitude":-92.4706921,"location":"Salem United Methodist Church","region":"Conway","notes":"Contact: Bobby B. 479-629-1598","url":"https://arkansascentraloffice.org/meetings/rule-62-group-2/","group":"Rule 62 Group","timezone":"America/Chicago"},{"feed":"arkansascentraloffice.org","slug":"steps-to-freedom","name":"Steps to Freedom","day":1,"time":"12:00","end_time":"13:00","types":["C","D"],"state":"AR","postal_code":"72501","city":"Batesville","address":"332 E Main St","latitude":35.7712443,"longitude":-91.6517955,"location":"First floor, Room behind the stage","region":"Batesville","url":"https://arkansascentraloffice.org/meetings/steps-to-freedom/","timezone":"America/Chicago"},{"feed":"arkansascentraloffice.org","slug":"we-are-not-saints","name":"We Are Not Saints","day":1,"time":"12:00","end_time":"13:00","types":["D","O"],"state":"AR","postal_code":"72715","city":"Bella Vista","address":"1 St Bernard Ln","latitude":36.4558506,"longitude":-94.2936855,"location":"St Bernard's Church","region":"Bella Vista","url":"https://arkansascentraloffice.org/meetings/we-are-not-saints/","group":"We Are Not Saints","timezone":"America/Chicago"},{"feed":"arkansascentraloffice.org","slug":"west-little-rock-nooners","name":"West Little Rock Nooners","day":1,"time":"12:00","end_time":"13:00","types":["C"],"state":"AR","postal_code":"72211","city":"Little Rock","address":"15524 Chenal Pkwy","latitude":34.7582928,"longitude":-92.4458115,"location":"Highland Valley United Methodist Church, Room 106, Building A","region":"Little Rock","url":"https://arkansascentraloffice.org/meetings/west-little-rock-nooners/","timezone":"America/Chicago"},{"feed":"arkansascentraloffice.org","slug":"west-memphis-group","name":"West Memphis Group","day":1,"time":"12:00","end_time":"13:00","types":["C","D","TC"],"state":"AR","postal_code":"72301","city":"West Memphis","address":"1233 Park Dr","latitude":35.1608737,"longitude":-90.1856599,"location":"House behind Shell Station at 1230 Missouri Street","region":"West Memphis","url":"https://arkansascentraloffice.org/meetings/west-memphis-group/","group":"West Memphis Group","timezone":"America/Chicago"},{"feed":"arkansascentraloffice.org","slug":"downtown-nooners","name":"Downtown Nooners","day":1,"time":"12:10","types":["C","ONL"],"state":"AR","postal_code":"72201","city":"Little Rock","address":"509 Scott St","latitude":34.7432407,"longitude":-92.2698291,"location":"Christ Episcopal Church","region":"Little Rock","notes":"Password: 1210","conference_url":"https://us02web.zoom.us/j/2304401090?pwd=MHIwb2dXME9XYjdaMnBidXZGV3FNdz09","url":"https://arkansascentraloffice.org/meetings/downtown-nooners/","group":"Downtown Nooners","timezone":"America/Chicago"},{"feed":"arkansascentraloffice.org","slug":"h-a-l-t-lunch-bunch-2","name":"H.A.L.T. Lunch Bunch","day":1,"time":"12:10","end_time":"13:10","types":["C","ONL"],"state":"AR","postal_code":"72207","city":"Little Rock","address":"7509 Cantrell Rd","latitude":34.7705266,"longitude":-92.3571268,"location":"Central Office Building, Tanglewood Shopping Center","region":"Little Rock","notes":"Contact: 501-351-7368","conference_url":"https://us02web.zoom.us/j/8796587165?pwd=RDBWeWphZnFIeXVHZVA4WVNRTkJtdz09","url":"https://arkansascentraloffice.org/meetings/h-a-l-t-lunch-bunch-2/","group":"H.A.L.T. Lunch Bunch","timezone":"America/Chicago"},{"feed":"arkansascentraloffice.org","slug":"coffee-pot-group-16","name":"Coffee Pot Group","day":1,"time":"12:30","end_time":"13:30","types":["C","D"],"state":"AR","postal_code":"72632","city":"Eureka Springs","address":"103 Stadium Rd","latitude":36.3871385,"longitude":-93.7276274,"location":"Coffee Pot Club House","region":"Eureka Springs","url":"https://arkansascentraloffice.org/meetings/coffee-pot-group-16/","group":"Coffee Pot Group","timezone":"America/Chicago"},{"feed":"arkansascentraloffice.org","slug":"jacksonville-aa-3","name":"Jacksonville AA","day":1,"time":"12:30","types":["C"],"state":"AR","postal_code":"72076","city":"Jacksonville","address":"119 N Spring St","latitude":34.8659865,"longitude":-92.1094542,"location":"AA Group Building","region":"Jacksonville","notes":"Contact: Charles C. 501-560-2724","url":"https://arkansascentraloffice.org/meetings/jacksonville-aa-3/","group":"Jacksonville AA","timezone":"America/Chicago"},{"feed":"arkansascentraloffice.org","slug":"allsopp-park-group-2","name":"Pavilion of Recovery Group","day":1,"time":"17:30","end_time":"18:30","types":["B","O"],"state":"AR","postal_code":"72202","city":"Little Rock","address":"1015 S Louisiana St","latitude":34.7389314,"longitude":-92.2730032,"location":"Wolfe Street Center","region":"Little Rock","notes":"Room 3","url":"https://arkansascentraloffice.org/meetings/allsopp-park-group-2/","group":"Pavilion of Recovery Group","timezone":"America/Chicago"},{"feed":"arkansascentraloffice.org","slug":"before-house-group-9","name":"Before House Group","day":1,"time":"17:30","end_time":"18:30","types":["B","O"],"state":"AR","postal_code":"71603","city":"Pine Bluff","address":"5408 Middle Warren Rd","latitude":34.1732638,"longitude":-92.0467735,"location":"5408 Middle Warren Rd, Pine Bluff, AR 71603, USA","region":"Pine Bluff","notes":"Contact: Benjamin G. 870-717-7361","url":"https://arkansascentraloffice.org/meetings/before-house-group-9/","group":"Before House Group","timezone":"America/Chicago"},{"feed":"arkansascentraloffice.org","slug":"central-big-book-study","name":"Central Big Book Study","day":1,"time":"17:30","types":["C","D"],"state":"AR","postal_code":"71913","city":"Hot Springs","address":"3819 Central Ave","latitude":34.4619607,"longitude":-93.0605154,"location":"Westminster Presbyterian Church","region":"Hot Springs","url":"https://arkansascentraloffice.org/meetings/central-big-book-study/","group":"Central Big Book Study","timezone":"America/Chicago"},{"feed":"arkansascentraloffice.org","slug":"coffee-pot-group-4","name":"Coffee Pot Group","day":1,"time":"17:30","end_time":"18:30","types":["B","C"],"state":"AR","postal_code":"72632","city":"Eureka Springs","address":"103 Stadium Rd","latitude":36.3871385,"longitude":-93.7276274,"location":"Coffee Pot Club House","region":"Eureka Springs","url":"https://arkansascentraloffice.org/meetings/coffee-pot-group-4/","group":"Coffee Pot Group","timezone":"America/Chicago"},{"feed":"arkansascentraloffice.org","slug":"cosmopolitan-group-8","name":"Cosmopolitan Group","day":1,"time":"17:30","types":["C"],"state":"AR","postal_code":"72207","city":"Little Rock","address":"2323 Durwood Rd","latitude":34.7740113,"longitude":-92.3495676,"location":"Corner of Durwood & Hawthorne","region":"Little Rock","url":"https://arkansascentraloffice.org/meetings/cosmopolitan-group-8/","group":"Cosmopolitan Group","timezone":"America/Chicago"},{"feed":"arkansascentraloffice.org","slug":"f-street-group-4","name":"F Street Group","day":1,"time":"17:30","types":["12x12","C","LIT"],"state":"AR","postal_code":"72116","city":"North Little Rock","address":"123 E F Ave","latitude":34.7882092,"longitude":-92.2594813,"location":"Across from Park Hill Presbyterian Church","region":"North Little Rock","notes":"Contact: 501-231-1982","url":"https://arkansascentraloffice.org/meetings/f-street-group-4/","group":"F Street Group","timezone":"America/Chicago"},{"feed":"arkansascentraloffice.org","slug":"friends-group","name":"Friends Group","day":1,"time":"17:30","types":["C"],"state":"AR","postal_code":"72401","city":"Jonesboro","address":"710 Southwest Dr","latitude":35.8138632,"longitude":-90.7149039,"location":"710 Southwest Dr, Jonesboro, AR 72401, USA","region":"Jonesboro","url":"https://arkansascentraloffice.org/meetings/friends-group/","group":"Friends Group","timezone":"America/Chicago"},{"feed":"arkansascentraloffice.org","slug":"happy-hour","name":"Happy Hour","day":1,"time":"17:30","types":["C"],"state":"AR","postal_code":"72202","city":"Little Rock","address":"1015 S Louisiana St","latitude":34.7389314,"longitude":-92.2730032,"location":"Wolfe Street Center","region":"Little Rock","notes":"In Person and Zoom Meeting\nMeeting ID: 875 2325 1548\nPassword: 228920\n\nContact: 501-412-5445","url":"https://arkansascentraloffice.org/meetings/happy-hour/","group":"Happy Hour","timezone":"America/Chicago"},{"feed":"arkansascentraloffice.org","slug":"happy-hour-group-2","name":"Happy Hour Group","day":1,"time":"17:30","end_time":"18:30","types":["O"],"state":"AR","postal_code":"72703","city":"Fayetteville","address":"568 W Sycamore St","latitude":36.0853989,"longitude":-94.165754,"location":"Alano Club","region":"Fayetteville","url":"https://arkansascentraloffice.org/meetings/happy-hour-group-2/","group":"Happy Hour Group","timezone":"America/Chicago"},{"feed":"arkansascentraloffice.org","slug":"keep-it-simple-group","name":"Keep it Simple Group","day":1,"time":"17:30","end_time":"18:30","types":["O"],"state":"AR","postal_code":"72701","city":"Fayetteville","address":"224 N East Ave","latitude":36.0657216,"longitude":-94.1591347,"location":"St. Paul's Episcopal","region":"Fayetteville","url":"https://arkansascentraloffice.org/meetings/keep-it-simple-group/","group":"Keep it Simple Group","timezone":"America/Chicago"},{"feed":"arkansascentraloffice.org","slug":"reservoir-group-2","name":"Reservoir Group","day":1,"time":"17:30","types":["C"],"state":"AR","postal_code":"72227","city":"Little Rock","address":"600 Pleasant Valley Dr","latitude":34.7855416,"longitude":-92.3894912,"location":"Second Presbyterian Church","region":"Little Rock","notes":"Contact: Travis T. 501-316-8777\nFirst Monday of the month Birthdays\nSecond Monday of the month Business meeting.","url":"https://arkansascentraloffice.org/meetings/reservoir-group-2/","group":"Reservoir Group","timezone":"America/Chicago"},{"feed":"arkansascentraloffice.org","slug":"rogers-group-3","name":"Rogers Group","day":1,"time":"17:30","end_time":"18:30","types":["B","O"],"state":"AR","postal_code":"72756","city":"Rogers","address":"218 W Cherry St","latitude":36.3298735,"longitude":-94.1188764,"location":"Rogers Group","region":"Rogers","url":"https://arkansascentraloffice.org/meetings/rogers-group-3/","group":"Rogers Group","timezone":"America/Chicago"},{"feed":"arkansascentraloffice.org","slug":"rule-62","name":"Rule 62","day":1,"time":"17:30","types":["O"],"state":"AR","postal_code":"72076","city":"Jacksonville","address":"119 N Spring St","latitude":34.8659865,"longitude":-92.1094542,"location":"AA Group Building","region":"Jacksonville","notes":"Contact: Clarence W. 501-944-5338\nMeets in the parking lot of the AA building on Spring Street.","url":"https://arkansascentraloffice.org/meetings/rule-62/","group":"Rule 62","timezone":"America/Chicago"},{"feed":"arkansascentraloffice.org","slug":"serenity-group","name":"Serenity Group","day":1,"time":"17:30","types":["C","D"],"state":"AR","postal_code":"72401","city":"Jonesboro","address":"203 W Oak Ave","latitude":35.8335488,"longitude":-90.7066426,"location":"Temple Israel","region":"Jonesboro","notes":"Contact: 870-761-6469; 501-931-2715;\n3rd Monday is an OPEN Birthday meeting","url":"https://arkansascentraloffice.org/meetings/serenity-group/","group":"Serenity Group","timezone":"America/Chicago"},{"feed":"arkansascentraloffice.org","slug":"graced-womens-group","name":"Graced Women's Group","day":1,"time":"17:45","types":["B","C","W"],"state":"AR","postal_code":"72034","city":"Conway","address":"2400 Prince St","latitude":35.0926299,"longitude":-92.4612645,"location":"First Presbyterian Church, Room 203","region":"Conway","notes":"Contact: Heather C. 501-314-9956.\nFirst Presbyterian Church between the High School and the- Chic-Fil-A on Prince. Room 203 is our location inside the church and can be reached by entering through the WEST door (the one that faces out toward the Chic-Fil-A).","url":"https://arkansascentraloffice.org/meetings/graced-womens-group/","group":"Graced Women's Group","timezone":"America/Chicago"},{"feed":"arkansascentraloffice.org","slug":"greenbrier-happy-hour-2","name":"Greenbrier Happy Hour","day":1,"time":"17:45","end_time":"18:45","types":["O","ST"],"state":"AR","postal_code":"72058","city":"Greenbrier","address":"675 US-65","latitude":35.1892644,"longitude":-92.3928756,"location":"The Club at Springhill","region":"Greenbrier","notes":"Contact: 501-295-4982","url":"https://arkansascentraloffice.org/meetings/greenbrier-happy-hour-2/","group":"Greenbrier Happy Hour","timezone":"America/Chicago"},{"feed":"arkansascentraloffice.org","slug":"taproot-women","name":"Taproot Women","day":1,"time":"17:45","types":["B","C","W"],"state":"AR","postal_code":"72212","city":"Little Rock","address":"321 Pleasant Valley Dr","latitude":34.7797395,"longitude":-92.3919222,"location":"St. James Methodist Church (Enter door 6 on the North East corner of the building. The door closest to Pleasant Valley Dr that faces the interstate.)","region":"Little Rock","notes":"Last Monday of the month Open Speaker;\nContact: Ashley C. 479-747-3142;\nChildren are welcome","url":"https://arkansascentraloffice.org/meetings/taproot-women/","group":"Taproot Women","timezone":"America/Chicago"},{"feed":"arkansascentraloffice.org","slug":"as-bill-sees-it","name":"As Bill Sees It","day":1,"time":"18:00","end_time":"19:00","types":["ABSI","MED","O"],"state":"AR","postal_code":"71949","city":"Jessieville","address":"7415 N State Hwy 7","latitude":34.6950566,"longitude":-93.0629798,"location":"Jessieville Fellowship Club","region":"Jessieville","notes":"As Bill Sees It topic discussion meeting. Begins with a 12 minute meditation","url":"https://arkansascentraloffice.org/meetings/as-bill-sees-it/","group":"Rockhouse Group - As Bill Sees It","timezone":"America/Chicago"},{"feed":"arkansascentraloffice.org","slug":"bridging-the-gap","name":"Bridging the Gap","day":1,"time":"18:00","types":["C","DB","LIT","ST","X","XB","EN","ONL"],"state":"AR","postal_code":"72118","city":"North Little Rock","address":"6722 Mountain Pine Rd","latitude":34.8151298,"longitude":-92.3306727,"location":"Crystal Hill Assembly of God","region":"North Little Rock","notes":"Contact: Steve F. 501-258-7644.\nMeeting ID: 308 820 930\nPassword: 187565","conference_url":"https://zoom.us/j/308820930?pwd=TXpWOXkwN1owN2lPWStSblZLYURrZz09","url":"https://arkansascentraloffice.org/meetings/bridging-the-gap/","group":"Bridging the Gap","timezone":"America/Chicago"},{"feed":"arkansascentraloffice.org","slug":"el-dorado-group","name":"El Dorado Group","day":1,"time":"18:00","end_time":"19:00","types":["B","O"],"state":"AR","postal_code":"71730","city":"El Dorado","address":"1513 Champagnolle Rd","latitude":33.2230415,"longitude":-92.6483921,"location":"1513 Champagnolle Rd, El Dorado, AR 71730, USA","region":"El Dorado","notes":"501-444-2692 or e-mail: eldogrp1513@gmail.com","url":"https://arkansascentraloffice.org/meetings/el-dorado-group/","group":"El Dorado Group","timezone":"America/Chicago"},{"feed":"arkansascentraloffice.org","slug":"evergreen-group-2","name":"Evergreen Group","day":1,"time":"18:00","end_time":"19:00","types":["C","D"],"state":"AR","postal_code":"71909","city":"Hot Springs Village","address":"275 Asturias Dr","latitude":34.6653783,"longitude":-92.98699,"location":"Kirk in the Pines Church","region":"Hot Springs Village","notes":"Meeting begins April 17th, 2023","url":"https://arkansascentraloffice.org/meetings/evergreen-group-2/","group":"Evergreen Group","timezone":"America/Chicago"},{"feed":"arkansascentraloffice.org","slug":"fordyce-group","name":"Fordyce Group","day":1,"time":"18:00","end_time":"19:00","types":["O"],"state":"AR","postal_code":"71742","city":"Fordyce","address":"104 E 4th St","latitude":33.8142624,"longitude":-92.4124893,"location":"First Methodist Church Light House Corner of 5th and Main","region":"Fordyce","url":"https://arkansascentraloffice.org/meetings/fordyce-group/","group":"Fordyce Group","timezone":"America/Chicago"},{"feed":"arkansascentraloffice.org","slug":"hi-lifers-group-18","name":"Hi Lifer's Group","day":1,"time":"18:00","end_time":"19:00","types":["O"],"state":"AR","postal_code":"72764","city":"Springdale","address":"402 S Thompson St","latitude":36.182488,"longitude":-94.1399412,"location":"Hi Lifers Group","region":"Springdale","url":"https://arkansascentraloffice.org/meetings/hi-lifers-group-18/","group":"Hi Lifer's Group","timezone":"America/Chicago"},{"feed":"arkansascentraloffice.org","slug":"lending-hand-group","name":"Lending Hand Group","day":1,"time":"18:00","types":["C"],"state":"AR","postal_code":"72364","city":"Marion","address":"100 E Military Rd","latitude":35.2147331,"longitude":-90.1952746,"location":"Trinity In the Fields Anglican Church","region":"Marion","notes":"Contact: Greg 870-551-1820","url":"https://arkansascentraloffice.org/meetings/lending-hand-group/","group":"Lending Hand Group","timezone":"America/Chicago"},{"feed":"aafsig.org","slug":"northside-big-book-study","name":"Northside Big Book Study","day":1,"time":"18:00","end_time":"19:00","types":["B","C"],"state":"AR","postal_code":"72904","city":"Fort Smith","address":"3901 Grand Ave","latitude":35.3863237,"longitude":-94.3885715,"location":"Helping Hands Building","region":"Fort Smith, AR","url":"https://aafsig.org/meetings/northside-big-book-study/","timezone":"America/Chicago"},{"feed":"arkansascentraloffice.org","slug":"northside-big-book-study","name":"Northside Big Book Study","day":1,"time":"18:00","end_time":"19:00","types":["B","C"],"state":"AR","postal_code":"72904","city":"Fort Smith","address":"3901 Grand Ave","latitude":35.3863237,"longitude":-94.3885713,"location":"Helping Hands Building","region":"Fort Smith, AR","url":"https://arkansascentraloffice.org/meetings/northside-big-book-study/","timezone":"America/Chicago"},{"feed":"arkansascentraloffice.org","slug":"o-u-r-oneness-unity-recovery-group","name":"O.U.R. (Oneness Unity Recovery) Group","day":1,"time":"18:00","end_time":"19:00","types":["O"],"state":"AR","postal_code":"72501","city":"Batesville","address":"200 Warrior Rd","latitude":35.7934336,"longitude":-91.6608675,"location":"North Heights Church of Christ","region":"Batesville","url":"https://arkansascentraloffice.org/meetings/o-u-r-oneness-unity-recovery-group/","group":"O.U.R. (Oneness Unity Recovery) Group","timezone":"America/Chicago"},{"feed":"aafsig.org","slug":"pioneer-club-15","name":"Pioneer Group","day":1,"time":"18:00","end_time":"19:00","types":["D","O"],"state":"AR","postal_code":"72901","city":"Fort Smith","address":"500 N F St","latitude":35.3921016,"longitude":-94.4215923,"location":"Pioneer Club","region":"Fort Smith, AR","url":"https://aafsig.org/meetings/pioneer-club-15/","group":"Pioneer Group","timezone":"America/Chicago"},{"feed":"arkansascentraloffice.org","slug":"pioneer-club-15","name":"Pioneer Group","day":1,"time":"18:00","end_time":"19:00","types":["D","O"],"state":"AR","postal_code":"72901","city":"Fort Smith","address":"500 N F St","latitude":35.3921157,"longitude":-94.4215816,"location":"Pioneer Club","region":"Fort Smith, AR","url":"https://arkansascentraloffice.org/meetings/pioneer-club-15/","group":"Pioneer Group","timezone":"America/Chicago"},{"feed":"aafsig.org","slug":"serenity-in-ozark-group","name":"Serenity in Ozark group","day":1,"time":"18:00","end_time":"19:00","types":["D","O"],"state":"AR","postal_code":"72949","city":"Ozark","address":"503 W Commercial St","latitude":35.486972,"longitude":-93.8294734,"location":"First United Methodist Church","region":"Ozark, AR","url":"https://aafsig.org/meetings/serenity-in-ozark-group/","timezone":"America/Chicago"},{"feed":"arkansascentraloffice.org","slug":"serenity-in-ozark-group","name":"Serenity in Ozark group","day":1,"time":"18:00","end_time":"19:00","types":["D","O"],"state":"AR","postal_code":"72949","city":"Ozark","address":"503 W Commercial St","latitude":35.486972,"longitude":-93.8294734,"location":"First United Methodist Church","region":"Ozark, AR","url":"https://arkansascentraloffice.org/meetings/serenity-in-ozark-group/","timezone":"America/Chicago"},{"feed":"arkansascentraloffice.org","slug":"springdalezoom-6","name":"Springdale Zoom Group","day":1,"time":"18:00","end_time":"19:00","types":["B","O","ONL"],"state":"AR","city":"Springdale","latitude":36.1745404,"longitude":-94.1389831,"location":"Springdale, AR","region":"Springdale","notes":"Zoom password: 934452","conference_url":"https://us04web.zoom.us/j/868135723","url":"https://arkansascentraloffice.org/meetings/springdalezoom-6/","group":"Springdale Zoom Group","timezone":"America/Chicago"},{"feed":"arkansascentraloffice.org","slug":"the-big-book-study","name":"Big Book Study","day":1,"time":"18:00","end_time":"19:00","types":["B","TC","O"],"state":"AR","postal_code":"72023","city":"Cabot","address":"2003 S Pine St","latitude":34.9440403,"longitude":-92.00545,"location":"Cabot United Methodist Church, Wesleyan Center","region":"Cabot","notes":"Contact: Gordon F. 501-259-8209","url":"https://arkansascentraloffice.org/meetings/the-big-book-study/","group":"Big Book Study","timezone":"America/Chicago"},{"feed":"arkansascentraloffice.org","slug":"water-tower-group","name":"Water Tower Group","day":1,"time":"18:00","end_time":"19:00","types":["12x12","O"],"state":"AR","postal_code":"72712","city":"Bentonville","address":"2904 NW 3rd St","latitude":36.3763332,"longitude":-94.2450715,"location":"All Saint's Episcopal Church","region":"Bentonville","url":"https://arkansascentraloffice.org/meetings/water-tower-group/","group":"Water Tower Group","timezone":"America/Chicago"},{"feed":"arkansascentraloffice.org","slug":"women-serenity","name":"Women Serenity Group","day":1,"time":"18:00","types":["C","W"],"state":"AR","postal_code":"72653","city":"Mountain Home","address":"915 McClure Ln","latitude":36.3317898,"longitude":-92.3652055,"location":"Twin Lakes Fellowship Center","region":"Mountain Home","notes":"Last Monday of the Month Speaker\nContact: Jeanine W. 707-498-0100","url":"https://arkansascentraloffice.org/meetings/women-serenity/","group":"Women Serenity Group","timezone":"America/Chicago"},{"feed":"arkansascentraloffice.org","slug":"yana","name":"YANA","day":1,"time":"18:00","types":["D","O"],"state":"AR","postal_code":"72560","city":"Mountain View","address":"116 E Jefferson St","latitude":35.8669202,"longitude":-92.1169685,"location":"First United Methodist Church","region":"Mountain View","notes":"Contact: Bub 662-822-0722","url":"https://arkansascentraloffice.org/meetings/yana/","group":"YANA","timezone":"America/Chicago"},{"feed":"arkansascentraloffice.org","slug":"by-the-book-group-mon","name":"By The Book Group","day":1,"time":"18:30","end_time":"20:00","types":["C","ST"],"state":"AR","postal_code":"72715","city":"Bella Vista","address":"20 Boyce Dr","latitude":36.4751262,"longitude":-94.2618589,"location":"First United Methodist","region":"Bella Vista","notes":"Last Monday of the month is Tradition / Birthday meeting","url":"https://arkansascentraloffice.org/meetings/by-the-book-group-mon/","group":"By The Book Group","timezone":"America/Chicago"},{"feed":"arkansascentraloffice.org","slug":"lamplighters-group","name":"Lamplighters Group","day":1,"time":"18:30","end_time":"19:30","types":["B","O"],"state":"AR","postal_code":"72015","city":"Benton","address":"506 Lillian","latitude":34.568162,"longitude":-92.5826028,"location":"Lillian St.","region":"Benton","url":"https://arkansascentraloffice.org/meetings/lamplighters-group/","group":"Lamplighters Group","timezone":"America/Chicago"},{"feed":"arkansascentraloffice.org","slug":"more-will-be-revealed-group","name":"More Will Be Revealed Group","day":1,"time":"18:30","end_time":"19:30","types":["C","M"],"state":"AR","postal_code":"72207","city":"Little Rock","address":"5700 Cantrell Rd","latitude":34.7689252,"longitude":-92.3373391,"location":"Calvary Baptist Church","region":"Little Rock","notes":"Contact: Joshua S. 479 313 5674; Dean C 501 269 2494","url":"https://arkansascentraloffice.org/meetings/more-will-be-revealed-group/","group":"More Will Be Revealed Group","timezone":"America/Chicago"},{"feed":"arkansascentraloffice.org","slug":"river-valley-group","name":"River Valley Group","day":1,"time":"18:30","end_time":"19:30","types":["C","W"],"state":"AR","postal_code":"72801","city":"Russellville","address":"300 N Cumberland Ave","latitude":35.2873516,"longitude":-93.1574562,"location":"Wesley Methodist Church","region":"Russellville","url":"https://arkansascentraloffice.org/meetings/river-valley-group/","group":"River Valley Group","timezone":"America/Chicago"},{"feed":"arkansascentraloffice.org","slug":"saints-we-aint-2","name":"Saints We Ain't","day":1,"time":"18:30","end_time":"19:30","types":["D","O","ONL"],"state":"AR","city":"Little Rock","latitude":34.7444618,"longitude":-92.2880157,"location":"Zoom Only","region":"Little Rock","notes":"For proof of attendance e-mail saintsweaintlr@gmail.com\nPassword: swa22","conference_url":"https://zoom.us/j/9713387346","url":"https://arkansascentraloffice.org/meetings/saints-we-aint-2/","group":"Saints We Ain't","timezone":"America/Chicago"},{"feed":"arkansascentraloffice.org","slug":"womens-acceptance-2","name":"Women's Acceptance","day":1,"time":"18:30","end_time":"19:30","types":["C","D","W"],"state":"AR","postal_code":"72712","city":"Bentonville","address":"989 NW McNelly Rd","latitude":36.4225632,"longitude":-94.222225,"location":"Bella Vista Church of Christ","region":"Bella Vista","notes":"Birthday night is the last Monday of the month","url":"https://arkansascentraloffice.org/meetings/womens-acceptance-2/","group":"Women's Acceptance","timezone":"America/Chicago"},{"feed":"arkansascentraloffice.org","slug":"12-12-en-accion-2","name":"12-12 en accion","day":1,"time":"19:00","end_time":"21:00","types":["O","S"],"state":"AR","postal_code":"72209","city":"Little Rock","address":"6602 Baseline Rd d","latitude":34.6700048,"longitude":-92.3511937,"location":"6602 Baseline Rd.","region":"Little Rock","notes":"Suite D","url":"https://arkansascentraloffice.org/meetings/12-12-en-accion-2/","group":"12-12 en accion","timezone":"America/Chicago"},{"feed":"arkansascentraloffice.org","slug":"16-de-julio-renovacion-2","name":"16 de Julio Renovacion","day":1,"time":"19:00","types":["O","S"],"state":"AR","postal_code":"72118","city":"North Little Rock","address":"4720 Camp Robinson Rd","latitude":34.7988687,"longitude":-92.2682966,"location":"Suite C","region":"North Little Rock","notes":"Contact: 501-838-4322","url":"https://arkansascentraloffice.org/meetings/16-de-julio-renovacion-2/","group":"16 de Julio Renovacion","timezone":"America/Chicago"},{"feed":"aafsig.org","slug":"a-vision-for-you-women","name":"A Vision for You Women","day":1,"time":"19:00","end_time":"20:00","types":["D","O","W"],"state":"AR","postal_code":"72903","city":"Fort Smith","address":"3324 S M St","latitude":35.3699891,"longitude":-94.395455,"location":"Reynolds Cancer Support House","region":"Fort Smith, AR","url":"https://aafsig.org/meetings/a-vision-for-you-women/","timezone":"America/Chicago"},