[{"feed":"aatucson.org","slug":"online-meeting-sunday-500-am","name":"Across the Pond bring your coffee and a resentment!","day":0,"time":"05:00","end_time":"06:00","types":["B","D","LIT","LS","BE","O","ONL"],"state":"AZ","city":"Tucson","latitude":32.2539787,"longitude":-110.9741769,"location":"Online Meeting","region":"Tucson Midtown","conference_url":"https://zoom.us/j/78646870969","url":"https://aatucson.org/meetings/online-meeting-sunday-500-am/","timezone":"America/Phoenix"},{"feed":"aamesaaz.org","slug":"g-i-t-group","name":"G-I-T Group","day":0,"time":"06:00","types":["O"],"state":"AZ","postal_code":"85202","city":"Mesa","address":"2121 W Guadalupe Rd #1","latitude":33.3629379,"longitude":-111.8791127,"location":"G I T","region":"Mesa","url":"https://aamesaaz.org/meetings/g-i-t-group/","timezone":"America/Phoenix"},{"feed":"prescottaa.org","slug":"va-first-formation-meeting-6","name":"VA First Formation Meeting","day":0,"time":"06:00","end_time":"07:00","types":["O","D"],"state":"AZ","postal_code":"86301","city":"Prescott","address":"500 AZ-89","latitude":34.5545351,"longitude":-112.4526536,"location":"VA Northern Arizona Health Care","region":"Prescott","url":"https://prescottaa.org/meetings/va-first-formation-meeting-6/","timezone":"America/Phoenix"},{"feed":"aamesaaz.org","slug":"road-to-recovery","name":"Road To Recovery","day":0,"time":"06:30","types":["GR","LIT","O"],"state":"AZ","postal_code":"85205","city":"Mesa","address":"6134 E Main St #102","latitude":33.4169382,"longitude":-111.6984597,"location":"Road To Recovery","region":"Mesa","url":"https://aamesaaz.org/meetings/road-to-recovery/","timezone":"America/Phoenix"},{"feed":"prescottaa.org","slug":"serenityonline-3","name":"SerenityOnline","day":0,"time":"06:30","end_time":"07:30","types":["C","D","ONL"],"state":"AZ","city":"Prescott","latitude":34.5400242,"longitude":-112.4685025,"location":"Prescott, AZ","region":"Prescott","conference_url":"https://meet.goto.com/880523077","url":"https://prescottaa.org/meetings/serenityonline-3/","timezone":"America/Phoenix"},{"feed":"aatucson.org","slug":"sunday-upon-awakening","name":"Upon Awakening Group","day":0,"time":"06:30","end_time":"07:30","types":["D","O","SM","X"],"state":"AZ","postal_code":"85712","city":"Tucson","address":"4405 E Pima St","latitude":32.2437111,"longitude":-110.8988527,"location":"Pima Alano Club","region":"Tucson Midtown","url":"https://aatucson.org/meetings/sunday-upon-awakening/","group":"Upon Awakening","timezone":"America/Phoenix"},{"feed":"aamesaaz.org","slug":"the-breakfast-club","name":"The Breakfast Club","day":0,"time":"06:30","types":["O"],"state":"AZ","postal_code":"85210","city":"Mesa","address":"145 E 1st Ave","latitude":33.4124824,"longitude":-111.827165,"location":"Mesa Alano Club","region":"Mesa","url":"https://aamesaaz.org/meetings/the-breakfast-club/","timezone":"America/Phoenix"},{"feed":"aamesaaz.org","slug":"the-society-group-26","name":"The Society Group","day":0,"time":"06:30","end_time":"07:30","types":["MED","O"],"state":"AZ","postal_code":"85207","city":"Mesa","address":"9333 E Main St","latitude":33.4145213,"longitude":-111.6290654,"location":"The Society #125","region":"Mesa","notes":"Arrive on time or wait for the meditation period to end before entering. Thank you.","url":"https://aamesaaz.org/meetings/the-society-group-26/","timezone":"America/Phoenix"},{"feed":"prescottaa.org","slug":"there-is-a-solution-3","name":"There Is A Solution","day":0,"time":"06:30","end_time":"07:30","types":["O","D","LIT"],"state":"AZ","postal_code":"86314","city":"Prescott Valley","address":"6546 E 2nd St B","latitude":34.5804207,"longitude":-112.3516846,"location":"QuadCity Christian Church","region":"Prescott Valley","url":"https://prescottaa.org/meetings/there-is-a-solution-3/","timezone":"America/Phoenix"},{"feed":"aatucson.org","slug":"upon-awakening-virtual-meeting-4","name":"New Dimension Virtual Meeting","day":0,"time":"06:30","end_time":"07:30","types":["D","O","ONL"],"state":"AZ","city":"Tucson","latitude":32.2539787,"longitude":-110.9741769,"location":"Online Meeting","region":"Tucson Midtown","notes":"Zoom Meeting\nhttps://zoom.us/j/87222421634\nPasscode: Page25\n\nTo dial in: 1-669-900-6883, Meeting ID 87222421634, Code 562932","conference_url":"https://us05web.zoom.us/j/87222421634?pwd=L1h0c2ZVWDZMNDBHd1kxbmRnUmhIZz09","url":"https://aatucson.org/meetings/upon-awakening-virtual-meeting-4/","timezone":"America/Phoenix"},{"feed":"aamesaaz.org","slug":"as-you-wake-up-3","name":"As You Wake Up","day":0,"time":"06:45","end_time":"07:45","types":["O","ONL"],"state":"AZ","postal_code":"85284","city":"Tempe","address":"1565 E Warner Rd","latitude":33.3335603,"longitude":-111.9144285,"location":"Mission del Sol Church -","region":"Tempe","notes":"Hybrid Format, in-person and online.\nID 835 2385 2170\nPassword 480761","conference_url":"https://zoom.us/j/83523852170","url":"https://aamesaaz.org/meetings/as-you-wake-up-3/","timezone":"America/Phoenix"},{"feed":"aamesaaz.org","slug":"eye-opener-group-7","name":"Eye-Opener Group","day":0,"time":"06:45","end_time":"07:45","types":["DR","D","O"],"state":"AZ","postal_code":"85122","city":"Casa Grande","address":"702 E Cottonwood Ln","latitude":32.8950991,"longitude":-111.7437662,"location":"First Presbyterian Church - Fellowship Hall (Room #11)","region":"Casa Grande","notes":"Non-smoking","url":"https://aamesaaz.org/meetings/eye-opener-group-7/","group":"Eye-Opener","timezone":"America/Phoenix"},{"feed":"aatucson.org","slug":"monday-morning-shades-group-2","name":"Morning Shades Group","day":0,"time":"06:45","end_time":"07:45","types":["D","O","X"],"state":"AZ","postal_code":"85711","city":"Tucson","address":"6061 E Broadway Blvd #127","latitude":32.2229073,"longitude":-110.8627892,"location":"Eastside Meeting Place","region":"Tucson East, Northeast","notes":"STARTS AT 645am - 745am","url":"https://aatucson.org/meetings/monday-morning-shades-group-2/","group":"Morning Shades Group","timezone":"America/Phoenix"},{"feed":"aatucson.org","slug":"morning-shades-virtual-meeting-3-2-2-2","name":"Morning Shades Virtual Meeting","day":0,"time":"06:45","end_time":"07:45","types":["EN","O","ONL"],"state":"AZ","city":"Tucson","latitude":32.2539787,"longitude":-110.9741769,"location":"Online Meeting","region":"Tucson Midtown","notes":"Zoom Meeting please download the app prior to the meeting. https://zoom.us/j/98068265887\nModerators please use suggested settings below in location notes\nTO DIAL IN: 1-669-900-6833,,98068265887#,,,#\nOR\n1-346-2487799,,98068265887#,,,#","conference_url":"https://zoom.us/j/98068265887","url":"https://aatucson.org/meetings/morning-shades-virtual-meeting-3-2-2-2/","timezone":"America/Phoenix"},{"feed":"aamesaaz.org","slug":"rising-spirit-group","name":"Rising Spirit Group Hybrid","day":0,"time":"06:45","types":["O","ONL"],"state":"AZ","postal_code":"85282","city":"Tempe","address":"2085 E Southern Ave","latitude":33.3921931,"longitude":-111.896438,"location":"King Of Glory","region":"Tempe","notes":"Zoom ID\n266 470 894\nPasscode: PassItOn","conference_url":"https://zoom.us/j/266470894","url":"https://aamesaaz.org/meetings/rising-spirit-group/","timezone":"America/Phoenix"},{"feed":"aatucson.org","slug":"sunday-smoke-free-nooners-11step-meeting","name":"Smoke Free Nooners Group  Eye Opener Meeting","day":0,"time":"06:45","end_time":"07:45","types":["11","D","MED","O","X"],"state":"AZ","postal_code":"85719","city":"Tucson","address":"3620 N 1st Ave #148","latitude":32.2724162,"longitude":-110.9602104,"location":"Smoke Free Nooners","region":"Tucson Midtown","notes":"STARTS AT 6:45am - 7:45am This meeting meets Face to Face 7 days a week","url":"https://aatucson.org/meetings/sunday-smoke-free-nooners-11step-meeting/","group":"Smoke Free Nooners","timezone":"America/Phoenix"},{"feed":"aatucson.org","slug":"sunday-smoke-free-nooners-11step-meeting-4","name":"Smoke Free Nooners Group  Eye Opener Meeting Online","day":0,"time":"06:45","end_time":"07:45","types":["11","D","MED","O","ONL"],"state":"AZ","city":"Tucson","latitude":32.2539787,"longitude":-110.9741769,"location":"Online Meeting","region":"Tucson Midtown","notes":"Zoom ID 82417147452\nPassword 839886","conference_url":"https://zoom.us/j/82417147452","url":"https://aatucson.org/meetings/sunday-smoke-free-nooners-11step-meeting-4/","group":"Smoke Free Nooners","timezone":"America/Phoenix"},{"feed":"aamesaaz.org","slug":"tempe-sunrisers","name":"Tempe Sunrisers - Hybrid","day":0,"time":"06:45","end_time":"07:45","types":["O","ONL"],"state":"AZ","postal_code":"85282","city":"Tempe","address":"4415 S Rural Rd","latitude":33.3837874,"longitude":-111.924951,"location":"The Pigeon Coop","region":"Tempe","notes":"Zoom Passcode: 488837","conference_url":"https://zoom.us/j/2062366675","url":"https://aamesaaz.org/meetings/tempe-sunrisers/","timezone":"America/Phoenix"},{"feed":"aamesaaz.org","slug":"the-page-a-day-group-12","name":"The Page A Day Group","day":0,"time":"06:45","types":["ONL"],"state":"AZ","city":"Mesa","latitude":33.4151843,"longitude":-111.8314724,"location":"Online Mesa","region":"Mesa","notes":"Zoom ID: 565 989 360\nPasscode: 06101935","conference_url":"https://zoom.us/j/565989360","url":"https://aamesaaz.org/meetings/the-page-a-day-group-12/","timezone":"America/Phoenix"},{"feed":"aamesaaz.org","slug":"upon-awakening-6","name":"Upon Awakening - Zoom","day":0,"time":"06:45","end_time":"07:45","types":["TC","ONL"],"state":"AZ","postal_code":"85295","city":"Gilbert","address":"3225 S Lindsay Rd","latitude":33.2915398,"longitude":-111.7738011,"location":"Desert Cross Lutheran Church - Gilbert","region":"Gilbert","notes":"Zoom ID: 89646600555\nPasscode: bigbook","conference_url":"https://zoom.us/j/89646600555","url":"https://aamesaaz.org/meetings/upon-awakening-6/","timezone":"America/Phoenix"},{"feed":"aatucson.org","slug":"byobb","name":"BYOBB","day":0,"time":"07:00","end_time":"08:00","types":["B","O","XB","EN"],"state":"AZ","postal_code":"85705","city":"Tucson","address":"3120 W Curtis Rd","latitude":32.301893,"longitude":-111.0340211,"location":"Northwest Alano Club","region":"Tucson Northwest (Marana, Oro-Valley)","url":"https://aatucson.org/meetings/byobb/","timezone":"America/Phoenix"},{"feed":"flagstaffaa.org","slug":"earlybirds-flagstaff-online","name":"Earlybirds Flagstaff Online","day":0,"time":"07:00","end_time":"08:00","types":["O","ONL"],"state":"AZ","city":"Flagstaff","latitude":35.1982836,"longitude":-111.651302,"location":"Online Meeting","region":"Flagstaff","notes":"Meeting ID is 599 355 1376\n\nNo password required.\n\n7th Tradition: Early Birds Online can be found on the PayPal website as https://paypal.me/EarlyBirdsFlagOnline. Many members find it convenient to contribute a week, 2 weeks or a month at a time.","conference_url":"https://us02web.zoom.us/j/5993551376","url":"https://flagstaffaa.org/meetings/earlybirds-flagstaff-online/","timezone":"America/Phoenix"},{"feed":"aatucson.org","slug":"fresh-start-virtual-meeting-4-2-2","name":"Fresh Start Virtual Meeting","day":0,"time":"07:00","end_time":"08:00","types":["C","BE","ONL"],"state":"AZ","city":"Tucson","latitude":32.2539787,"longitude":-110.9741769,"location":"Online Meeting","region":"Tucson Midtown","notes":"Zoom Meeting please download the app prior to the meeting. Zoom https://zoom.us/j/406967657\nPassword 163980\nModerators please use suggested settings below in location notes\nTO DIAL IN: 1-669-900-6833,,406967657#,,,#,,,163980","conference_url":"https://us04web.zoom.us/j/406967657?pwd=VVNncjV0VkZMWlJ3YXRmc2ErTGliZz09","url":"https://aatucson.org/meetings/fresh-start-virtual-meeting-4-2-2/","timezone":"America/Phoenix"},{"feed":"aamesaaz.org","slug":"new-spirit-7am-daily-digital-5","name":"New Spirit 7am Daily Digital","day":0,"time":"07:00","end_time":"08:00","types":["DR","ONL"],"state":"AZ","postal_code":"85282","city":"Tempe","latitude":33.3897576,"longitude":-111.9343636,"location":"Online-Tempe","region":"Tempe","notes":"ID: 8151 828 9904\nPasscode: 123456","conference_url":"https://zoom.us/j/81518289904","url":"https://aamesaaz.org/meetings/new-spirit-7am-daily-digital-5/","timezone":"America/Phoenix"},{"feed":"aatucson.org","slug":"sunday-fresh-start-meeting","name":"Fresh Start Group","day":0,"time":"07:00","end_time":"08:00","types":["C","LIT","X"],"state":"AZ","postal_code":"85705","city":"Tucson","address":"3120 W Curtis Rd","latitude":32.301893,"longitude":-111.0340211,"location":"Northwest Alano Club","region":"Tucson Northwest (Marana, Oro-Valley)","notes":"Study of The History of AA\nMeets in the clubhouse","url":"https://aatucson.org/meetings/sunday-fresh-start-meeting/","timezone":"America/Phoenix"},{"feed":"prescottaa.org","slug":"sunday-morning-aa-solutions","name":"Sunday Morning AA Solutions","day":0,"time":"07:00","end_time":"08:00","types":["O","D"],"state":"AZ","postal_code":"86301","city":"Prescott","address":"520 W Delano Ave","latitude":34.5721088,"longitude":-112.4712643,"location":"Safe Harbor","region":"Prescott","notes":"2nd & 4th Sunday AA","url":"https://prescottaa.org/meetings/sunday-morning-aa-solutions/","timezone":"America/Phoenix"},{"feed":"aamesaaz.org","slug":"the-patio-group","name":"The Patio Group","day":0,"time":"07:00","end_time":"08:00","types":["O"],"state":"AZ","postal_code":"85284","city":"Tempe","address":"8600 S McClintock Dr","latitude":33.3367754,"longitude":-111.9123791,"location":"Desert Cross Lutheran","region":"Tempe","notes":"Meets outside 7 days a week. Patio chairs are available or bring your own patio chair if you'd like. This is an outdoor meeting but moves inside depending on the weather. There are smoking and non-smoking areas.","url":"https://aamesaaz.org/meetings/the-patio-group/","timezone":"America/Phoenix"},{"feed":"aatucson.org","slug":"green-valley-morning-group-4-2","name":"Green Valley Morning Group","day":0,"time":"07:30","end_time":"08:30","types":["D","O","X"],"state":"AZ","postal_code":"85614","city":"Green Valley","address":"880 W Camino Casa Verde","latitude":31.885674,"longitude":-111.0052673,"location":"Green Valley Alano Club","region":"Pima County Far South (Green Valley, Sahuarita)","url":"https://aatucson.org/meetings/green-valley-morning-group-4-2/","timezone":"America/Phoenix"},{"feed":"aamesaaz.org","slug":"aint-saints-mens-stag","name":"Ain't Saints Men's Stag","day":0,"time":"08:00","end_time":"09:00","types":["C","M","ONL"],"state":"AZ","city":"Chandler","latitude":33.3061605,"longitude":-111.8412502,"location":"Online Chandler","region":"Chandler","notes":"Zoom ID: 838 416 4171\nPasscode: 12Steps","conference_url":"https://zoom.us/j/8384164171","url":"https://aamesaaz.org/meetings/aint-saints-mens-stag/","timezone":"America/Phoenix"},{"feed":"aamesaaz.org","slug":"dog-tired-stag","name":"Dog Tired Stag","day":0,"time":"08:00","end_time":"09:00","types":["MED","M","O"],"state":"AZ","postal_code":"85282","city":"Tempe","address":"2103 E Southern Ave","latitude":33.3927086,"longitude":-111.8959606,"location":"Compassion Sync 2655 West Guadalupe #21 Mesa, AZ 85202","region":"Tempe","url":"https://aamesaaz.org/meetings/dog-tired-stag/","timezone":"America/Phoenix"},{"feed":"aamesaaz.org","slug":"easy-does-it-grapevine","name":"Easy Does It - Grapevine","day":0,"time":"08:00","types":["O"],"state":"AZ","postal_code":"85203","city":"Mesa","address":"1933 E University Dr #24","latitude":33.4221257,"longitude":-111.7891338,"location":"Easy Does It","region":"Mesa","url":"https://aamesaaz.org/meetings/easy-does-it-grapevine/","timezone":"America/Phoenix"},{"feed":"aatucson.org","slug":"founders-path","name":"Founders Path","day":0,"time":"08:00","end_time":"09:00","types":["LIT","O","X"],"state":"AZ","postal_code":"85712","city":"Tucson","address":"4405 E Pima St","latitude":32.2437111,"longitude":-110.8988527,"location":"Pima Alano Club","region":"Tucson Midtown","url":"https://aatucson.org/meetings/founders-path/","timezone":"America/Phoenix"},{"feed":"flagstaffaa.org","slug":"happy-hour-mens","name":"Happy Hour Men's","day":0,"time":"08:00","end_time":"09:00","types":["C","M"],"state":"AZ","postal_code":"86001","city":"Flagstaff","address":"400 W Aspen Ave","latitude":35.2002801,"longitude":-111.6531704,"location":"Federated Church","region":"Flagstaff","notes":"Men's meeting. We read the step corresponding with the month from the 12 and 12.","url":"https://flagstaffaa.org/meetings/happy-hour-mens/","timezone":"America/Phoenix"},{"feed":"aamesaaz.org","slug":"miracle-house-group-22","name":"Miracle House Group","day":0,"time":"08:00","end_time":"09:00","types":["D","O"],"state":"AZ","postal_code":"85122","city":"Casa Grande","address":"204 E 3rd St","latitude":32.87751,"longitude":-111.7519302,"location":"Miracle House","region":"Casa Grande","notes":"Non-smoking","url":"https://aamesaaz.org/meetings/miracle-house-group-22/","group":"Miracle House","timezone":"America/Phoenix"},{"feed":"aamesaaz.org","slug":"road-to-recovery-2","name":"Road To Recovery","day":0,"time":"08:00","types":["O"],"state":"AZ","postal_code":"85205","city":"Mesa","address":"6134 E Main St #102","latitude":33.4169382,"longitude":-111.6984597,"location":"Road To Recovery","region":"Mesa","url":"https://aamesaaz.org/meetings/road-to-recovery-2/","timezone":"America/Phoenix"},{"feed":"centralmountain.org","slug":"steps-to-success-2","name":"Steps To Success","day":0,"time":"08:00","types":["O","ST","X"],"state":"AZ","postal_code":"86326","city":"Cottonwood","address":"1309 E Cherry St","latitude":34.7317443,"longitude":-112.0125448,"location":"Cottonwood ALANO Club","region":"Cottonwood","url":"https://centralmountain.org/meetings/steps-to-success-2/","timezone":"America/Phoenix"},{"feed":"aamesaaz.org","slug":"sunday-am-reflections","name":"Fill In The Blanks","day":0,"time":"08:00","types":["O"],"state":"AZ","postal_code":"85142","city":"Queen Creek","address":"19729 E San Tan Blvd","latitude":33.2117362,"longitude":-111.656973,"location":"Queen Creek Meeting House","region":"Queen Creek","url":"https://aamesaaz.org/meetings/sunday-am-reflections/","timezone":"America/Phoenix"},{"feed":"aatucson.org","slug":"sunday-each-day-new-beginning","name":"Stone Sober/Each Day a New Beginning Meeting","day":0,"time":"08:00","end_time":"09:00","types":["D","O","X"],"state":"AZ","postal_code":"85705","city":"Tucson","address":"610 E Delano St #103","latitude":32.2629676,"longitude":-110.9617945,"location":"Stone Sober Meeting Place","region":"Tucson Midtown","url":"https://aatucson.org/meetings/sunday-each-day-new-beginning/","group":"Stone Sober","timezone":"America/Phoenix"},{"feed":"prescottaa.org","slug":"thy-will-not-mine-serenity-group-sunday-writing-workshop","name":"Thy Will Not Mine Serenity Group (Sunday Writing Workshop)","day":0,"time":"08:00","end_time":"09:00","types":["O","W","D","ONL"],"state":"AZ","city":"Prescott","latitude":34.5400242,"longitude":-112.4685025,"location":"Prescott, AZ","region":"Prescott","conference_url":"https://zoom.us/j/85720072065","url":"https://prescottaa.org/meetings/thy-will-not-mine-serenity-group-sunday-writing-workshop/","timezone":"America/Phoenix"},{"feed":"aatucson.org","slug":"business-professional-mens-meeting","name":"Business & Professional Men's Meeting","day":0,"time":"08:15","end_time":"09:30","types":["C","M","SP"],"state":"AZ","postal_code":"85718","city":"Tucson","address":"4440 N Campbell Ave","latitude":32.2880632,"longitude":-110.9434755,"location":"St Phillips in the Hills","region":"Tucson Foothills","url":"https://aatucson.org/meetings/business-professional-mens-meeting/","timezone":"America/Phoenix"},{"feed":"aatucson.org","slug":"sunday-morning-aa-meeting","name":"Sunday Morning AA Group","day":0,"time":"08:30","end_time":"09:30","types":["C","D","X"],"state":"AZ","postal_code":"85718","city":"Tucson","address":"Jewish Community Center, 3800 E River Rd","latitude":32.2735994,"longitude":-110.9117269,"location":"Jewish Community Center","region":"Tucson Midtown","url":"https://aatucson.org/meetings/sunday-morning-aa-meeting/","timezone":"America/Phoenix"},{"feed":"aamesaaz.org","slug":"the-society-group","name":"The Society Group","day":0,"time":"08:30","types":["BE","O"],"state":"AZ","postal_code":"85207","city":"Mesa","address":"9333 E Main St","latitude":33.4145213,"longitude":-111.6290654,"location":"The Society #125","region":"Mesa","url":"https://aamesaaz.org/meetings/the-society-group/","timezone":"America/Phoenix"},{"feed":"prescottaa.org","slug":"women-awakening-2","name":"Women Awakening","day":0,"time":"08:30","end_time":"09:30","types":["C","W","D","ONL"],"state":"AZ","city":"Prescott","latitude":34.5400242,"longitude":-112.4685025,"location":"Prescott, AZ","region":"Prescott","conference_url":"https://zoom.us/j/8495565909","url":"https://prescottaa.org/meetings/women-awakening-2/","timezone":"America/Phoenix"},{"feed":"prescottaa.org","slug":"morning-gratitude","name":"Morning Gratitude","day":0,"time":"08:33","end_time":"09:33","types":["O","D"],"state":"AZ","postal_code":"86323","city":"Chino Valley","address":"318 W Perkinsville Rd","latitude":34.7714772,"longitude":-112.4541714,"location":"AA Meeting Place","region":"Chino Valley","url":"https://prescottaa.org/meetings/morning-gratitude/","timezone":"America/Phoenix"},{"feed":"aatucson.org","slug":"first-edition-big-book-study","name":"Big Book Study First Edition","day":0,"time":"08:50","end_time":"09:50","types":["B","O","X","XB"],"state":"AZ","postal_code":"85614","city":"Green Valley","address":"880 W Camino Casa Verde","latitude":31.885674,"longitude":-111.0052673,"location":"Green Valley Alano Club","region":"Pima County Far South (Green Valley, Sahuarita)","url":"https://aatucson.org/meetings/first-edition-big-book-study/","timezone":"America/Phoenix"},{"feed":"centralmountain.org","slug":"as-bill-sees-it-2","name":"As Bill Sees It","day":0,"time":"09:00","types":["D","O"],"state":"AZ","postal_code":"86336","city":"Sedona","address":"44 Stutz Bearcat Dr","latitude":34.8621967,"longitude":-111.8038453,"location":"Stutz Bearcat","region":"Sedona","notes":"Off SR 89A. Please do not park in front of 50 Stutz Bearcat","url":"https://centralmountain.org/meetings/as-bill-sees-it-2/","timezone":"America/Phoenix"},{"feed":"centralmountain.org","slug":"camp-verde-group-12-2","name":"Camp Verde Group","day":0,"time":"09:00","types":["D","O","X"],"state":"AZ","postal_code":"86322","city":"Camp Verde","address":"435 S Main St","latitude":34.5633201,"longitude":-111.8535355,"location":"Old Camp Verde High School","region":"Camp Verde","notes":"Room 205","url":"https://centralmountain.org/meetings/camp-verde-group-12-2/","timezone":"America/Phoenix"},{"feed":"aatucson.org","slug":"green-valley-daily-reprieve-virtual-meeting-2","name":"Green Valley Daily Reprieve Virtual Meeting","day":0,"time":"09:00","end_time":"10:00","types":["D","O","ONL"],"state":"AZ","city":"Tucson","latitude":32.2539787,"longitude":-110.9741769,"location":"Online Meeting","region":"Tucson Midtown","notes":"This meeting meets on Zoom.\nZoom ID # 873 4501 6547\nPW: 827669","conference_url":"https://www.zoom.us/j/87345016547","url":"https://aatucson.org/meetings/green-valley-daily-reprieve-virtual-meeting-2/","timezone":"America/Phoenix"},{"feed":"aamesaaz.org","slug":"grupo-hispano-apache-junction-7","name":"Grupo Hispano Apache Junction","day":0,"time":"09:00","end_time":"10:30","types":["S"],"state":"AZ","postal_code":"85120","city":"Apache Junction","address":"2114 Apache Trail #9","latitude":33.415564,"longitude":-111.5690814,"location":"2114 Apache Trail #9, Apache Junction, AZ 85120, USA","region":"Apache Junction","url":"https://aamesaaz.org/meetings/grupo-hispano-apache-junction-7/","timezone":"America/Phoenix"},{"feed":"aamesaaz.org","slug":"grupo-sendero-de-vida","name":"Grupo Sendero De Vida","day":0,"time":"09:00","types":["O","S"],"state":"AZ","postal_code":"85202","city":"Mesa","address":"1911 W Broadway Rd","latitude":33.4071088,"longitude":-111.8726252,"location":"1911 W Broadway Rd. #19","region":"Mesa","url":"https://aamesaaz.org/meetings/grupo-sendero-de-vida/","timezone":"America/Phoenix"},{"feed":"flagstaffaa.org","slug":"mens-step-study-online","name":"Men's Step Study Online","day":0,"time":"09:00","end_time":"10:00","types":["12x12","M","ONL"],"state":"AZ","city":"Flagstaff","latitude":35.1982836,"longitude":-111.651302,"location":"Online Meeting","region":"Flagstaff","notes":"Meeting password is 928 928 1234, same as meeting ID#.","conference_url":"https://us02web.zoom.us/j/9289281234","url":"https://flagstaffaa.org/meetings/mens-step-study-online/","timezone":"America/Phoenix"},{"feed":"flagstaffaa.org","slug":"rainbow-recovery","name":"Rainbow Recovery","day":0,"time":"09:00","end_time":"10:00","types":["LGBTQ"],"state":"AZ","postal_code":"86004","city":"Flagstaff","address":"2400 N Gemini Rd","latitude":35.2181382,"longitude":-111.6330823,"location":"Buffalo Park","region":"Flagstaff","notes":"Queer AA Recovery Meeting","url":"https://flagstaffaa.org/meetings/rainbow-recovery/","timezone":"America/Phoenix"},{"feed":"aatucson.org","slug":"sunday-grupo-4-de-enero","name":"Grupo 4 de Enero","day":0,"time":"09:00","end_time":"10:30","types":["D","O","S","SP","X"],"state":"AZ","postal_code":"85705","city":"Tucson","address":"2241 N Oracle Rd #4","latitude":32.24877,"longitude":-110.9786638,"location":"Grupo 4 de Enero Meeting Place","region":"Tucson Midtown","notes":"Juntas de Estudio","url":"https://aatucson.org/meetings/sunday-grupo-4-de-enero/","timezone":"America/Phoenix"},{"feed":"aatucson.org","slug":"sunday-morning-funnies","name":"Sunday Morning Funnies","day":0,"time":"09:00","end_time":"10:00","types":["D","O"],"state":"AZ","postal_code":"85623","city":"Oracle","address":"Oracle Park, 333 E Nuestro St","latitude":32.606045,"longitude":-110.770287,"location":"Oracle Park","region":"Pima County Far North (Catalina, Saddlebrooke, Oracle)","url":"https://aatucson.org/meetings/sunday-morning-funnies/","timezone":"America/Phoenix"},{"feed":"prescottaa.org","slug":"sunday-morning-mens-stag","name":"Sunday Morning Men's Stag","day":0,"time":"09:00","end_time":"10:00","types":["C","M","D"],"state":"AZ","postal_code":"86301","city":"Prescott","address":"520 W Delano Ave","latitude":34.5721088,"longitude":-112.4712643,"location":"Safe Harbor","region":"Prescott","notes":"Closed Men's","url":"https://prescottaa.org/meetings/sunday-morning-mens-stag/","timezone":"America/Phoenix"},{"feed":"prescottaa.org","slug":"sunday-morning-mens-stag-online","name":"Sunday Morning Men's Stag (Online)","day":0,"time":"09:00","end_time":"10:00","types":["C","M","D","ONL"],"state":"AZ","city":"Prescott","latitude":34.5400242,"longitude":-112.4685025,"location":"Prescott, AZ","region":"Prescott","conference_url":"https://us02web.zoom.us/j/85452410829","url":"https://prescottaa.org/meetings/sunday-morning-mens-stag-online/","timezone":"America/Phoenix"},{"feed":"aatucson.org","slug":"sunday-sober-sunday-mornign-meeting","name":"Sober Sunday Morning Meeting","day":0,"time":"09:00","end_time":"10:00","types":["D","O","X"],"state":"AZ","postal_code":"85711","city":"Tucson","address":"6061 E Broadway Blvd #127","latitude":32.2229073,"longitude":-110.8627892,"location":"Eastside Meeting Place","region":"Tucson East, Northeast","url":"https://aatucson.org/meetings/sunday-sober-sunday-mornign-meeting/","timezone":"America/Phoenix"},{"feed":"aamesaaz.org","slug":"attitude-of-gratitude","name":"Attitude Of Gratitude","day":0,"time":"09:30","types":["O","W"],"state":"AZ","postal_code":"85142","city":"Queen Creek","address":"19729 E San Tan Blvd","latitude":33.2117362,"longitude":-111.656973,"location":"Queen Creek Meeting House","region":"Queen Creek","url":"https://aamesaaz.org/meetings/attitude-of-gratitude/","timezone":"America/Phoenix"},{"feed":"aatucson.org","slug":"overton-sunday-morning-meeting-hybrid","name":"Overton Sunday Morning Meeting Hybrid","day":0,"time":"09:30","end_time":"10:30","types":["D","O","X","ONL"],"state":"AZ","postal_code":"85704","city":"Tucson","address":"7900 N La Ca\u00f1ada Dr","latitude":32.3493392,"longitude":-110.9936013,"location":"Mountain View Retirement Village","region":"Tucson Northwest (Marana, Oro-Valley)","notes":"This meeting is a hybrid meeting using Zoom\nMTG ID: 939204155\nPSWD: 123","conference_url":"https://www.zoom.us/j/939204155","url":"https://aatucson.org/meetings/overton-sunday-morning-meeting-hybrid/","timezone":"America/Phoenix"},{"feed":"aamesaaz.org","slug":"serenity-now-2","name":"Serenity Now","day":0,"time":"09:30","end_time":"10:30","types":["O"],"state":"AZ","postal_code":"85208","city":"Mesa","address":"655 S Crismon Rd","latitude":33.4026642,"longitude":-111.6131587,"location":"Skyline Park","region":"Mesa","notes":"Meeting is north of the restrooms. Water provided, bring a chair.","url":"https://aamesaaz.org/meetings/serenity-now-2/","timezone":"America/Phoenix"},{"feed":"aamesaaz.org","slug":"shade-tree-mtg","name":"Shade Tree Mtg.","day":0,"time":"09:30","types":["C","M"],"state":"AZ","postal_code":"85142","city":"Queen Creek","address":"19729 E San Tan Blvd","latitude":33.2117362,"longitude":-111.656973,"location":"Queen Creek Meeting House","region":"Queen Creek","url":"https://aamesaaz.org/meetings/shade-tree-mtg/","timezone":"America/Phoenix"},{"feed":"aatucson.org","slug":"sunday-sos-group","name":"SOS Group","day":0,"time":"09:30","end_time":"10:30","types":["D","O","X"],"state":"AZ","postal_code":"85712","city":"Tucson","address":"4405 E Pima St","latitude":32.2437111,"longitude":-110.8988527,"location":"Pima Alano Club","region":"Tucson Midtown","notes":"Main- Please note smoking is NOT allowed in this building","url":"https://aatucson.org/meetings/sunday-sos-group/","timezone":"America/Phoenix"},{"feed":"aamesaaz.org","slug":"bloopers","name":"Bloopers","day":0,"time":"10:00","types":["O"],"state":"AZ","postal_code":"85283","city":"Tempe","address":"1859 E Baseline Rd","latitude":33.3773185,"longitude":-111.9058937,"location":"Bloopers","region":"Tempe","url":"https://aamesaaz.org/meetings/bloopers/","timezone":"America/Phoenix"},{"feed":"aatucson.org","slug":"grupo-gratitud-7","name":"Grupo Gratitud","day":0,"time":"10:00","end_time":"11:30","types":["S"],"state":"AZ","postal_code":"85714","city":"Tucson","address":"119 E Pennsylvania Dr","latitude":32.1716024,"longitude":-110.9664274,"location":"Gratitud Meeting Place","region":"Tucson South, Southwest","url":"https://aatucson.org/meetings/grupo-gratitud-7/","timezone":"America/Phoenix"},{"feed":"aatucson.org","slug":"himmel-park-outdoor-meeting-bring-your-own-chair-6-2","name":"Himmel Park Outdoor Meeting - Bring Your Own Chair","day":0,"time":"10:00","end_time":"11:00","types":["D","BE","O","OUT"],"state":"AZ","postal_code":"85716","city":"Tucson","address":"1035 N Treat Ave","latitude":32.2345996,"longitude":-110.9316167,"location":"Himmel Park Library Outside","region":"Tucson Midtown","notes":"This meeting meets at 10 am May-Oct and Noon Nov-April","url":"https://aatucson.org/meetings/himmel-park-outdoor-meeting-bring-your-own-chair-6-2/","timezone":"America/Phoenix"},{"feed":"aamesaaz.org","slug":"new-hope-click-for-note","name":"New Hope *click for NOTE*","day":0,"time":"10:00","types":["G","O"],"state":"AZ","postal_code":"85210","city":"Mesa","address":"145 E 1st Ave","latitude":33.4124824,"longitude":-111.827165,"location":"Mesa Alano Club","region":"Mesa","notes":"1.5 hr","url":"https://aamesaaz.org/meetings/new-hope-click-for-note/","timezone":"America/Phoenix"},{"feed":"aamesaaz.org","slug":"road-to-recovery-11th-step","name":"Road To Recovery 11th Step","day":0,"time":"10:00","types":["O"],"state":"AZ","postal_code":"85205","city":"Mesa","address":"6134 E Main St #102","latitude":33.4169382,"longitude":-111.6984597,"location":"Road To Recovery","region":"Mesa","url":"https://aamesaaz.org/meetings/road-to-recovery-11th-step/","timezone":"America/Phoenix"},{"feed":"aamesaaz.org","slug":"the-society-group-women","name":"The Society Group Women","day":0,"time":"10:00","end_time":"11:30","types":["O","W"],"state":"AZ","postal_code":"85207","city":"Mesa","address":"9333 E Main St","latitude":33.4145213,"longitude":-111.6290654,"location":"The Society #125","region":"Mesa","url":"https://aamesaaz.org/meetings/the-society-group-women/","timezone":"America/Phoenix"},{"feed":"aamesaaz.org","slug":"g-i-t-group-11-step","name":"G-I-T Group 11 Step","day":0,"time":"10:30","types":["O"],"state":"AZ","postal_code":"85202","city":"Mesa","address":"2121 W Guadalupe Rd #1","latitude":33.3629379,"longitude":-111.8791127,"location":"G I T","region":"Mesa","url":"https://aamesaaz.org/meetings/g-i-t-group-11-step/","timezone":"America/Phoenix"},{"feed":"aamesaaz.org","slug":"g-i-t-online-8","name":"11 Step Meditation","day":0,"time":"10:30","end_time":"11:30","types":["O","ST","ONL"],"state":"AZ","city":"Chandler","latitude":33.3061605,"longitude":-111.8412502,"location":"Online Chandler","region":"Chandler","notes":"Zoom ID: 893 9139 5052\nPasscode: 164","conference_url":"https://zoom.us/j/89391395052","url":"https://aamesaaz.org/meetings/g-i-t-online-8/","timezone":"America/Phoenix"},{"feed":"aatucson.org","slug":"men-alcoholics-seeking-spirituality-m-a-s-s","name":"Men Alcoholics Seeking Spirituality (M.A.S.S.)","day":0,"time":"10:30","end_time":"12:00","types":["B","C","M"],"state":"AZ","postal_code":"85711","city":"Tucson","address":"6061 E Broadway Blvd #127","latitude":32.2229073,"longitude":-110.8627892,"location":"Eastside Meeting Place","region":"Tucson East, Northeast","url":"https://aatucson.org/meetings/men-alcoholics-seeking-spirituality-m-a-s-s/","timezone":"America/Phoenix"},{"feed":"aamesaaz.org","slug":"name-in-the-hat","name":"Name In The Hat","day":0,"time":"10:30","types":["O"],"state":"AZ","postal_code":"85203","city":"Mesa","address":"1045 E Main St","latitude":33.4148616,"longitude":-111.8082309,"location":"1045 E. Main St.","region":"Mesa","url":"https://aamesaaz.org/meetings/name-in-the-hat/","timezone":"America/Phoenix"},{"feed":"flagstaffaa.org","slug":"happy-hour-11th-step-meeting-aa-meditation","name":"Happy Hour 11th Step Meeting","day":0,"time":"11:00","end_time":"12:00","types":["MED","O"],"state":"AZ","postal_code":"86001","city":"Flagstaff","address":"400 W Aspen Ave","latitude":35.2002801,"longitude":-111.6531704,"location":"Federated Church","region":"Flagstaff","url":"https://flagstaffaa.org/meetings/happy-hour-11th-step-meeting-aa-meditation/","timezone":"America/Phoenix"},{"feed":"aamesaaz.org","slug":"roads-of-hope","name":"Roads of Hope","day":0,"time":"11:00","end_time":"12:00","types":["D","SP"],"state":"AZ","postal_code":"85225","city":"Chandler","address":"501 N Washington St","latitude":33.3118257,"longitude":-111.839711,"location":"Crossroads Chandler","region":"Chandler","url":"https://aamesaaz.org/meetings/roads-of-hope/","timezone":"America/Phoenix"},{"feed":"aatucson.org","slug":"sunday-grupos-tres-legados","name":"Grupo Tres Legados","day":0,"time":"11:00","end_time":"12:30","types":["D","O","S","X"],"state":"AZ","postal_code":"85746","city":"Tucson","address":"2831 W Drexel Rd","latitude":32.1479918,"longitude":-111.0275284,"location":"Grupo Tres Legados Meeting Place","region":"Tucson South, Southwest","url":"https://aatucson.org/meetings/sunday-grupos-tres-legados/","timezone":"America/Phoenix"},{"feed":"aamesaaz.org","slug":"arbor-group-click-for-note","name":"Arbor Group","day":0,"time":"12:00","end_time":"13:00","types":["O"],"state":"AZ","postal_code":"85208","city":"Mesa","address":"612 S Ellsworth Rd","latitude":33.4036958,"longitude":-111.6337163,"location":"Our Saviour's Lutheran","region":"Mesa","url":"https://aamesaaz.org/meetings/arbor-group-click-for-note/","timezone":"America/Phoenix"},{"feed":"prescottaa.org","slug":"chino-valley-speakers","name":"Chino Valley Speakers","day":0,"time":"12:00","end_time":"13:00","types":["O","SP"],"state":"AZ","postal_code":"86323","city":"Chino Valley","address":"318 W Perkinsville Rd","latitude":34.7714772,"longitude":-112.4541714,"location":"AA Meeting Place","region":"Chino Valley","notes":"1st and 3rd Sunday of each Month","url":"https://prescottaa.org/meetings/chino-valley-speakers/","timezone":"America/Phoenix"},{"feed":"aamesaaz.org","slug":"courage-to-change-11th-step","name":"Courage To Change *11th Step*","day":0,"time":"12:00","types":["O"],"state":"AZ","postal_code":"85201","city":"Mesa","address":"805 N Country Club Dr","latitude":33.4299335,"longitude":-111.8389915,"location":"First Christian Church","region":"Mesa","url":"https://aamesaaz.org/meetings/courage-to-change-11th-step/","timezone":"America/Phoenix"},{"feed":"aamesaaz.org","slug":"easy-does-it-step-10-11","name":"Easy Does It Step 10 &amp; 11","day":0,"time":"12:00","types":["O","TR"],"state":"AZ","postal_code":"85203","city":"Mesa","address":"1933 E University Dr #24","latitude":33.4221257,"longitude":-111.7891338,"location":"Easy Does It","region":"Mesa","url":"https://aamesaaz.org/meetings/easy-does-it-step-10-11/","timezone":"America/Phoenix"},{"feed":"aatucson.org","slug":"green-valley-nooners-3-2","name":"Green Valley Nooners","day":0,"time":"12:00","end_time":"13:00","types":["D","O","X"],"state":"AZ","postal_code":"85614","city":"Green Valley","address":"880 W Camino Casa Verde","latitude":31.885674,"longitude":-111.0052673,"location":"Green Valley Alano Club","region":"Pima County Far South (Green Valley, Sahuarita)","url":"https://aatucson.org/meetings/green-valley-nooners-3-2/","timezone":"America/Phoenix"},{"feed":"aamesaaz.org","slug":"grupo-un-dia-la-vez","name":"Grupo Un Dia La Vez","day":0,"time":"12:00","types":["O","S"],"state":"AZ","postal_code":"85201","city":"Mesa","address":"340 W University Dr","latitude":33.4225679,"longitude":-111.8394137,"location":"340 W University Rd #4","region":"Mesa","url":"https://aamesaaz.org/meetings/grupo-un-dia-la-vez/","timezone":"America/Phoenix"},{"feed":"flagstaffaa.org","slug":"high-nooners","name":"High Nooners","day":0,"time":"12:00","types":["O"],"state":"AZ","postal_code":"86004","city":"Flagstaff","address":"2102 E 3rd Ave","latitude":35.207808,"longitude":-111.617607,"location":"Alano Club","region":"Flagstaff","url":"https://flagstaffaa.org/meetings/high-nooners/","timezone":"America/Phoenix"},{"feed":"aamesaaz.org","slug":"hope-for-today-zoom-group","name":"Hope For Today Zoom Group","day":0,"time":"12:00","end_time":"13:00","types":["C","MED","ONL"],"state":"AZ","city":"Chandler","latitude":33.3061605,"longitude":-111.8412502,"location":"Online Chandler","region":"Chandler","notes":"Zoom ID: 565 093 9457\nPasscode: rRr1eh\nDial Up Passcode: 404284","conference_url":"https://zoom.us/j/5650939457","url":"https://aamesaaz.org/meetings/hope-for-today-zoom-group/","timezone":"America/Phoenix"},{"feed":"prescottaa.org","slug":"lunch-bunch-3","name":"Lunch Bunch","day":0,"time":"12:00","end_time":"13:00","types":["O","D"],"state":"AZ","postal_code":"86301","city":"Prescott","address":"520 W Delano Ave","latitude":34.5721088,"longitude":-112.4712643,"location":"Safe Harbor","region":"Prescott","url":"https://prescottaa.org/meetings/lunch-bunch-3/","timezone":"America/Phoenix"},{"feed":"prescottaa.org","slug":"mile-marker-334","name":"Mile Marker 334","day":0,"time":"12:00","end_time":"13:00","types":["O","D"],"state":"AZ","postal_code":"86323","city":"Chino Valley","address":"6675 AZ-89","latitude":34.84513,"longitude":-112.464718,"location":"Paulden AA Meeting Place","region":"Paulden","url":"https://prescottaa.org/meetings/mile-marker-334/","timezone":"America/Phoenix"},{"feed":"aamesaaz.org","slug":"miracle-house-group-13","name":"Miracle House Group","day":0,"time":"12:00","end_time":"13:00","types":["D","O"],"state":"AZ","postal_code":"85122","city":"Casa Grande","address":"204 E 3rd St","latitude":32.87751,"longitude":-111.7519302,"location":"Miracle House","region":"Casa Grande","notes":"Non-smoking","url":"https://aamesaaz.org/meetings/miracle-house-group-13/","group":"Miracle House","timezone":"America/Phoenix"},{"feed":"flagstaffaa.org","slug":"noners-online-aa-meeting-2","name":"Noners Online","day":0,"time":"12:00","end_time":"13:00","types":["O","ONL"],"state":"AZ","city":"Flagstaff","latitude":35.1982836,"longitude":-111.651302,"location":"Online Meeting","region":"Flagstaff","notes":"Zoom meeting ID# 894 7053 5108\n\nPassword: Noners (with a capital \"N\")","conference_url":"https://us02web.zoom.us/j/89470535108","url":"https://flagstaffaa.org/meetings/noners-online-aa-meeting-2/","timezone":"America/Phoenix"},{"feed":"prescottaa.org","slug":"pv-sunday-nooners","name":"PV Sunday Nooners","day":0,"time":"12:00","end_time":"13:00","types":["O","D","ONL"],"state":"AZ","city":"Prescott Valley","latitude":34.6100243,"longitude":-112.315721,"location":"Prescott Valley, AZ","region":"Prescott Valley","conference_url":"https://us02web.zoom.us/j/86523472028","url":"https://prescottaa.org/meetings/pv-sunday-nooners/","timezone":"America/Phoenix"},{"feed":"aamesaaz.org","slug":"road-to-recovery-3","name":"Road To Recovery","day":0,"time":"12:00","types":["O","ST","TR"],"state":"AZ","postal_code":"85205","city":"Mesa","address":"6134 E Main St #102","latitude":33.4169382,"longitude":-111.6984597,"location":"Road To Recovery","region":"Mesa","url":"https://aamesaaz.org/meetings/road-to-recovery-3/","timezone":"America/Phoenix"},{"feed":"aamesaaz.org","slug":"san-tan-group-click-for-note-2","name":"Line By Line","day":0,"time":"12:00","end_time":"13:00","types":["B","O"],"state":"AZ","postal_code":"85142","city":"Queen Creek","address":"19729 E San Tan Blvd","latitude":33.2117362,"longitude":-111.656973,"location":"Queen Creek Meeting House","region":"Queen Creek","url":"https://aamesaaz.org/meetings/san-tan-group-click-for-note-2/","timezone":"America/Phoenix"},{"feed":"aatucson.org","slug":"sunday-midday-meeting","name":"Midday Meeting","day":0,"time":"12:00","end_time":"13:00","types":["D","O","SM","X"],"state":"AZ","postal_code":"85712","city":"Tucson","address":"4405 E Pima St","latitude":32.2437111,"longitude":-110.8988527,"location":"Pima Alano Club","region":"Tucson Midtown","url":"https://aatucson.org/meetings/sunday-midday-meeting/","timezone":"America/Phoenix"},{"feed":"prescottaa.org","slug":"sunday-nooners","name":"Sunday Nooners","day":0,"time":"12:00","end_time":"13:00","types":["C","12x12","D"],"state":"AZ","postal_code":"86314","city":"Prescott Valley","address":"2651 N Industrial Way","latitude":34.5810473,"longitude":-112.2979187,"location":"Stepping Stones","region":"Prescott Valley","notes":"Step Study,Suite A","url":"https://prescottaa.org/meetings/sunday-nooners/","timezone":"America/Phoenix"},{"feed":"aatucson.org","slug":"sunday-smoke-free-nooners","name":"Smoke Free Nooners Group","day":0,"time":"12:00","end_time":"13:00","types":["D","O","X"],"state":"AZ","postal_code":"85719","city":"Tucson","address":"3620 N 1st Ave #148","latitude":32.2724162,"longitude":-110.9602104,"location":"Smoke Free Nooners","region":"Tucson Midtown","url":"https://aatucson.org/meetings/sunday-smoke-free-nooners/","group":"Smoke Free Nooners","timezone":"America/Phoenix"},{"feed":"aatucson.org","slug":"sunday-stone-sober-group","name":"Stone Sober Group","day":0,"time":"12:00","end_time":"13:00","types":["B","O","X"],"state":"AZ","postal_code":"85705","city":"Tucson","address":"610 E Delano St #103","latitude":32.2629676,"longitude":-110.9617945,"location":"Stone Sober Meeting Place","region":"Tucson Midtown","url":"https://aatucson.org/meetings/sunday-stone-sober-group/","group":"Stone Sober","timezone":"America/Phoenix"},{"feed":"aamesaaz.org","slug":"the-society-group-2","name":"The Society Group","day":0,"time":"12:00","types":["O"],"state":"AZ","postal_code":"85207","city":"Mesa","address":"9333 E Main St","latitude":33.4145213,"longitude":-111.6290654,"location":"The Society #125","region":"Mesa","url":"https://aamesaaz.org/meetings/the-society-group-2/","timezone":"America/Phoenix"},{"feed":"aatucson.org","slug":"twelve-at-twelve-group-3","name":"12 @ 12","day":0,"time":"12:00","end_time":"13:00","types":["D","O","X"],"state":"AZ","postal_code":"85705","city":"Tucson","address":"3120 W Curtis Rd","latitude":32.301893,"longitude":-111.0340211,"location":"Northwest Alano Club","region":"Tucson Northwest (Marana, Oro-Valley)","notes":"Meets in the main meeting room","url":"https://aatucson.org/meetings/twelve-at-twelve-group-3/","timezone":"America/Phoenix"},{"feed":"aamesaaz.org","slug":"some-are-sicker-than-others","name":"Some Are Sicker Than Others","day":0,"time":"12:05","types":["O"],"state":"AZ","postal_code":"85210","city":"Mesa","address":"145 E 1st Ave","latitude":33.4124824,"longitude":-111.827165,"location":"Mesa Alano Club","region":"Mesa","url":"https://aamesaaz.org/meetings/some-are-sicker-than-others/","timezone":"America/Phoenix"},{"feed":"centralmountain.org","slug":"groupo-ganas-vivir-4","name":"Groupo Ganas De Vivir","day":0,"time":"13:00","end_time":"14:30","types":["D","O","S","X"],"state":"AZ","postal_code":"86326","city":"Cottonwood","address":"1309 E Cherry St","latitude":34.7317443,"longitude":-112.0125448,"location":"Cottonwood ALANO Club","region":"Cottonwood","url":"https://centralmountain.org/meetings/groupo-ganas-vivir-4/","timezone":"America/Phoenix"},{"feed":"aatucson.org","slug":"little-house-meeting-2","name":"Little House Meeting","day":0,"time":"13:00","end_time":"14:00","state":"AZ","postal_code":"85713","city":"Tucson","address":"2109 S 6th Ave","latitude":32.1972976,"longitude":-110.9681855,"location":"Little House","region":"Tucson South, Southwest","url":"https://aatucson.org/meetings/little-house-meeting-2/","timezone":"America/Phoenix"},{"feed":"aatucson.org","slug":"sunday-afternoon-big-book-meeting","name":"Sunday Afternoon Big Book Meeting","day":0,"time":"13:00","end_time":"14:00","types":["B","O","X"],"state":"AZ","postal_code":"85711","city":"Tucson","address":"6061 E Broadway Blvd #127","latitude":32.2229073,"longitude":-110.8627892,"location":"Eastside Meeting Place","region":"Tucson East, Northeast","notes":"Big Book Tapes","url":"https://aatucson.org/meetings/sunday-afternoon-big-book-meeting/","timezone":"America/Phoenix"},{"feed":"aatucson.org","slug":"middle-of-the-boat","name":"Middle of the Boat","day":0,"time":"13:07","end_time":"14:07","types":["B","D","BE","O","X","XB","W"],"state":"AZ","postal_code":"85712","city":"Tucson","address":"4405 E Pima St","latitude":32.2437111,"longitude":-110.8988527,"location":"Pima Alano Club","region":"Tucson Midtown","notes":"Meets in the annex","url":"https://aatucson.org/meetings/middle-of-the-boat/","timezone":"America/Phoenix"},{"feed":"aamesaaz.org","slug":"we-agnostics","name":"We Agnostics","day":0,"time":"13:30","types":["O","A","X"],"state":"AZ","postal_code":"85282","city":"Tempe","address":"4415 S Rural Rd","latitude":33.3837874,"longitude":-111.924951,"location":"The Pigeon Coop","region":"Tempe","url":"https://aamesaaz.org/meetings/we-agnostics/","timezone":"America/Phoenix"},{"feed":"aamesaaz.org","slug":"abc-group","name":"ABC Group","day":0,"time":"14:30","types":["O"],"state":"AZ","postal_code":"85210","city":"Mesa","address":"145 E 1st Ave","latitude":33.4124824,"longitude":-111.827165,"location":"Mesa Alano Club","region":"Mesa","url":"https://aamesaaz.org/meetings/abc-group/","timezone":"America/Phoenix"},{"feed":"aamesaaz.org","slug":"11th-step-womens-meditation","name":"11th Step Women's Meditation","day":0,"time":"15:00","end_time":"16:00","types":["C","W"],"state":"AZ","postal_code":"85142","city":"Queen Creek","address":"19729 E San Tan Blvd","latitude":33.2117362,"longitude":-111.656973,"location":"Queen Creek Meeting House","region":"Queen Creek","url":"https://aamesaaz.org/meetings/11th-step-womens-meditation/","timezone":"America/Phoenix"},{"feed":"aamesaaz.org","slug":"g-i-t-group-2","name":"G-I-T Group Newcomers","day":0,"time":"15:00","types":["BE","O"],"state":"AZ","postal_code":"85202","city":"Mesa","address":"2121 W Guadalupe Rd #1","latitude":33.3629379,"longitude":-111.8791127,"location":"G I T","region":"Mesa","url":"https://aamesaaz.org/meetings/g-i-t-group-2/","timezone":"America/Phoenix"},{"feed":"aamesaaz.org","slug":"hand-of-aa","name":"Hand of AA","day":0,"time":"15:00","end_time":"16:00","types":["O"],"state":"AZ","postal_code":"85224","city":"Chandler","address":"812 W Warner Rd Suite C","latitude":33.3376082,"longitude":-111.8558338,"location":"Boxout AZ","region":"Chandler","url":"https://aamesaaz.org/meetings/hand-of-aa/","timezone":"America/Phoenix"},{"feed":"prescottaa.org","slug":"red-road-to-recovery","name":"Red Road to Recovery","day":0,"time":"15:00","end_time":"16:00","types":["O","D"],"state":"AZ","postal_code":"86314","city":"Prescott Valley","address":"2651 N Industrial Way","latitude":34.5810473,"longitude":-112.2979187,"location":"Stepping Stones","region":"Prescott Valley","notes":"Suite A","url":"https://prescottaa.org/meetings/red-road-to-recovery/","timezone":"America/Phoenix"},{"feed":"aamesaaz.org","slug":"the-society-group-online-2-2-2-2-2-2-2-2","name":"The Society Newcomers Meeting","day":0,"time":"15:00","end_time":"16:00","types":["BE","O"],"state":"AZ","postal_code":"85207","city":"Mesa","address":"9333 E Main St","latitude":33.4145213,"longitude":-111.6290654,"location":"The Society #125","region":"Mesa","url":"https://aamesaaz.org/meetings/the-society-group-online-2-2-2-2-2-2-2-2/","timezone":"America/Phoenix"},{"feed":"aatucson.org","slug":"afternoon-team-daily-womens-group-2","name":"AAfternoon Tea Daily Women's Meeting","day":0,"time":"15:30","end_time":"16:30","types":["CF","GR","LIT","MED","O","W"],"state":"AZ","postal_code":"85711","city":"Tucson","address":"6061 E Broadway Blvd #127","latitude":32.2229073,"longitude":-110.8627892,"location":"Eastside Meeting Place","region":"Tucson East, Northeast","notes":"Grapevine Prayer & Meditation Book, Journaling","url":"https://aatucson.org/meetings/afternoon-team-daily-womens-group-2/","timezone":"America/Phoenix"},{"feed":"aamesaaz.org","slug":"miracle-house-group-15","name":"Miracle House Group","day":0,"time":"15:30","end_time":"16:30","types":["D","O","W"],"state":"AZ","postal_code":"85122","city":"Casa Grande","address":"204 E 3rd St","latitude":32.87751,"longitude":-111.7519302,"location":"Miracle House","region":"Casa Grande","notes":"Non-smoking","url":"https://aamesaaz.org/meetings/miracle-house-group-15/","group":"Miracle House","timezone":"America/Phoenix"},{"feed":"aamesaaz.org","slug":"easy-does-it-beginners","name":"Easy Does It","day":0,"time":"16:00","types":["LIT","O"],"state":"AZ","postal_code":"85203","city":"Mesa","address":"1933 E University Dr #24","latitude":33.4221257,"longitude":-111.7891338,"location":"Easy Does It","region":"Mesa","url":"https://aamesaaz.org/meetings/easy-does-it-beginners/","timezone":"America/Phoenix"},{"feed":"centralmountain.org","slug":"keep-coming-back","name":"Keep Coming Back","day":0,"time":"16:00","end_time":"17:00","types":["D","O","ST"],"state":"AZ","postal_code":"86326","city":"Cottonwood","address":"1309 E Cherry St","latitude":34.7317443,"longitude":-112.0125448,"location":"Cottonwood ALANO Club","region":"Cottonwood","url":"https://centralmountain.org/meetings/keep-coming-back/","timezone":"America/Phoenix"},{"feed":"aatucson.org","slug":"smoke-free-nooners-a-vision-for-her","name":"Smoke Free Nooners A Vision for Her","day":0,"time":"16:00","end_time":"17:00","types":["W"],"state":"AZ","postal_code":"85719","city":"Tucson","address":"3620 N 1st Ave #148","latitude":32.2724162,"longitude":-110.9602104,"location":"Smoke Free Nooners","region":"Tucson Midtown","url":"https://aatucson.org/meetings/smoke-free-nooners-a-vision-for-her/","timezone":"America/Phoenix"},{"feed":"aamesaaz.org","slug":"sun-afternoon-step-study-click-for-note","name":"Sunday Afternoon Steps and Traditions","day":0,"time":"16:00","end_time":"17:00","types":["BE","O","ST"],"state":"AZ","postal_code":"85282","city":"Tempe","address":"2222 S Price Rd","latitude":33.4033578,"longitude":-111.8932277,"location":"Church of Epiphany","region":"Tempe","url":"https://aamesaaz.org/meetings/sun-afternoon-step-study-click-for-note/","timezone":"America/Phoenix"},{"feed":"aatucson.org","slug":"sunday-sober-living-group","name":"Sober Living Group","day":0,"time":"16:00","end_time":"17:00","types":["D","O","X"],"state":"AZ","postal_code":"85712","city":"Tucson","address":"4405 E Pima St","latitude":32.2437111,"longitude":-110.8988527,"location":"Pima Alano Club","region":"Tucson Midtown","url":"https://aatucson.org/meetings/sunday-sober-living-group/","group":"Sober Living Group","timezone":"America/Phoenix"},{"feed":"aamesaaz.org","slug":"the-broad-highway","name":"The Broad Highway","day":0,"time":"16:00","end_time":"17:00","types":["LGBTQ","MED","BE","O","A","W","Y"],"state":"AZ","postal_code":"85282","city":"Tempe","address":"4415 S Rural Rd #8","latitude":33.383976,"longitude":-111.9249813,"location":"The Pigeon Coop","region":"Tempe","notes":"This meeting uses various non A.A. produced literature for discussion.","url":"https://aamesaaz.org/meetings/the-broad-highway/","timezone":"America/Phoenix"},{"feed":"aatucson.org","slug":"jaywalkers-group","name":"Jaywalkers Group","day":0,"time":"16:35","end_time":"17:35","types":["D","LIT","O","SP","X","ONL"],"state":"AZ","postal_code":"85705","city":"Tucson","address":"2902 N Geronimo Ave","latitude":32.260046,"longitude":-110.9646811,"location":"Cornerstone Fellowship Church","region":"Tucson Midtown","notes":"Zoom Meeting\nhttps://zoom.us/j/9981771371\nPasscode: 1234\nTo dial in: 1-669-900-6883,\nMeeting ID 9981771371","conference_url":"https://us02web.zoom.us/j/9981771371?pwd=c29zbDhnMnJ3R05iMnZaMTNFempsQT09","url":"https://aatucson.org/meetings/jaywalkers-group/","timezone":"America/Phoenix"},{"feed":"aatucson.org","slug":"pink-triangle-group-2","name":"Pink Triangle Group","day":0,"time":"17:00","end_time":"18:00","types":["B","D","G","L","LGBTQ"],"state":"AZ","postal_code":"85716","city":"Tucson","address":"3809 E 3rd St","latitude":32.2333495,"longitude":-110.9121044,"location":"St Mark's Presbyterian Church","region":"Tucson Midtown","notes":"Enter off 2rd Street\nMeeting is in the Geneva room","url":"https://aatucson.org/meetings/pink-triangle-group-2/","timezone":"America/Phoenix"},{"feed":"aamesaaz.org","slug":"sacaton-original","name":"Sacaton Original","day":0,"time":"17:00","end_time":"18:00","types":["O"],"state":"AZ","postal_code":"85147","city":"Sacaton","address":"Church St","latitude":33.0800655,"longitude":-111.7415847,"location":"Sacaton District 3 Service Center","region":"Sacaton","url":"https://aamesaaz.org/meetings/sacaton-original/","timezone":"America/Phoenix"},{"feed":"aatucson.org","slug":"stone-sober-sisters-in-sobriety","name":"Stone Sober Sisters in Sobriety","day":0,"time":"17:00","end_time":"18:00","types":["CF","D","LIT","O","SP","X","XB","W","EN"],"state":"AZ","postal_code":"85705","city":"Tucson","address":"610 E Delano St #103","latitude":32.2629676,"longitude":-110.9617945,"location":"Stone Sober Meeting Place","region":"Tucson Midtown","url":"https://aatucson.org/meetings/stone-sober-sisters-in-sobriety/","timezone":"America/Phoenix"},{"feed":"aatucson.org","slug":"sunday-aa-meeting","name":"Sunday AA Meeting","day":0,"time":"17:00","end_time":"18:00","types":["DR","ONL"],"state":"AZ","city":"Tucson","latitude":32.2539787,"longitude":-110.9741769,"location":"Online Meeting","region":"Tucson Midtown","notes":"Meeting ID: 86464456974\nPW 12steps","conference_url":"https://us02web.zoom.us/j/86464456974","url":"https://aatucson.org/meetings/sunday-aa-meeting/","timezone":"America/Phoenix"},{"feed":"aamesaaz.org","slug":"bloopers-1212-study","name":"Bloopers 12&amp;12 Study","day":0,"time":"17:30","types":["O","TR"],"state":"AZ","postal_code":"85283","city":"Tempe","address":"1859 E Baseline Rd","latitude":33.3773185,"longitude":-111.9058937,"location":"Bloopers","region":"Tempe","url":"https://aamesaaz.org/meetings/bloopers-1212-study/","timezone":"America/Phoenix"},{"feed":"aamesaaz.org","slug":"courage-to-change-2","name":"Courage To Change","day":0,"time":"17:30","types":["SP"],"state":"AZ","postal_code":"85201","city":"Mesa","address":"805 N Country Club Dr","latitude":33.4299335,"longitude":-111.8389915,"location":"First Christian Church","region":"Mesa","url":"https://aamesaaz.org/meetings/courage-to-change-2/","timezone":"America/Phoenix"},{"feed":"aamesaaz.org","slug":"easy-does-it-bb","name":"Easy Does It BB","day":0,"time":"17:30","types":["B","O"],"state":"AZ","postal_code":"85203","city":"Mesa","address":"1933 E University Dr #24","latitude":33.4221257,"longitude":-111.7891338,"location":"Easy Does It","region":"Mesa","url":"https://aamesaaz.org/meetings/easy-does-it-bb/","timezone":"America/Phoenix"},{"feed":"aamesaaz.org","slug":"g-i-t-group-men","name":"G-I-T Group Men","day":0,"time":"17:30","types":["C","M"],"state":"AZ","postal_code":"85202","city":"Mesa","address":"2121 W Guadalupe Rd #1","latitude":33.3629379,"longitude":-111.8791127,"location":"G I T","region":"Mesa","url":"https://aamesaaz.org/meetings/g-i-t-group-men/","timezone":"America/Phoenix"},{"feed":"aamesaaz.org","slug":"happy-destiny-group","name":"Happy Destiny Book Study","day":0,"time":"17:30","end_time":"18:30","types":["LIT","O"],"state":"AZ","postal_code":"85122","city":"Casa Grande","address":"1428 N Pueblo Dr","latitude":32.889082,"longitude":-111.7348601,"location":"United Methodist Church","region":"Casa Grande","notes":"Non-smoking","url":"https://aamesaaz.org/meetings/happy-destiny-group/","group":"Happy Destiny","timezone":"America/Phoenix"},{"feed":"flagstaffaa.org","slug":"happy-hour","name":"Happy Hour","day":0,"time":"17:30","types":["O"],"state":"AZ","postal_code":"86001","city":"Flagstaff","address":"1800 S Milton Rd #103","latitude":35.1823081,"longitude":-111.6597976,"location":"Unity Church","region":"Flagstaff","url":"https://flagstaffaa.org/meetings/happy-hour/","timezone":"America/Phoenix"},{"feed":"flagstaffaa.org","slug":"happy-hour-online-8","name":"Happy Hour Online","day":0,"time":"17:30","end_time":"18:30","types":["O","ONL"],"state":"AZ","city":"Flagstaff","latitude":35.1982836,"longitude":-111.651302,"location":"Online Meeting","region":"Flagstaff","notes":"Meeting password is 928 928 1234, same as meeting ID#.","conference_url":"https://us02web.zoom.us/j/9289281234","url":"https://flagstaffaa.org/meetings/happy-hour-online-8/","timezone":"America/Phoenix"},{"feed":"aatucson.org","slug":"happy-joyous-and-free-2-3","name":"Happy, Joyous and Free","day":0,"time":"17:30","end_time":"18:30","types":["D","O","X"],"state":"AZ","postal_code":"85712","city":"Tucson","address":"4405 E Pima St","latitude":32.2437111,"longitude":-110.8988527,"location":"Pima Alano Club","region":"Tucson Midtown","url":"https://aatucson.org/meetings/happy-joyous-and-free-2-3/","timezone":"America/Phoenix"},{"feed":"aamesaaz.org","slug":"miracle-house-group-14","name":"Miracle House Group","day":0,"time":"17:30","end_time":"18:30","types":["D","O"],"state":"AZ","postal_code":"85122","city":"Casa Grande","address":"204 E 3rd St","latitude":32.87751,"longitude":-111.7519302,"location":"Miracle House","region":"Casa Grande","notes":"Non-smoking","url":"https://aamesaaz.org/meetings/miracle-house-group-14/","group":"Miracle House","timezone":"America/Phoenix"},{"feed":"prescottaa.org","slug":"prescott-group","name":"Prescott Group","day":0,"time":"17:30","end_time":"18:30","types":["C","12x12","B"],"state":"AZ","postal_code":"86301","city":"Prescott","address":"505 W Gurley St","latitude":34.5418263,"longitude":-112.4754784,"location":"United Methodist Church","region":"Prescott","notes":"Steed Room","url":"https://prescottaa.org/meetings/prescott-group/","timezone":"America/Phoenix"},{"feed":"aamesaaz.org","slug":"road-to-recovery-4","name":"Road To Recovery","day":0,"time":"17:30","types":["O"],"state":"AZ","postal_code":"85205","city":"Mesa","address":"6134 E Main St #102","latitude":33.4169382,"longitude":-111.6984597,"location":"Road To Recovery","region":"Mesa","url":"https://aamesaaz.org/meetings/road-to-recovery-4/","timezone":"America/Phoenix"},{"feed":"aatucson.org","slug":"smoke-free-nooners-group-2-2-2-2-2-2-2","name":"Smoke Free Nooners Group","day":0,"time":"17:30","end_time":"18:30","types":["D","O","X"],"state":"AZ","postal_code":"85719","city":"Tucson","address":"3620 N 1st Ave #148","latitude":32.2724162,"longitude":-110.9602104,"location":"Smoke Free Nooners","region":"Tucson Midtown","url":"https://aatucson.org/meetings/smoke-free-nooners-group-2-2-2-2-2-2-2/","timezone":"America/Phoenix"},{"feed":"aamesaaz.org","slug":"step-by-step-men-click-for-note","name":"Step By Step","day":0,"time":"17:30","end_time":"18:30","types":["O"],"state":"AZ","postal_code":"85210","city":"Mesa","address":"145 E 1st Ave","latitude":33.4124824,"longitude":-111.827165,"location":"Mesa Alano Club","region":"Mesa","url":"https://aamesaaz.org/meetings/step-by-step-men-click-for-note/","timezone":"America/Phoenix"},{"feed":"aatucson.org","slug":"sunday-honest-open-and-free","name":"Honest, Open, & Free Group","day":0,"time":"17:30","end_time":"18:30","types":["ABSI","O","X"],"state":"AZ","postal_code":"85711","city":"Tucson","address":"6061 E Broadway Blvd #127","latitude":32.2229073,"longitude":-110.8627892,"location":"Eastside Meeting Place","region":"Tucson East, Northeast","url":"https://aatucson.org/meetings/sunday-honest-open-and-free/","timezone":"America/Phoenix"},{"feed":"aatucson.org","slug":"sunday-spiritual-kindergarten-meeting","name":"Spiritual Kindergarten Meeting","day":0,"time":"17:30","end_time":"18:30","types":["D","O","X"],"state":"AZ","postal_code":"85713","city":"Tucson","address":"5900 S Western Way Cir","latitude":32.1875027,"longitude":-111.0914881,"location":"Tucson Estates Game Room","region":"Tucson South, Southwest","url":"https://aatucson.org/meetings/sunday-spiritual-kindergarten-meeting/","timezone":"America/Phoenix"},{"feed":"aamesaaz.org","slug":"the-society-group-3","name":"The Society Group","day":0,"time":"17:30","types":["O"],"state":"AZ","postal_code":"85207","city":"Mesa","address":"9333 E Main St","latitude":33.4145213,"longitude":-111.6290654,"location":"The Society #125","region":"Mesa","url":"https://aamesaaz.org/meetings/the-society-group-3/","timezone":"America/Phoenix"},{"feed":"aamesaaz.org","slug":"11th-step-candlelight","name":"11th Step Candlelight - Hybrid","day":0,"time":"18:00","types":["C","MED","ST","ONL"],"state":"AZ","postal_code":"85284","city":"Tempe","address":"1565 E Warner Rd #203b","latitude":33.3335603,"longitude":-111.9144285,"location":"Mission del Sol Church -","region":"Tempe","notes":"Zoom ID 8314 9788 488\nPasscode 063533","conference_url":"https://zoom.us/j/83149788488","url":"https://aamesaaz.org/meetings/11th-step-candlelight/","timezone":"America/Phoenix"},{"feed":"flagstaffaa.org","slug":"agape-12-and-12","name":"Agape 12 and 12","day":0,"time":"18:00","end_time":"19:00","types":["12x12","O"],"state":"AZ","postal_code":"86001","city":"Flagstaff","address":"402 S Beaver St","latitude":35.1931429,"longitude":-111.6521157,"location":"Quaker Meeting Hall","region":"Flagstaff","url":"https://flagstaffaa.org/meetings/agape-12-and-12/","timezone":"America/Phoenix"},{"feed":"flagstaffaa.org","slug":"agape-zoom-step-study","name":"Agape Zoom","day":0,"time":"18:00","end_time":"19:00","types":["O","ST","ONL"],"state":"AZ","city":"Flagstaff","latitude":35.1982836,"longitude":-111.651302,"location":"Online Meeting","region":"Flagstaff","notes":"Step Study.\n\nZoom Password is 654 618.","conference_url":"https://us02web.zoom.us/j/81414435885","url":"https://flagstaffaa.org/meetings/agape-zoom-step-study/","timezone":"America/Phoenix"},{"feed":"aatucson.org","slug":"fireball-2","name":"Fireball","day":0,"time":"18:00","end_time":"19:00","types":["D","LIT","O","SP"],"state":"AZ","postal_code":"85712","city":"Tucson","address":"4405 E Pima St","latitude":32.2437111,"longitude":-110.8988527,"location":"Pima Alano Club","region":"Tucson Midtown","notes":"First Sunday of the month is a 15 min speaker and then ticket and the remaining 3 weeks are full ticket meetings","url":"https://aatucson.org/meetings/fireball-2/","timezone":"America/Phoenix"},{"feed":"aatucson.org","slug":"lodestar-of-hope-group","name":"Lodestar of Hope Group","day":0,"time":"18:00","end_time":"19:00","types":["MED","O","X"],"state":"AZ","postal_code":"85704","city":"Oro Valley","address":"1401 E El Conquistador Way","latitude":32.3878568,"longitude":-110.9520052,"location":"United Church of Christ","region":"Tucson Northwest (Marana, Oro-Valley)","url":"https://aatucson.org/meetings/lodestar-of-hope-group/","timezone":"America/Phoenix"},{"feed":"aamesaaz.org","slug":"putting-god-first-4","name":"Putting God First - Hybrid","day":0,"time":"18:00","end_time":"19:00","types":["O","ONL"],"state":"AZ","postal_code":"85202","city":"Mesa","address":"2540 W Baseline Rd","latitude":33.3794268,"longitude":-111.886482,"location":"St. Matthew's Methodist","region":"Mesa","notes":"ID 4892953485\nPassword 1212","conference_url":"https://zoom.us/j/4892953485","url":"https://aamesaaz.org/meetings/putting-god-first-4/","timezone":"America/Phoenix"},{"feed":"aatucson.org","slug":"sunday-weeknight-newcomers-group","name":"Weeknight Newcomers Group","day":0,"time":"18:00","end_time":"19:00","types":["D","BE","O","X"],"state":"AZ","postal_code":"85705","city":"Tucson","address":"3120 W Curtis Rd","latitude":32.301893,"longitude":-111.0340211,"location":"Northwest Alano Club","region":"Tucson Northwest (Marana, Oro-Valley)","notes":"Meets in main meeting room","url":"https://aatucson.org/meetings/sunday-weeknight-newcomers-group/","timezone":"America/Phoenix"},{"feed":"flagstaffaa.org","slug":"sunset-group","name":"Sunset Group","day":0,"time":"18:00","types":["O"],"state":"AZ","postal_code":"86004","city":"Flagstaff","address":"2102 E 3rd Ave","latitude":35.207808,"longitude":-111.617607,"location":"Alano Club","region":"Flagstaff","url":"https://flagstaffaa.org/meetings/sunset-group/","timezone":"America/Phoenix"},{"feed":"aamesaaz.org","slug":"tumbleweeds-2","name":"Tumbleweeds","day":0,"time":"18:00","end_time":"19:00","types":["O"],"state":"AZ","postal_code":"85225","city":"Chandler","address":"901 W Erie St","latitude":33.309012,"longitude":-111.8573427,"location":"St. Matthew's Episcopal Church","region":"Chandler","url":"https://aamesaaz.org/meetings/tumbleweeds-2/","timezone":"America/Phoenix"},{"feed":"aatucson.org","slug":"week-night-newcomers-virtual-meeting-zoom-2-2-2-2-2-2","name":"Nightly Newcomers Meeting","day":0,"time":"18:00","end_time":"19:00","types":["D","O","ONL"],"state":"AZ","city":"Tucson","latitude":32.2539787,"longitude":-110.9741769,"location":"Online Meeting","region":"Tucson Midtown","notes":"Zoom Meeting please download the app prior to the meeting. Password 288505\nModerators please use suggested settings below in location notes\nTO DIAL IN: 1-669-900-6833,,7554947271,,,#\nOR\n1-346-2487799,,7554947271#,,,#","conference_url":"https://zoom.us/j/7554947271","url":"https://aatucson.org/meetings/week-night-newcomers-virtual-meeting-zoom-2-2-2-2-2-2/","timezone":"America/Phoenix"},{"feed":"flagstaffaa.org","slug":"winslow-womens-meeting","name":"Winslow Women's Meeting","day":0,"time":"18:00","end_time":"19:00","types":["O","W"],"state":"AZ","postal_code":"86047","city":"Winslow","address":"1323 2nd St","latitude":35.0319555,"longitude":-110.7160825,"location":"Winslow Alano Club","region":"Winslow","url":"https://flagstaffaa.org/meetings/winslow-womens-meeting/","timezone":"America/Phoenix"},{"feed":"centralmountain.org","slug":"over-the-rainbow","name":"Over the Rainbow","day":0,"time":"18:30","end_time":"19:30","types":["D","G","O"],"state":"AZ","postal_code":"86336","city":"Sedona","address":"355 Jordan Rd","latitude":34.8717626,"longitude":-111.7614195,"location":"The Peace Place","region":"Sedona","url":"https://centralmountain.org/meetings/over-the-rainbow/","timezone":"America/Phoenix"},{"feed":"aamesaaz.org","slug":"bloopers-11th-step-meditation","name":"Bloopers 11th Step / Meditation","day":0,"time":"19:00","types":["O"],"state":"AZ","postal_code":"85283","city":"Tempe","address":"1859 E Baseline Rd","latitude":33.3773185,"longitude":-111.9058937,"location":"Bloopers","region":"Tempe","url":"https://aamesaaz.org/meetings/bloopers-11th-step-meditation/","timezone":"America/Phoenix"},{"feed":"centralmountain.org","slug":"camp-verde-group-candlelight-meeting-2","name":"Camp Verde Group, Candlelight Meeting","day":0,"time":"19:00","types":["D","O","X"],"state":"AZ","postal_code":"86322","city":"Camp Verde","address":"435 S Main St","latitude":34.5633201,"longitude":-111.8535355,"location":"Old Camp Verde High School","region":"Camp Verde","notes":"Room 205","url":"https://centralmountain.org/meetings/camp-verde-group-candlelight-meeting-2/","timezone":"America/Phoenix"},{"feed":"aamesaaz.org","slug":"easy-does-it","name":"Easy Does It*","day":0,"time":"19:00","types":["O"],"state":"AZ","postal_code":"85203","city":"Mesa","address":"1933 E University Dr #24","latitude":33.4221257,"longitude":-111.7891338,"location":"Easy Does It","region":"Mesa","notes":"*Second Sunday of the month is the Group conscience meeting.","url":"https://aamesaaz.org/meetings/easy-does-it/","timezone":"America/Phoenix"},{"feed":"flagstaffaa.org","slug":"first-assembly-of-god-church-sundays-at-700-pm","name":"First Assembly of God Church Sundays at 7:00 PM","day":0,"time":"19:00","types":["O"],"state":"AZ","postal_code":"86040","city":"Page","address":"263 S Lake Powell Blvd","latitude":36.9136507,"longitude":-111.4522156,"location":"First Assembly of God Church","region":"Page","url":"https://flagstaffaa.org/meetings/first-assembly-of-god-church-sundays-at-700-pm/","timezone":"America/Phoenix"},{"feed":"aatucson.org","slug":"freedom-group","name":"Freedom Group","day":0,"time":"19:00","end_time":"20:00","types":["D","O","X"],"state":"AZ","postal_code":"85711","city":"Tucson","address":"6061 E Broadway Blvd #127","latitude":32.2229073,"longitude":-110.8627892,"location":"Eastside Meeting Place","region":"Tucson East, Northeast","url":"https://aatucson.org/meetings/freedom-group/","timezone":"America/Phoenix"},{"feed":"aatucson.org","slug":"grapevine-study-meeting","name":"Grapevine Study Meeting","day":0,"time":"19:00","end_time":"20:00","types":["LIT","O","X"],"state":"AZ","postal_code":"85641","city":"Vail","address":"13260 E Colossal Cave Rd","latitude":32.0461816,"longitude":-110.7114317,"location":"Santa Rita in the Desert Parish","region":"Tucson South, Southeast (Vail, Corona)","url":"https://aatucson.org/meetings/grapevine-study-meeting/","timezone":"America/Phoenix"},{"feed":"aamesaaz.org","slug":"gratitude-group","name":"Gratitude Group","day":0,"time":"19:00","types":["O"],"state":"AZ","postal_code":"85248","city":"Sun Lakes","address":"25612 S E J Robson Blvd","latitude":33.2133532,"longitude":-111.8658056,"location":"Cottonwood Ceramics Room","region":"Sun Lakes","url":"https://aamesaaz.org/meetings/gratitude-group/","timezone":"America/Phoenix"},{"feed":"aatucson.org","slug":"grupo-empezar-a-vivir","name":"Grupo Empezar A Vivir","day":0,"time":"19:00","end_time":"20:30","types":["D","S"],"state":"AZ","postal_code":"85713","city":"Tucson","address":"2914 E 22nd St #2","latitude":32.2065887,"longitude":-110.9296375,"location":"Grupo Empezar A Vivir Meeting Place","region":"Tucson South, Southwest","notes":"Format not listed","url":"https://aatucson.org/meetings/grupo-empezar-a-vivir/","timezone":"America/Phoenix"},{"feed":"aamesaaz.org","slug":"grupo-liberacion","name":"Grupo Liberacion","day":0,"time":"19:00","types":["O","S"],"state":"AZ","postal_code":"85225","city":"Chandler","address":"77 W Chicago St","latitude":33.3002443,"longitude":-111.8425517,"location":"Grupo Liberacion","region":"Chandler","url":"https://aamesaaz.org/meetings/grupo-liberacion/","timezone":"America/Phoenix"},{"feed":"aamesaaz.org","slug":"grupo-sendero-de-vida-2","name":"Grupo Sendero De Vida","day":0,"time":"19:00","types":["O","S"],"state":"AZ","postal_code":"85202","city":"Mesa","address":"1911 W Broadway Rd","latitude":33.4071088,"longitude":-111.8726252,"location":"1911 W Broadway Rd. #19","region":"Mesa","url":"https://aamesaaz.org/meetings/grupo-sendero-de-vida-2/","timezone":"America/Phoenix"},{"feed":"aamesaaz.org","slug":"grupo-si-tu-quieres","name":"Grupo Si Tu Quieres","day":0,"time":"19:00","types":["O","S"],"state":"AZ","postal_code":"85282","city":"Tempe","address":"3400 S Mill Ave","latitude":33.3921157,"longitude":-111.9414433,"location":"3400 S. Mill Ave #122","region":"Tempe","url":"https://aamesaaz.org/meetings/grupo-si-tu-quieres/","timezone":"America/Phoenix"},{"feed":"prescottaa.org","slug":"playin-it-straight","name":"Playin' It Straight","day":0,"time":"19:00","end_time":"20:00","types":["O","D"],"state":"AZ","postal_code":"86323","city":"Chino Valley","address":"318 W Perkinsville Rd","latitude":34.7714772,"longitude":-112.4541714,"location":"AA Meeting Place","region":"Chino Valley","url":"https://prescottaa.org/meetings/playin-it-straight/","timezone":"America/Phoenix"},{"feed":"aamesaaz.org","slug":"queen-creek-big-book","name":"Queen Creek Big Book","day":0,"time":"19:00","types":["B","O"],"state":"AZ","postal_code":"85142","city":"Queen Creek","address":"19729 E San Tan Blvd","latitude":33.2117362,"longitude":-111.656973,"location":"Queen Creek Meeting House","region":"Queen Creek","url":"https://aamesaaz.org/meetings/queen-creek-big-book/","timezone":"America/Phoenix"},{"feed":"prescottaa.org","slug":"round-table","name":"Round Table","day":0,"time":"19:00","end_time":"20:00","types":["O","D"],"state":"AZ","postal_code":"86301","city":"Prescott","address":"3755 Willow Creek Rd","latitude":34.6183541,"longitude":-112.4430229,"location":"Center for Spiritual Living","region":"Prescott","url":"https://prescottaa.org/meetings/round-table/","timezone":"America/Phoenix"},{"feed":"aamesaaz.org","slug":"sun-nt-bb-step-study-click-for-note","name":"Sunday Night BB Step Study - Hybrid","day":0,"time":"19:00","end_time":"20:00","types":["B","O","ST","ONL"],"state":"AZ","postal_code":"85282","city":"Tempe","address":"3201 S Evergreen Rd","latitude":33.3945181,"longitude":-111.8820478,"location":"Resurrection Church","region":"Tempe","notes":"Zoom ID: 97897765886\nNo Passcode needed.","conference_url":"https://zoom.us/j/97897765886","url":"https://aamesaaz.org/meetings/sun-nt-bb-step-study-click-for-note/","timezone":"America/Phoenix"},{"feed":"prescottaa.org","slug":"sunday-no-name-group","name":"Sunday No Name Group","day":0,"time":"19:00","end_time":"20:00","types":["O","D"],"state":"AZ","postal_code":"86314","city":"Prescott Valley","address":"2651 N Industrial Way","latitude":34.5810473,"longitude":-112.2979187,"location":"Stepping Stones","region":"Prescott Valley","notes":"Suite A","url":"https://prescottaa.org/meetings/sunday-no-name-group/","timezone":"America/Phoenix"},{"feed":"aamesaaz.org","slug":"sunday-serenity-seekers","name":"Sunday Serenity Step Discussion","day":0,"time":"19:00","types":["O"],"state":"AZ","postal_code":"85209","city":"Mesa","address":"2605 S Signal Butte Rd","latitude":33.3675369,"longitude":-111.6006888,"location":"Spirit of Hope Lutheran Church","region":"Mesa","notes":"Note new location","url":"https://aamesaaz.org/meetings/sunday-serenity-seekers/","timezone":"America/Phoenix"},{"feed":"aatucson.org","slug":"sunday-speakers-group-green-valley","name":"Subdistrict 11-119 Sponsored Open Speaker Meeting","day":0,"time":"19:00","end_time":"20:00","types":["O","SP","X"],"state":"AZ","postal_code":"85614","city":"Green Valley","address":"555 South La Ca\u00f1ada Drive","latitude":31.8620113,"longitude":-110.9960695,"location":"Lutheran Church of the Risen Savior","region":"Pima County Far South (Green Valley, Sahuarita)","url":"https://aatucson.org/meetings/sunday-speakers-group-green-valley/","timezone":"America/Phoenix"},{"feed":"centralmountain.org","slug":"we-are-not-a-glum-lot","name":"We are not a Glum Lot","day":0,"time":"19:00","end_time":"20:00","types":["D","O","X"],"state":"AZ","postal_code":"86325","city":"Cornville","address":"1120 S Page Springs Rd","latitude":34.7188098,"longitude":-111.9043212,"location":"At the Fire Station","region":"Cornville","notes":"New meeting location\n1120 S Page Springs Rd Cornville, AZ\nCornville Fire Station","url":"https://centralmountain.org/meetings/we-are-not-a-glum-lot/","timezone":"America/Phoenix"},{"feed":"aamesaaz.org","slug":"welcome-home","name":"Welcome Home","day":0,"time":"19:00","types":["BE"],"state":"AZ","postal_code":"85286","city":"Chandler","address":"1075 S Arizona Ave","latitude":33.2911495,"longitude":-111.8381808,"location":"Any Lengths Meeting Hall","region":"Chandler","notes":"The Welcome Home Group simulcasts our meetings so you may attend in-person or online.\nOnly the chairperson is on camera during the meeting to preserve the anonymity of persons in the room.\nhttps://welcomehomegroup.weebly.com","url":"https://aamesaaz.org/meetings/welcome-home/","timezone":"America/Phoenix"},{"feed":"flagstaffaa.org","slug":"young-peeps","name":"Young Peeps","day":0,"time":"19:00","types":["O"],"state":"AZ","postal_code":"86004","city":"Flagstaff","address":"3505 Soliere Ave","latitude":35.2060752,"longitude":-111.6007127,"location":"Church of the Nazarene","region":"Flagstaff","url":"https://flagstaffaa.org/meetings/young-peeps/","timezone":"America/Phoenix"},{"feed":"aatucson.org","slug":"a-design-for-living-online-gratitude-in-action-meeting","name":"A Design for Living Group-Big Book","day":0,"time":"19:30","end_time":"20:30","types":["D","O","ONL"],"state":"AZ","city":"Tucson","latitude":32.2539787,"longitude":-110.9741769,"location":"Online Meeting","region":"Tucson Midtown","notes":"Zoom ID: 847 5158 5648\nPasscode: BillNBob (case sensitive)","conference_url":"https://zoom.us/j/84751585648","url":"https://aatucson.org/meetings/a-design-for-living-online-gratitude-in-action-meeting/","timezone":"America/Phoenix"},{"feed":"aatucson.org","slug":"group-of-drunks-outdoors-bring-a-chair-2-2","name":"Group of Drunks Outdoors Bring a Chair","day":0,"time":"19:30","end_time":"20:30","types":["D","O","X"],"state":"AZ","postal_code":"85705","city":"Tucson","address":"3120 W Curtis Rd","latitude":32.301893,"longitude":-111.0340211,"location":"Northwest Alano Club","region":"Tucson Northwest (Marana, Oro-Valley)","notes":"This meeting is Outdoors Please bring your own chair","url":"https://aatucson.org/meetings/group-of-drunks-outdoors-bring-a-chair-2-2/","timezone":"America/Phoenix"},{"feed":"aatucson.org","slug":"grupo-los-surenos-4","name":"Grupo los Sure\u00f1os","day":0,"time":"19:30","end_time":"21:00","types":["C","S"],"state":"AZ","postal_code":"85706","city":"Tucson","address":"702 W Montana St","latitude":32.1589016,"longitude":-110.9789083,"location":"Grupo Los Sure\u00f1os","region":"Tucson South, Southwest","url":"https://aatucson.org/meetings/grupo-los-surenos-4/","timezone":"America/Phoenix"},{"feed":"aatucson.org","slug":"solution-on-sunday","name":"Solution on Sunday","day":0,"time":"19:30","end_time":"20:30","types":["D","O","X"],"state":"AZ","postal_code":"85704","city":"Tucson","address":"7650 N Paseo Del Norte","latitude":32.3456449,"longitude":-110.9824709,"location":"St Andrews Church","region":"Tucson Northwest (Marana, Oro-Valley)","url":"https://aatucson.org/meetings/solution-on-sunday/","timezone":"America/Phoenix"},{"feed":"aatucson.org","slug":"sunday-night-young-peoples-snyp-mask-required","name":"Sunday Night Young Peoples' (SNYP)","day":0,"time":"19:45","end_time":"20:45","types":["O","OUT","Y"],"state":"AZ","postal_code":"85712","city":"Tucson","address":"4405 E Pima St","latitude":32.2437111,"longitude":-110.8988527,"location":"Pima Alano Club","region":"Tucson Midtown","notes":"Meeting is outside on the annex patio; please enter through the wooden gate. Seating may run out; you are welcome to bring your own chair.\nNon-smoking/vaping section available.","url":"https://aatucson.org/meetings/sunday-night-young-peoples-snyp-mask-required/","timezone":"America/Phoenix"},{"feed":"flagstaffaa.org","slug":"1323-w-second-street-sundays-at-800-pm","name":"1323 W. Second Street Sundays at 8:00 PM","day":0,"time":"20:00","state":"AZ","postal_code":"86047","city":"Winslow","address":"1323 W 2nd St","latitude":35.0283951,"longitude":-110.711618,"location":"1323 W. Second Street","region":"Winslow","url":"https://flagstaffaa.org/meetings/1323-w-second-street-sundays-at-800-pm/","timezone":"America/Phoenix"},{"feed":"aamesaaz.org","slug":"ahwatukee-group-3","name":"Ahwatukee Group","day":0,"time":"20:00","end_time":"21:00","types":["BE","O"],"state":"AZ","postal_code":"85048","city":"Phoenix","address":"2156 E Liberty Ln","latitude":33.2937681,"longitude":-112.0373904,"location":"Desert Foothills United Methodist Church","region":"Ahwatukee","url":"https://aamesaaz.org/meetings/ahwatukee-group-3/","timezone":"America/Phoenix"},{"feed":"aamesaaz.org","slug":"g-i-t-group-3","name":"G-I-T Group","day":0,"time":"20:00","types":["LGBTQ","O"],"state":"AZ","postal_code":"85202","city":"Mesa","address":"2121 W Guadalupe Rd #1","latitude":33.3629379,"longitude":-111.8791127,"location":"G I T","region":"Mesa","url":"https://aamesaaz.org/meetings/g-i-t-group-3/","timezone":"America/Phoenix"},{"feed":"flagstaffaa.org","slug":"mixed-nuts","name":"Prime Time Worldwide","day":0,"time":"20:00","types":["O"],"state":"AZ","postal_code":"86004","city":"Flagstaff","address":"2102 E 3rd Ave","latitude":35.207808,"longitude":-111.617607,"location":"Alano Club","region":"Flagstaff","url":"https://flagstaffaa.org/meetings/mixed-nuts/","timezone":"America/Phoenix"},{"feed":"flagstaffaa.org","slug":"prime-time-live","name":"Prime Time Live","day":0,"time":"20:00","end_time":"21:00","types":["O","ONL"],"state":"AZ","city":"Flagstaff","latitude":35.1982836,"longitude":-111.651302,"location":"Online Meeting","region":"Flagstaff","notes":"Meeting ID: 234 918 361\nPasscode: 12345","conference_url":"https://us02web.zoom.us/j/234918361?pwd=bXdEemRVamtZejRiazkrZVZMTkJHQT09","url":"https://flagstaffaa.org/meetings/prime-time-live/","timezone":"America/Phoenix"},{"feed":"flagstaffaa.org","slug":"salsa-aa-winslow-meeting-5","name":"SALSA","day":0,"time":"20:00","end_time":"21:00","types":["O"],"state":"AZ","postal_code":"86047","city":"Winslow","address":"1323 W 2nd St","latitude":35.0283951,"longitude":-110.711618,"location":"1323 W. Second Street","region":"Winslow","url":"https://flagstaffaa.org/meetings/salsa-aa-winslow-meeting-5/","timezone":"America/Phoenix"},{"feed":"aamesaaz.org","slug":"bloopers-2","name":"Bloopers","day":0,"time":"20:30","types":["O"],"state":"AZ","postal_code":"85283","city":"Tempe","address":"1859 E Baseline Rd","latitude":33.3773185,"longitude":-111.9058937,"location":"Bloopers","region":"Tempe","url":"https://aamesaaz.org/meetings/bloopers-2/","timezone":"America/Phoenix"},{"feed":"aamesaaz.org","slug":"easy-does-it-7-2","name":"Easy Does It","day":0,"time":"20:30","state":"AZ","postal_code":"85203","city":"Mesa","address":"1933 E University Dr #24","latitude":33.4221257,"longitude":-111.7891338,"location":"Easy Does It","region":"Mesa","url":"https://aamesaaz.org/meetings/easy-does-it-7-2/","timezone":"America/Phoenix"},{"feed":"aamesaaz.org","slug":"road-to-recovery-6","name":"Road To Recovery","day":0,"time":"21:00","end_time":"22:00","types":["O"],"state":"AZ","postal_code":"85205","city":"Mesa","address":"6134 E Main St #102","latitude":33.4169382,"longitude":-111.6984597,"location":"Road To Recovery","region":"Mesa","url":"https://aamesaaz.org/meetings/road-to-recovery-6/","timezone":"America/Phoenix"},{"feed":"aamesaaz.org","slug":"g-i-t-candlelight","name":"G-I-T Candlelight","day":0,"time":"22:00","types":["O"],"state":"AZ","postal_code":"85202","city":"Mesa","address":"2121 W Guadalupe Rd #1","latitude":33.3629379,"longitude":-111.8791127,"location":"G I T","region":"Mesa","url":"https://aamesaaz.org/meetings/g-i-t-candlelight/","timezone":"America/Phoenix"},{"feed":"aatucson.org","slug":"across-the-pond-6","name":"Across the Pond bring your coffee and a resentment!","day":1,"time":"05:00","end_time":"06:00","types":["B","D","LIT","LS","BE","O","ONL"],"state":"AZ","city":"Tucson","latitude":32.2539787,"longitude":-110.9741769,"location":"Online Meeting","region":"Tucson Midtown","conference_url":"https://zoom.us/j/78646870969","url":"https://aatucson.org/meetings/across-the-pond-6/","timezone":"America/Phoenix"},{"feed":"aamesaaz.org","slug":"extravagant-promises","name":"Extravagant Promises!","day":1,"time":"06:00","end_time":"07:00","types":["LIT","O"],"state":"AZ","postal_code":"85286","city":"Chandler","address":"1075 S Arizona Ave","latitude":33.2911495,"longitude":-111.8381808,"location":"Any Lengths Meeting Hall","region":"Chandler","url":"https://aamesaaz.org/meetings/extravagant-promises/","timezone":"America/Phoenix"},{"feed":"aamesaaz.org","slug":"g-i-t-group-4","name":"G-I-T Group","day":1,"time":"06:00","types":["O"],"state":"AZ","postal_code":"85202","city":"Mesa","address":"2121 W Guadalupe Rd #1","latitude":33.3629379,"longitude":-111.8791127,"location":"G I T","region":"Mesa","url":"https://aamesaaz.org/meetings/g-i-t-group-4/","timezone":"America/Phoenix"},{"feed":"prescottaa.org","slug":"va-first-formation-meeting","name":"VA First Formation Meeting","day":1,"time":"06:00","end_time":"07:00","types":["O","D"],"state":"AZ","postal_code":"86301","city":"Prescott","address":"500 AZ-89","latitude":34.5545351,"longitude":-112.4526536,"location":"VA Northern Arizona Health Care","region":"Prescott","url":"https://prescottaa.org/meetings/va-first-formation-meeting/","timezone":"America/Phoenix"},{"feed":"aamesaaz.org","slug":"bbookworms","name":"BBookworms","day":1,"time":"06:30","types":["B","O"],"state":"AZ","postal_code":"85044","city":"Phoenix","address":"11002 S 48th St","latitude":33.3465174,"longitude":-111.9812814,"location":"Mt View Lutheran Church","region":"Ahwatukee","url":"https://aamesaaz.org/meetings/bbookworms/","timezone":"America/Phoenix"},{"feed":"aatucson.org","slug":"cat-mountain-eye-opener-3","name":"Cat Mountain Eye Opener","day":1,"time":"06:30","end_time":"07:30","types":["MED","O"],"state":"AZ","postal_code":"85713","city":"Tucson","address":"5900 S Western Way Cir","latitude":32.1875027,"longitude":-111.0914881,"location":"Tucson Estates Game Room","region":"Tucson South, Southwest","url":"https://aatucson.org/meetings/cat-mountain-eye-opener-3/","timezone":"America/Phoenix"},{"feed":"prescottaa.org","slug":"keep-it-simple-1","name":"Keep It Simple","day":1,"time":"06:30","end_time":"07:30","types":["O","D","ONL"],"state":"AZ","city":"Prescott Valley","latitude":34.6100243,"longitude":-112.315721,"location":"Prescott Valley, AZ","region":"Prescott Valley","conference_url":"https://zoom.us/j/653370506","url":"https://prescottaa.org/meetings/keep-it-simple-1/","timezone":"America/Phoenix"},{"feed":"aatucson.org","slug":"monday-upon-awakening","name":"Upon Awakening Group","day":1,"time":"06:30","end_time":"07:30","types":["D","O","SM"],"state":"AZ","postal_code":"85712","city":"Tucson","address":"4405 E Pima St","latitude":32.2437111,"longitude":-110.8988527,"location":"Pima Alano Club","region":"Tucson Midtown","url":"https://aatucson.org/meetings/monday-upon-awakening/","group":"Upon Awakening","timezone":"America/Phoenix"},{"feed":"aamesaaz.org","slug":"road-to-recovery-7","name":"Road To Recovery","day":1,"time":"06:30","types":["O"],"state":"AZ","postal_code":"85205","city":"Mesa","address":"6134 E Main St #102","latitude":33.4169382,"longitude":-111.6984597,"location":"Road To Recovery","region":"Mesa","url":"https://aamesaaz.org/meetings/road-to-recovery-7/","timezone":"America/Phoenix"},{"feed":"prescottaa.org","slug":"serenity-at-sunrise-1","name":"Serenity at Sunrise","day":1,"time":"06:30","end_time":"07:30","types":["C","D"],"state":"AZ","postal_code":"86301","city":"Prescott","address":"3151 Willow Creek Rd","latitude":34.5964757,"longitude":-112.4638373,"location":"Prescott Community Church","region":"Prescott","url":"https://prescottaa.org/meetings/serenity-at-sunrise-1/","timezone":"America/Phoenix"},{"feed":"prescottaa.org","slug":"serenityonline-1","name":"SerenityOnline","day":1,"time":"06:30","end_time":"07:30","types":["C","D","ONL"],"state":"AZ","city":"Prescott","latitude":34.5400242,"longitude":-112.4685025,"location":"Prescott, AZ","region":"Prescott","conference_url":"https://meet.goto.com/880523077","url":"https://prescottaa.org/meetings/serenityonline-1/","timezone":"America/Phoenix"},{"feed":"aamesaaz.org","slug":"the-breakfast-club-2","name":"The Breakfast Club","day":1,"time":"06:30","types":["O"],"state":"AZ","postal_code":"85210","city":"Mesa","address":"145 E 1st Ave","latitude":33.4124824,"longitude":-111.827165,"location":"Mesa Alano Club","region":"Mesa","url":"https://aamesaaz.org/meetings/the-breakfast-club-2/","timezone":"America/Phoenix"},{"feed":"aamesaaz.org","slug":"the-society-group-26-2","name":"The Society - EV Survivors","day":1,"time":"06:30","end_time":"07:30","types":["O"],"state":"AZ","postal_code":"85207","city":"Mesa","address":"9333 E Main St","latitude":33.4145213,"longitude":-111.6290654,"location":"The Society #125","region":"Mesa","url":"https://aamesaaz.org/meetings/the-society-group-26-2/","timezone":"America/Phoenix"},{"feed":"prescottaa.org","slug":"there-is-a-solution-1","name":"There Is A Solution","day":1,"time":"06:30","end_time":"07:30","types":["O","D","LIT"],"state":"AZ","postal_code":"86314","city":"Prescott Valley","address":"6546 E 2nd St B","latitude":34.5804207,"longitude":-112.3516846,"location":"QuadCity Christian Church","region":"Prescott Valley","url":"https://prescottaa.org/meetings/there-is-a-solution-1/","timezone":"America/Phoenix"},{"feed":"aatucson.org","slug":"upon-awakening-virtual-meeting-5","name":"New Dimension Virtual Meeting","day":1,"time":"06:30","end_time":"07:30","types":["D","O","ONL"],"state":"AZ","city":"Tucson","latitude":32.2539787,"longitude":-110.9741769,"location":"Online Meeting","region":"Tucson Midtown","notes":"Zoom Meeting\nhttps://zoom.us/j/87222421634\nPasscode: Page25\n\nTo dial in: 1-669-900-6883, Meeting ID 8722421634, Code 562932","conference_url":"https://us05web.zoom.us/j/87222421634?pwd=L1h0c2ZVWDZMNDBHd1kxbmRnUmhIZz09","url":"https://aatucson.org/meetings/upon-awakening-virtual-meeting-5/","timezone":"America/Phoenix"},{"feed":"flagstaffaa.org","slug":"early-birds","name":"Early Birds","day":1,"time":"06:45","types":["O"],"state":"AZ","postal_code":"86001","city":"Flagstaff","address":"224 S Kendrick St","latitude":35.1955583,"longitude":-111.6533797,"location":"Our Lady of Guadalupe","region":"Flagstaff","url":"https://flagstaffaa.org/meetings/early-birds/","timezone":"America/Phoenix"},{"feed":"aamesaaz.org","slug":"eye-opener","name":"Eye-Opener Group","day":1,"time":"06:45","end_time":"07:45","types":["D","GR","O"],"state":"AZ","postal_code":"85122","city":"Casa Grande","address":"702 E Cottonwood Ln","latitude":32.8950991,"longitude":-111.7437662,"location":"First Presbyterian Church - Fellowship Hall (Room #11)","region":"Casa Grande","notes":"Non-smoking","url":"https://aamesaaz.org/meetings/eye-opener/","group":"Eye Opener Group","timezone":"America/Phoenix"},{"feed":"aatucson.org","slug":"monday-morning-shades-group","name":"Morning Shades Group","day":1,"time":"06:45","end_time":"07:45","types":["BE","O","X"],"state":"AZ","postal_code":"85711","city":"Tucson","address":"6061 E Broadway Blvd #127","latitude":32.2229073,"longitude":-110.8627892,"location":"Eastside Meeting Place","region":"Tucson East, Northeast","notes":"STARTS AT 645am - 745am","url":"https://aatucson.org/meetings/monday-morning-shades-group/","group":"Morning Shades Group","timezone":"America/Phoenix"},{"feed":"aatucson.org","slug":"morning-shades-virtual-meeting-2","name":"Morning Shades Virtual Meeting","day":1,"time":"06:45","end_time":"07:45","types":["EN","BE","O","ONL"],"state":"AZ","city":"Tucson","latitude":32.2539787,"longitude":-110.9741769,"location":"Online Meeting","region":"Tucson Midtown","notes":"Zoom Meeting please download the app prior to the meeting. https://zoom.us/j/98068265887\nModerators please use suggested settings below in location notes\nTO DIAL IN: 1-669-900-6833,,98068265887#,,,#\nOR\n1-346-2487799,,98068265887#,,,#","conference_url":"https://zoom.us/j/98068265887","url":"https://aatucson.org/meetings/morning-shades-virtual-meeting-2/","timezone":"America/Phoenix"},{"feed":"aamesaaz.org","slug":"rising-spirit-group-2","name":"Rising Spirit Group","day":1,"time":"06:45","types":["GR","O","ONL"],"state":"AZ","postal_code":"85282","city":"Tempe","address":"2085 E Southern Ave","latitude":33.3921931,"longitude":-111.896438,"location":"King Of Glory","region":"Tempe","notes":"This meeting is both live and online.\nID 266470894\nPasscode: PassItOn","conference_url":"https://zoom.us/j/266470894","url":"https://aamesaaz.org/meetings/rising-spirit-group-2/","timezone":"America/Phoenix"},{"feed":"aatucson.org","slug":"sunday-smoke-free-nooners-11step-meeting-2","name":"Smoke Free Nooners Group Eye Opener Meeting","day":1,"time":"06:45","end_time":"07:45","types":["11","D","MED","O","X"],"state":"AZ","postal_code":"85719","city":"Tucson","address":"3620 N 1st Ave #148","latitude":32.2724162,"longitude":-110.9602104,"location":"Smoke Free Nooners","region":"Tucson Midtown","notes":"STARTS AT 6:45am - 7:45am This meeting meets Face to Face 7 days a week","url":"https://aatucson.org/meetings/sunday-smoke-free-nooners-11step-meeting-2/","group":"Smoke Free Nooners","timezone":"America/Phoenix"},{"feed":"aatucson.org","slug":"sunday-smoke-free-nooners-11step-meeting-2-2","name":"Smoke Free Nooners Group Eye Opener Meeting Online","day":1,"time":"06:45","end_time":"07:45","types":["11","D","MED","O","ONL"],"state":"AZ","city":"Tucson","latitude":32.2539787,"longitude":-110.9741769,"location":"Online Meeting","region":"Tucson Midtown","notes":"Zoom ID 82417147452\nPassword 839886","conference_url":"https://zoom.us/j/82417147452","url":"https://aatucson.org/meetings/sunday-smoke-free-nooners-11step-meeting-2-2/","group":"Smoke Free Nooners","timezone":"America/Phoenix"},{"feed":"aamesaaz.org","slug":"tempe-sunrisers-2","name":"Tempe Sunrisers - Hybrid","day":1,"time":"06:45","types":["O","ONL"],"state":"AZ","postal_code":"85282","city":"Tempe","address":"4415 S Rural Rd","latitude":33.3837874,"longitude":-111.924951,"location":"The Pigeon Coop","region":"Tempe","notes":"Zoom Passcode: 488837","conference_url":"https://zoom.us/j/2062366677","url":"https://aamesaaz.org/meetings/tempe-sunrisers-2/","timezone":"America/Phoenix"},{"feed":"aamesaaz.org","slug":"the-page-a-day-group","name":"The Page A Day Group","day":1,"time":"06:45","types":["B","C","ONL"],"state":"AZ","postal_code":"85296","city":"Gilbert","address":"456 E Ray Rd","latitude":33.3219539,"longitude":-111.7810581,"location":"Sun Valley Community Church","region":"Gilbert","notes":"Zoom ID: 565 989 360\nPasscode: 06101935","conference_url":"https://zoom.us/j/565989360","url":"https://aamesaaz.org/meetings/the-page-a-day-group/","timezone":"America/Phoenix"},{"feed":"aamesaaz.org","slug":"the-page-a-day-group-7","name":"The Page A Day Group","day":1,"time":"06:45","end_time":"07:45","types":["B","C"],"state":"AZ","postal_code":"85296","city":"Gilbert","address":"456 E Ray Rd","latitude":33.3219539,"longitude":-111.7810581,"location":"Sun Valley Community Church","region":"Gilbert","url":"https://aamesaaz.org/meetings/the-page-a-day-group-7/","timezone":"America/Phoenix"},{"feed":"aamesaaz.org","slug":"upon-awakening","name":"Upon Awakening","day":1,"time":"06:45","end_time":"07:45","types":["B","C"],"state":"AZ","postal_code":"85295","city":"Gilbert","address":"3225 S Lindsay Rd","latitude":33.2915398,"longitude":-111.7738011,"location":"Desert Cross Lutheran Church - Gilbert","region":"Gilbert","url":"https://aamesaaz.org/meetings/upon-awakening/","timezone":"America/Phoenix"},{"feed":"aamesaaz.org","slug":"upon-awakening-7","name":"Upon Awakening - Zoom","day":1,"time":"06:45","end_time":"07:45","types":["B","C","ONL"],"state":"AZ","postal_code":"85295","city":"Gilbert","address":"3225 S Lindsay Rd","latitude":33.2915398,"longitude":-111.7738011,"location":"Desert Cross Lutheran Church - Gilbert","region":"Gilbert","notes":"This meeting is available live and online.\nZoom ID: 89646600555\nPasscode: bigbook","conference_url":"https://zoom.us/j/89646600555","url":"https://aamesaaz.org/meetings/upon-awakening-7/","timezone":"America/Phoenix"},{"feed":"centralmountain.org","slug":"camp-verde-group-13","name":"Camp Verde Group","day":1,"time":"07:00","types":["D","O","X"],"state":"AZ","postal_code":"86322","city":"Camp Verde","address":"435 S Main St","latitude":34.5633201,"longitude":-111.8535355,"location":"Old Camp Verde High School","region":"Camp Verde","notes":"Room 205","url":"https://centralmountain.org/meetings/camp-verde-group-13/","timezone":"America/Phoenix"},{"feed":"flagstaffaa.org","slug":"earlybirds-flagstaff-online-2","name":"Earlybirds Flagstaff Online","day":1,"time":"07:00","end_time":"08:00","types":["O","ONL"],"state":"AZ","city":"Flagstaff","latitude":35.1982836,"longitude":-111.651302,"location":"Online Meeting","region":"Flagstaff","notes":"Meeting ID is 599 355 1376\n\nNo password required.\n\n7th Tradition: Early Birds Online can be found on the PayPal website as https://paypal.me/EarlyBirdsFlagOnline. Many members find it convenient to contribute a week, 2 weeks or a month at a time.","conference_url":"https://us02web.zoom.us/j/5993551376","url":"https://flagstaffaa.org/meetings/earlybirds-flagstaff-online-2/","timezone":"America/Phoenix"},{"feed":"centralmountain.org","slug":"eye-opener","name":"Eye Opener","day":1,"time":"07:00","end_time":"08:00","types":["D","O","X"],"state":"AZ","postal_code":"86326","city":"Cottonwood","address":"1309 E Cherry St","latitude":34.7317443,"longitude":-112.0125448,"location":"Cottonwood ALANO Club","region":"Cottonwood","url":"https://centralmountain.org/meetings/eye-opener/","timezone":"America/Phoenix"},{"feed":"centralmountain.org","slug":"eye-opener-on-line-4","name":"Eye Opener On Line","day":1,"time":"07:00","end_time":"08:00","types":["D","O","ONL","TC"],"state":"AZ","postal_code":"86326","city":"Cottonwood","address":"1309 E Cherry St","latitude":34.7317443,"longitude":-112.0125448,"location":"Cottonwood ALANO Club","region":"Cottonwood","notes":"Zoom meeting only","conference_url":"https://us02web.zoom.us/j/312152178?pwd=bUF1N2U1a3habzJLdUVWMUM4SzhOQT09","url":"https://centralmountain.org/meetings/eye-opener-on-line-4/","timezone":"America/Phoenix"},{"feed":"aatucson.org","slug":"fresh-start-virtual-meeting-2","name":"Fresh Start Virtual Meeting","day":1,"time":"07:00","end_time":"08:00","types":["C","G","BE","ONL"],"state":"AZ","city":"Tucson","latitude":32.2539787,"longitude":-110.9741769,"location":"Online Meeting","region":"Tucson Midtown","notes":"Zoom Meeting please download the app prior to the meeting.\nPassword 163980\nModerators please use suggested settings below in location notes\nTO DIAL IN: 1-669-900-6833,,406967657#,,,#,,,163980#","conference_url":"https://us04web.zoom.us/j/406967657?pwd=VVNncjV0VkZMWlJ3YXRmc2ErTGliZz09","url":"https://aatucson.org/meetings/fresh-start-virtual-meeting-2/","timezone":"America/Phoenix"},