[{"feed":"area03.com","slug":"24-hour-international-marathon-meeting-of-alcoholics-anonymous-where-sobriety-never-sleeps","name":"24 Hour International Marathon Meeting of Alcoholics Anonymous (Where sobriety never sleeps)","day":0,"time":"00:00","end_time":"01:00","types":["12x12","BE","SEN","Y","ONL"],"state":"AZ","city":"Tombstone","latitude":31.7128683,"longitude":-110.0675764,"location":"Online Meeting","region":"Zoom","notes":"The 24 International Marathon Meeting of AA was started by two newcomers from New Zealand with cell phones at the beginning of the COVID pandemic. The meeting has been running continuously since 20 April 2020.","conference_url":"https://us02web.zoom.us/j/2923712604","url":"https://area03.com/meetings/24-hour-international-marathon-meeting-of-alcoholics-anonymous-where-sobriety-never-sleeps/","group":"24 Hour International Marathon Meeting of AA","timezone":"America/Phoenix"},{"feed":"area03.com","slug":"24-hour-international-marathon-meeting-of-alcoholics-anonymous-where-sobriety-never-sleeps-2","name":"24 Hour International Marathon Meeting of Alcoholics Anonymous (Where sobriety never sleeps)","day":0,"time":"01:00","end_time":"02:00","types":["12x12","G","BE","SEN","Y","ONL"],"state":"AZ","city":"Tombstone","latitude":31.7128683,"longitude":-110.0675764,"location":"Online Meeting","region":"Zoom","notes":"The 24 International Marathon Meeting of AA was started by two newcomers from New Zealand with cell phones at the beginning of the COVID pandemic. The meeting has been running continuously since 20 April 2020.","conference_url":"https://us02web.zoom.us/j/2923712604","url":"https://area03.com/meetings/24-hour-international-marathon-meeting-of-alcoholics-anonymous-where-sobriety-never-sleeps-2/","group":"24 Hour International Marathon Meeting of AA","timezone":"America/Phoenix"},{"feed":"area03.com","slug":"24-hour-international-marathon-meeting-of-aa-where-sobriety-never-sleeps-144","name":"24 Hour International  Marathon Meeting of AA (Where sobriety never sleeps)","day":0,"time":"02:00","end_time":"03:00","types":["12x12","BE","SEN","Y","ONL"],"state":"AZ","city":"Tombstone","latitude":31.7128683,"longitude":-110.0675764,"location":"Online Meeting","region":"Zoom","notes":"The 24 International Marathon Meeting of AA was started by two newcomers from New Zealand with cell phones at the beginning of the COVID pandemic. The meeting has been running continuously since 20 April 2020.","conference_url":"https://us02web.zoom.us/j/2923712604","url":"https://area03.com/meetings/24-hour-international-marathon-meeting-of-aa-where-sobriety-never-sleeps-144/","group":"24 Hour International Marathon Meeting of AA","timezone":"America/Phoenix"},{"feed":"area03.com","slug":"24-hour-international-marathon-meeting-of-aa-where-sobriety-never-sleeps-145","name":"24 Hour International Marathon Meeting of AA (Where sobriety never sleeps)","day":0,"time":"03:00","end_time":"04:00","types":["12x12","BE","SEN","Y","ONL"],"state":"AZ","city":"Tombstone","latitude":31.7128683,"longitude":-110.0675764,"location":"Online Meeting","region":"Zoom","notes":"The 24 International Marathon Meeting of AA was started by two newcomers from New Zealand with cell phones at the beginning of the COVID pandemic. The meeting has been running continuously since 20 April 2020.","conference_url":"https://us02web.zoom.us/j/2923712604","url":"https://area03.com/meetings/24-hour-international-marathon-meeting-of-aa-where-sobriety-never-sleeps-145/","timezone":"America/Phoenix"},{"feed":"area03.com","slug":"24-hour-international-marathon-meeting-of-aa-where-sobriety-never-sleeps-146","name":"24 Hour International Marathon Meeting of AA (Where sobriety never sleeps)","day":0,"time":"04:00","end_time":"05:00","types":["12x12","BE","SEN","Y","ONL"],"state":"AZ","city":"Tombstone","latitude":31.7128683,"longitude":-110.0675764,"location":"Online Meeting","region":"Zoom","notes":"The 24 International Marathon Meeting of AA was started by two newcomers from New Zealand with cell phones at the beginning of the COVID pandemic. The meeting has been running continuously since 20 April 2020.","conference_url":"https://us02web.zoom.us/j/2923712604","url":"https://area03.com/meetings/24-hour-international-marathon-meeting-of-aa-where-sobriety-never-sleeps-146/","timezone":"America/Phoenix"},{"feed":"area03.com","slug":"24-hour-international-marathon-meeting-of-aa-where-sobriety-never-sleeps-147","name":"24 Hour International Marathon Meeting of AA (Where sobriety never sleeps)","day":0,"time":"05:00","end_time":"06:00","types":["12x12","LGBTQ","BE","SEN","Y","ONL"],"state":"AZ","city":"Tombstone","latitude":31.7128683,"longitude":-110.0675764,"location":"Online Meeting","region":"Zoom","notes":"The 24 International Marathon Meeting of AA was started by two newcomers from New Zealand with cell phones at the beginning of the COVID pandemic. The meeting has been running continuously since 20 April 2020.","conference_url":"https://us02web.zoom.us/j/2923712604","url":"https://area03.com/meetings/24-hour-international-marathon-meeting-of-aa-where-sobriety-never-sleeps-147/","group":"24 Hour International Marathon Meeting of AA","timezone":"America/Phoenix"},{"feed":"area03.com","slug":"24-hour-international-marathon-meeting-of-aa-where-sobriety-never-sleeps-8","name":"24 Hour International Marathon Meeting of AA (Where sobriety never sleeps)","day":0,"time":"05:00","end_time":"06:00","types":["12x12","BE","O","SEN","Y","ONL"],"state":"AZ","city":"Flagstaff","latitude":35.1982836,"longitude":-111.651302,"location":"Online Meeting","region":"Flagstaff","notes":"Zoom: 292 371 2604","conference_url":"https://us02web.zoom.us/j/2923712604","url":"https://area03.com/meetings/24-hour-international-marathon-meeting-of-aa-where-sobriety-never-sleeps-8/","timezone":"America/Phoenix"},{"feed":"aatucson.org","slug":"online-meeting-sunday-500-am","name":"Across the Pond bring your coffee and a resentment!","day":0,"time":"05:00","end_time":"06:00","types":["B","D","LIT","LS","BE","O","ONL"],"state":"AZ","city":"Tucson","latitude":32.2539787,"longitude":-110.9741769,"location":"Online Meeting","region":"Tucson Midtown","conference_url":"https://zoom.us/j/78646870969","url":"https://aatucson.org/meetings/online-meeting-sunday-500-am/","timezone":"America/Phoenix"},{"feed":"area03.com","slug":"online-meeting-sunday-500-am","name":"Across the Pond bring your coffee and a resentment!","day":0,"time":"05:00","end_time":"06:00","types":["B","D","LIT","LS","BE","O","ONL"],"state":"AZ","city":"Tucson","latitude":32.2539787,"longitude":-110.9741769,"location":"Online Meeting","region":"Tucson Midtown","conference_url":"https://zoom.us/j/78646870969","url":"https://area03.com/meetings/online-meeting-sunday-500-am/","timezone":"America/Phoenix"},{"feed":"area03.com","slug":"2000","name":"AA Early Birds","day":0,"time":"05:30","types":["C","LIT","ONL"],"state":"AZ","city":"Phoenix","latitude":33.4482948,"longitude":-112.0725488,"location":"Phoenix, AZ, USA","region":"Phoenix","conference_url":"https://zoom.us/j/83434885670","url":"https://area03.com/meetings/2000/","timezone":"America/Phoenix"},{"feed":"area03.com","slug":"3034","name":"Before Breakfast Club Virtual 1.1","day":0,"time":"05:30","types":["O","D","ONL"],"state":"AZ","postal_code":"85016","city":"Phoenix","latitude":33.5106684,"longitude":-112.029752,"location":", Phoenix, AZ 85016, USA","region":"Phoenix","notes":"bbcazvirtual@gmail.com","conference_url":"https://us06web.zoom.us/j/86565048789","url":"https://area03.com/meetings/3034/","timezone":"America/Phoenix"},{"feed":"area03.com","slug":"768","name":"Before Breakfast Club","day":0,"time":"05:30","types":["O","D"],"state":"AZ","postal_code":"85016","city":"Phoenix","address":"1845 E Ocotillo Rd","latitude":33.5344349,"longitude":-112.0408836,"location":"Crossroads East","region":"Phoenix","url":"https://area03.com/meetings/768/","timezone":"America/Phoenix"},{"feed":"area03.com","slug":"24-hour-international-marathon-meeting-of-aa-where-sobriety-never-sleeps-148","name":"24 Hour International Marathon Meeting of AA (Where sobriety never sleeps)","day":0,"time":"06:00","end_time":"07:00","types":["12x12","BE","SEN","Y","ONL"],"state":"AZ","city":"Tombstone","latitude":31.7128683,"longitude":-110.0675764,"location":"Online Meeting","region":"Zoom","notes":"The 24 International Marathon Meeting of AA was started by two newcomers from New Zealand with cell phones at the beginning of the COVID pandemic. The meeting has been running continuously since 20 April 2020.","conference_url":"https://us02web.zoom.us/j/2923712604","url":"https://area03.com/meetings/24-hour-international-marathon-meeting-of-aa-where-sobriety-never-sleeps-148/","group":"24 Hour International Marathon Meeting of AA","timezone":"America/Phoenix"},{"feed":"aamesaaz.org","slug":"g-i-t-group","name":"G-I-T Group","day":0,"time":"06:00","types":["O"],"state":"AZ","postal_code":"85202","city":"Mesa","address":"2121 W Guadalupe Rd #1","latitude":33.3629379,"longitude":-111.8791127,"location":"G I T","region":"Mesa","url":"https://aamesaaz.org/meetings/g-i-t-group/","timezone":"America/Phoenix"},{"feed":"area03.com","slug":"g-i-t-group","name":"G-I-T Group","day":0,"time":"06:00","types":["O"],"state":"AZ","postal_code":"85202","city":"Mesa","address":"2121 W Guadalupe Rd #1","latitude":33.3629379,"longitude":-111.8791127,"location":"G I T","region":"Mesa","url":"https://area03.com/meetings/g-i-t-group/","timezone":"America/Phoenix"},{"feed":"area03.com","slug":"sunrise-zoom-meeting-id-461-680-460-pw-318283-7","name":"It Dawned On Me Zoom Meeting ID: 874 4607 6520 PC: kiss","day":0,"time":"06:00","end_time":"07:00","types":["GR","ONL"],"state":"AZ","city":"Yuma","latitude":32.6926512,"longitude":-114.6276916,"location":"Meeting Location","region":"Yuma","conference_url":"https://us02web.zoom.us/j/87446076520?pwd=TkhhWTJsNWJRTnVTYWl6WmFTRHF6UT09","url":"https://area03.com/meetings/sunrise-zoom-meeting-id-461-680-460-pw-318283-7/","timezone":"America/Phoenix"},{"feed":"area03.com","slug":"va-first-formation-meeting-6","name":"VA First Formation Meeting","day":0,"time":"06:00","end_time":"07:00","types":["O","D"],"state":"AZ","postal_code":"86301","city":"Prescott","address":"500 AZ-89","latitude":34.5545351,"longitude":-112.4526536,"location":"VA Northern Arizona Health Care","region":"Prescott","url":"https://area03.com/meetings/va-first-formation-meeting-6/","timezone":"America/Phoenix"},{"feed":"prescottaa.org","slug":"va-first-formation-meeting-6","name":"VA First Formation Meeting","day":0,"time":"06:00","end_time":"07:00","types":["O","D"],"state":"AZ","postal_code":"86301","city":"Prescott","address":"500 AZ-89","latitude":34.5545351,"longitude":-112.4526536,"location":"VA Northern Arizona Health Care","region":"Prescott","url":"https://prescottaa.org/meetings/va-first-formation-meeting-6/","timezone":"America/Phoenix"},{"feed":"area03.com","slug":"willing-to-change","name":"Willing to Change","day":0,"time":"06:00","end_time":"07:00","types":["X"],"state":"AZ","postal_code":"85367","city":"Yuma","address":"11388 S Foothills Blvd","latitude":32.6650191,"longitude":-114.4100877,"location":"2-Story Steel Building","region":"Foothills","url":"https://area03.com/meetings/willing-to-change/","timezone":"America/Phoenix"},{"feed":"area03.com","slug":"770","name":"Morning Miracles","day":0,"time":"06:15","types":["O","D"],"state":"AZ","postal_code":"85016","city":"Phoenix","address":"C, 2720 E Thomas Rd c 160","latitude":33.4806322,"longitude":-112.0230538,"location":"Freedom Hall","region":"Phoenix","url":"https://area03.com/meetings/770/","timezone":"America/Phoenix"},{"feed":"area03.com","slug":"771","name":"A New Freedom","day":0,"time":"06:29","types":["C","D"],"state":"AZ","postal_code":"85021","city":"Phoenix","address":"1917 W Glendale Ave # 4","latitude":33.5381296,"longitude":-112.1004236,"location":"A New Freedom","region":"Phoenix","url":"https://area03.com/meetings/771/","timezone":"America/Phoenix"},{"feed":"area03.com","slug":"3155","name":"Awakening Zoom Meeting","day":0,"time":"06:30","end_time":"07:30","types":["O","ST","ONL"],"state":"AZ","postal_code":"85335","city":"El Mirage","latitude":33.5994927,"longitude":-112.3218553,"location":", El Mirage, AZ 85335, USA","region":"El Mirage","conference_url":"https://zoom.us/j/2771604343","url":"https://area03.com/meetings/3155/","timezone":"America/Phoenix"},{"feed":"area03.com","slug":"772","name":"Awakening 11th Step Group","day":0,"time":"06:30","end_time":"07:30","types":["O","ST"],"state":"AZ","postal_code":"85335","city":"El Mirage","address":"12313 NW Grand Ave","latitude":33.6064239,"longitude":-112.3060674,"location":"Nu Hope Alano","region":"El Mirage","url":"https://area03.com/meetings/772/","timezone":"America/Phoenix"},{"feed":"aamesaaz.org","slug":"road-to-recovery","name":"Road To Recovery","day":0,"time":"06:30","types":["GR","LIT","O"],"state":"AZ","postal_code":"85205","city":"Mesa","address":"6134 E Main St #102","latitude":33.4169382,"longitude":-111.6984597,"location":"Road To Recovery","region":"Mesa","url":"https://aamesaaz.org/meetings/road-to-recovery/","timezone":"America/Phoenix"},{"feed":"area03.com","slug":"road-to-recovery","name":"Road To Recovery","day":0,"time":"06:30","types":["GR","LIT","O"],"state":"AZ","postal_code":"85205","city":"Mesa","address":"6134 E Main St #102","latitude":33.4169382,"longitude":-111.6984597,"location":"Road To Recovery","region":"Mesa","url":"https://area03.com/meetings/road-to-recovery/","timezone":"America/Phoenix"},{"feed":"area03.com","slug":"serenityonline-3","name":"SerenityOnline","day":0,"time":"06:30","end_time":"07:30","types":["C","D","ONL"],"state":"AZ","city":"Prescott","latitude":34.5400242,"longitude":-112.4685025,"location":"Prescott, AZ","region":"Prescott","conference_url":"https://meet.goto.com/880523077","url":"https://area03.com/meetings/serenityonline-3/","timezone":"America/Phoenix"},{"feed":"prescottaa.org","slug":"serenityonline-3","name":"SerenityOnline","day":0,"time":"06:30","end_time":"07:30","types":["C","D","ONL"],"state":"AZ","city":"Prescott","latitude":34.5400242,"longitude":-112.4685025,"location":"Prescott, AZ","region":"Prescott","conference_url":"https://meet.goto.com/880523077","url":"https://prescottaa.org/meetings/serenityonline-3/","timezone":"America/Phoenix"},{"feed":"aatucson.org","slug":"sunday-upon-awakening","name":"Upon Awakening Group","day":0,"time":"06:30","end_time":"07:30","types":["D","O","SM","X"],"state":"AZ","postal_code":"85712","city":"Tucson","address":"4405 E Pima St","latitude":32.2437111,"longitude":-110.8988527,"location":"Pima Alano Club","region":"Tucson Midtown","url":"https://aatucson.org/meetings/sunday-upon-awakening/","group":"Upon Awakening","timezone":"America/Phoenix"},{"feed":"area03.com","slug":"sunday-upon-awakening","name":"Upon Awakening Group","day":0,"time":"06:30","end_time":"07:30","types":["D","O","SM","X"],"state":"AZ","postal_code":"85712","city":"Tucson","address":"4405 E Pima St","latitude":32.2437422,"longitude":-110.8988557,"location":"Pima Alano Club","region":"Tucson Midtown","url":"https://area03.com/meetings/sunday-upon-awakening/","group":"Upon Awakening","timezone":"America/Phoenix"},{"feed":"area03.com","slug":"sunrise","name":"Sunrise Group","day":0,"time":"06:30","end_time":"07:30","state":"AZ","postal_code":"85364","city":"Yuma","address":"998 S 6th Ave","latitude":32.7096277,"longitude":-114.6273855,"location":"449 Club","region":"Yuma","url":"https://area03.com/meetings/sunrise/","group":"Sunrise","timezone":"America/Phoenix"},{"feed":"area03.com","slug":"surrender-is-freedom","name":"Surrender Is Freedom","day":0,"time":"06:30","end_time":"07:30","types":["LIT","O","ONL"],"state":"AZ","postal_code":"85635","city":"Sierra Vista","address":"2750 Cardinal Dr","latitude":31.5409924,"longitude":-110.2711274,"location":"St Stephen\u2019s Episcopal Church","region":"Sierra Vista","conference_url":"https://us02web.zoom.us/j/2246765460","url":"https://area03.com/meetings/surrender-is-freedom/","timezone":"America/Phoenix"},{"feed":"aamesaaz.org","slug":"the-breakfast-club","name":"The Breakfast Club","day":0,"time":"06:30","types":["O"],"state":"AZ","postal_code":"85210","city":"Mesa","address":"145 E 1st Ave","latitude":33.4124824,"longitude":-111.827165,"location":"Mesa Alano Club","region":"Mesa","url":"https://aamesaaz.org/meetings/the-breakfast-club/","timezone":"America/Phoenix"},{"feed":"area03.com","slug":"the-breakfast-club","name":"The Breakfast Club","day":0,"time":"06:30","types":["O"],"state":"AZ","postal_code":"85210","city":"Mesa","address":"145 E 1st Ave","latitude":33.4125333,"longitude":-111.8271406,"location":"Mesa Alano Club","region":"Mesa","url":"https://area03.com/meetings/the-breakfast-club/","timezone":"America/Phoenix"},{"feed":"aamesaaz.org","slug":"the-society-group-26","name":"The Society Group","day":0,"time":"06:30","end_time":"07:30","types":["MED","O"],"state":"AZ","postal_code":"85207","city":"Mesa","address":"9333 E Main St","latitude":33.4145213,"longitude":-111.6290654,"location":"The Society #125","region":"Mesa","notes":"Arrive on time or wait for the meditation period to end before entering. Thank you.","url":"https://aamesaaz.org/meetings/the-society-group-26/","timezone":"America/Phoenix"},{"feed":"area03.com","slug":"the-society-group-26","name":"The Society Group","day":0,"time":"06:30","end_time":"07:30","types":["MED","O"],"state":"AZ","postal_code":"85207","city":"Mesa","address":"9333 E Main St","latitude":33.4145061,"longitude":-111.6285764,"location":"The Society #125","region":"Mesa","notes":"Arrive on time or wait for the meditation period to end before entering. Thank you.","url":"https://area03.com/meetings/the-society-group-26/","timezone":"America/Phoenix"},{"feed":"area03.com","slug":"there-is-a-solution-3","name":"There Is A Solution","day":0,"time":"06:30","end_time":"07:30","types":["O","D","LIT"],"state":"AZ","postal_code":"86314","city":"Prescott Valley","address":"6546 E 2nd St B","latitude":34.5804207,"longitude":-112.3516846,"location":"QuadCity Christian Church","region":"Prescott Valley","url":"https://area03.com/meetings/there-is-a-solution-3/","timezone":"America/Phoenix"},{"feed":"prescottaa.org","slug":"there-is-a-solution-3","name":"There Is A Solution","day":0,"time":"06:30","end_time":"07:30","types":["O","D","LIT"],"state":"AZ","postal_code":"86314","city":"Prescott Valley","address":"6546 E 2nd St B","latitude":34.5804207,"longitude":-112.3516846,"location":"QuadCity Christian Church","region":"Prescott Valley","url":"https://prescottaa.org/meetings/there-is-a-solution-3/","timezone":"America/Phoenix"},{"feed":"aatucson.org","slug":"upon-awakening-virtual-meeting-4","name":"New Dimension Virtual Meeting","day":0,"time":"06:30","end_time":"07:30","types":["D","O","ONL"],"state":"AZ","city":"Tucson","latitude":32.2539787,"longitude":-110.9741769,"location":"Online Meeting","region":"Tucson Midtown","notes":"Zoom Meeting\nhttps://zoom.us/j/87222421634\nPasscode: Page25\n\nTo dial in: 1-669-900-6883, Meeting ID 87222421634, Code 562932","conference_url":"https://us05web.zoom.us/j/87222421634?pwd=L1h0c2ZVWDZMNDBHd1kxbmRnUmhIZz09","url":"https://aatucson.org/meetings/upon-awakening-virtual-meeting-4/","timezone":"America/Phoenix"},{"feed":"area03.com","slug":"upon-awakening-virtual-meeting-4","name":"New Dimension Virtual Meeting","day":0,"time":"06:30","end_time":"07:30","types":["D","O","ONL"],"state":"AZ","city":"Tucson","latitude":32.2539787,"longitude":-110.9741769,"location":"Online Meeting","region":"Tucson Midtown","notes":"Zoom Meeting\nhttps://zoom.us/j/87222421634\nPasscode: Page25\n\nTo dial in: 1-669-900-6883, Meeting ID 87222421634, Code 562932","conference_url":"https://us05web.zoom.us/j/87222421634?pwd=L1h0c2ZVWDZMNDBHd1kxbmRnUmhIZz09","url":"https://area03.com/meetings/upon-awakening-virtual-meeting-4/","timezone":"America/Phoenix"},{"feed":"area03.com","slug":"780","name":"Drunkin Donuts","day":0,"time":"06:45","types":["O","D"],"state":"AZ","postal_code":"85015","city":"Phoenix","address":"6619 N 19th Ave b","latitude":33.5347546,"longitude":-112.0992187,"location":"Mid-City Group","region":"Phoenix","url":"https://area03.com/meetings/780/","timezone":"America/Phoenix"},{"feed":"aamesaaz.org","slug":"as-you-wake-up-3","name":"As You Wake Up","day":0,"time":"06:45","end_time":"07:45","types":["O","ONL"],"state":"AZ","postal_code":"85284","city":"Tempe","address":"1565 E Warner Rd","latitude":33.3335603,"longitude":-111.9144285,"location":"Mission del Sol Church -","region":"Tempe","notes":"Hybrid Format, in-person and online.\nID 835 2385 2170\nPassword 480761","conference_url":"https://zoom.us/j/83523852170","url":"https://aamesaaz.org/meetings/as-you-wake-up-3/","timezone":"America/Phoenix"},{"feed":"area03.com","slug":"as-you-wake-up-3","name":"As You Wake Up","day":0,"time":"06:45","end_time":"07:45","types":["O","ONL"],"state":"AZ","postal_code":"85284","city":"Tempe","address":"1565 E Warner Rd","latitude":33.3342608,"longitude":-111.9144751,"location":"Mission del Sol Church -","region":"Tempe","notes":"Hybrid Format, in-person and online.\nID 835 2385 2170\nPassword 480761","conference_url":"https://zoom.us/j/83523852170","url":"https://area03.com/meetings/as-you-wake-up-3/","timezone":"America/Phoenix"},{"feed":"aamesaaz.org","slug":"eye-opener-group-7","name":"Eye-Opener Group","day":0,"time":"06:45","end_time":"07:45","types":["DR","D","O"],"state":"AZ","postal_code":"85122","city":"Casa Grande","address":"702 E Cottonwood Ln","latitude":32.8950991,"longitude":-111.7437662,"location":"First Presbyterian Church - Fellowship Hall (Room #11)","region":"Casa Grande","notes":"Non-smoking","url":"https://aamesaaz.org/meetings/eye-opener-group-7/","group":"Eye-Opener","timezone":"America/Phoenix"},{"feed":"area03.com","slug":"eye-opener-group-7","name":"Eye-Opener Group","day":0,"time":"06:45","end_time":"07:45","types":["DR","D","O"],"state":"AZ","postal_code":"85122","city":"Casa Grande","address":"702 E Cottonwood Ln","latitude":32.8955353,"longitude":-111.743673,"location":"First Presbyterian Church - Fellowship Hall (Room #11)","region":"Casa Grande","notes":"Non-smoking","url":"https://area03.com/meetings/eye-opener-group-7/","group":"Eye-Opener","timezone":"America/Phoenix"},{"feed":"aatucson.org","slug":"monday-morning-shades-group-2","name":"Morning Shades Group","day":0,"time":"06:45","end_time":"07:45","types":["D","O","X"],"state":"AZ","postal_code":"85711","city":"Tucson","address":"6061 E Broadway Blvd #127","latitude":32.2229073,"longitude":-110.8627892,"location":"Eastside Meeting Place","region":"Tucson East, Northeast","notes":"STARTS AT 645am - 745am","url":"https://aatucson.org/meetings/monday-morning-shades-group-2/","group":"Morning Shades Group","timezone":"America/Phoenix"},{"feed":"area03.com","slug":"monday-morning-shades-group-2","name":"Morning Shades Group","day":0,"time":"06:45","end_time":"07:45","types":["D","O","X"],"state":"AZ","postal_code":"85711","city":"Tucson","address":"6061 E Broadway Blvd #127","latitude":32.2229073,"longitude":-110.8627892,"location":"Eastside Meeting Place","region":"Tucson East, Northeast","notes":"STARTS AT 645am - 745am","url":"https://area03.com/meetings/monday-morning-shades-group-2/","group":"Morning Shades Group","timezone":"America/Phoenix"},{"feed":"aatucson.org","slug":"morning-shades-virtual-meeting-3-2-2-2","name":"Morning Shades Virtual Meeting","day":0,"time":"06:45","end_time":"07:45","types":["EN","O","ONL"],"state":"AZ","city":"Tucson","latitude":32.2539787,"longitude":-110.9741769,"location":"Online Meeting","region":"Tucson Midtown","notes":"Zoom Meeting please download the app prior to the meeting. https://zoom.us/j/98068265887\nModerators please use suggested settings below in location notes\nTO DIAL IN: 1-669-900-6833,,98068265887#,,,#\nOR\n1-346-2487799,,98068265887#,,,#","conference_url":"https://zoom.us/j/98068265887","url":"https://aatucson.org/meetings/morning-shades-virtual-meeting-3-2-2-2/","timezone":"America/Phoenix"},{"feed":"area03.com","slug":"morning-shades-virtual-meeting-3-2-2-2","name":"Morning Shades Virtual Meeting","day":0,"time":"06:45","end_time":"07:45","types":["EN","O","ONL"],"state":"AZ","city":"Tucson","latitude":32.2539787,"longitude":-110.9741769,"location":"Online Meeting","region":"Tucson Midtown","notes":"Zoom Meeting please download the app prior to the meeting. https://zoom.us/j/98068265887\nModerators please use suggested settings below in location notes\nTO DIAL IN: 1-669-900-6833,,98068265887#,,,#\nOR\n1-346-2487799,,98068265887#,,,#","conference_url":"https://zoom.us/j/98068265887","url":"https://area03.com/meetings/morning-shades-virtual-meeting-3-2-2-2/","timezone":"America/Phoenix"},{"feed":"aamesaaz.org","slug":"rising-spirit-group","name":"Rising Spirit Group Hybrid","day":0,"time":"06:45","types":["O","ONL"],"state":"AZ","postal_code":"85282","city":"Tempe","address":"2085 E Southern Ave","latitude":33.3921931,"longitude":-111.896438,"location":"King Of Glory","region":"Tempe","notes":"Zoom ID\n266 470 894\nPasscode: PassItOn","conference_url":"https://zoom.us/j/266470894","url":"https://aamesaaz.org/meetings/rising-spirit-group/","timezone":"America/Phoenix"},{"feed":"area03.com","slug":"rising-spirit-group","name":"Rising Spirit Group Hybrid","day":0,"time":"06:45","types":["O","ONL"],"state":"AZ","postal_code":"85282","city":"Tempe","address":"2085 E Southern Ave","latitude":33.3921931,"longitude":-111.896438,"location":"King Of Glory","region":"Tempe","notes":"Zoom ID\n266 470 894\nPasscode: PassItOn","conference_url":"https://zoom.us/j/266470894","url":"https://area03.com/meetings/rising-spirit-group/","timezone":"America/Phoenix"},{"feed":"aatucson.org","slug":"sunday-smoke-free-nooners-11step-meeting","name":"Smoke Free Nooners Group  Eye Opener Meeting","day":0,"time":"06:45","end_time":"07:45","types":["11","D","MED","O","X"],"state":"AZ","postal_code":"85719","city":"Tucson","address":"3620 N 1st Ave #148","latitude":32.2724162,"longitude":-110.9602104,"location":"Smoke Free Nooners","region":"Tucson Midtown","notes":"STARTS AT 6:45am - 7:45am This meeting meets Face to Face 7 days a week","url":"https://aatucson.org/meetings/sunday-smoke-free-nooners-11step-meeting/","group":"Smoke Free Nooners","timezone":"America/Phoenix"},{"feed":"area03.com","slug":"sunday-smoke-free-nooners-11step-meeting","name":"Smoke Free Nooners Group Eye Opener Meeting","day":0,"time":"06:45","end_time":"07:45","types":["11","D","MED","O","X"],"state":"AZ","postal_code":"85719","city":"Tucson","address":"3620 N 1st Ave #148","latitude":32.2724162,"longitude":-110.9602104,"location":"Smoke Free Nooners","region":"Tucson Midtown","notes":"STARTS AT 6:45am - 7:45am This meeting meets Face to Face 7 days a week","url":"https://area03.com/meetings/sunday-smoke-free-nooners-11step-meeting/","group":"Smoke Free Nooners","timezone":"America/Phoenix"},{"feed":"aatucson.org","slug":"sunday-smoke-free-nooners-11step-meeting-4","name":"Smoke Free Nooners Group  Eye Opener Meeting Online","day":0,"time":"06:45","end_time":"07:45","types":["11","D","MED","O","ONL"],"state":"AZ","city":"Tucson","latitude":32.2539787,"longitude":-110.9741769,"location":"Online Meeting","region":"Tucson Midtown","notes":"Zoom ID 82417147452\nPassword 839886","conference_url":"https://zoom.us/j/82417147452","url":"https://aatucson.org/meetings/sunday-smoke-free-nooners-11step-meeting-4/","group":"Smoke Free Nooners","timezone":"America/Phoenix"},{"feed":"area03.com","slug":"sunday-smoke-free-nooners-11step-meeting-4","name":"Smoke Free Nooners Group Eye Opener Meeting Online","day":0,"time":"06:45","end_time":"07:45","types":["11","D","MED","O","ONL"],"state":"AZ","city":"Tucson","latitude":32.2539787,"longitude":-110.9741769,"location":"Online Meeting","region":"Tucson Midtown","notes":"Zoom ID 82417147452\nPassword 839886","conference_url":"https://zoom.us/j/82417147452","url":"https://area03.com/meetings/sunday-smoke-free-nooners-11step-meeting-4/","group":"Smoke Free Nooners","timezone":"America/Phoenix"},{"feed":"aamesaaz.org","slug":"tempe-sunrisers","name":"Tempe Sunrisers - Hybrid","day":0,"time":"06:45","end_time":"07:45","types":["O","ONL"],"state":"AZ","postal_code":"85282","city":"Tempe","address":"4415 S Rural Rd","latitude":33.3837874,"longitude":-111.924951,"location":"The Pigeon Coop","region":"Tempe","notes":"Zoom Passcode: 488837","conference_url":"https://zoom.us/j/2062366675","url":"https://aamesaaz.org/meetings/tempe-sunrisers/","timezone":"America/Phoenix"},{"feed":"area03.com","slug":"tempe-sunrisers","name":"Tempe Sunrisers - Hybrid","day":0,"time":"06:45","end_time":"07:45","types":["O","ONL"],"state":"AZ","postal_code":"85282","city":"Tempe","address":"4415 S Rural Rd","latitude":33.3838598,"longitude":-111.9249004,"location":"The Pigeon Coop","region":"Tempe","notes":"Zoom Passcode: 488837","conference_url":"https://zoom.us/j/2062366675","url":"https://area03.com/meetings/tempe-sunrisers/","timezone":"America/Phoenix"},{"feed":"aamesaaz.org","slug":"the-page-a-day-group-12","name":"The Page A Day Group","day":0,"time":"06:45","types":["ONL"],"state":"AZ","city":"Mesa","latitude":33.4151843,"longitude":-111.8314724,"location":"Online Mesa","region":"Mesa","notes":"Zoom ID: 565 989 360\nPasscode: 06101935","conference_url":"https://zoom.us/j/565989360","url":"https://aamesaaz.org/meetings/the-page-a-day-group-12/","timezone":"America/Phoenix"},{"feed":"area03.com","slug":"the-page-a-day-group-12","name":"The Page A Day Group","day":0,"time":"06:45","types":["ONL"],"state":"AZ","city":"Mesa","latitude":33.4151843,"longitude":-111.8314724,"location":"Online Mesa","region":"Mesa","notes":"Zoom ID: 565 989 360\nPasscode: 06101935","conference_url":"https://zoom.us/j/565989360","url":"https://area03.com/meetings/the-page-a-day-group-12/","timezone":"America/Phoenix"},{"feed":"aamesaaz.org","slug":"upon-awakening-6","name":"Upon Awakening - Zoom","day":0,"time":"06:45","end_time":"07:45","types":["TC","ONL"],"state":"AZ","postal_code":"85295","city":"Gilbert","address":"3225 S Lindsay Rd","latitude":33.2915398,"longitude":-111.7738011,"location":"Desert Cross Lutheran Church - Gilbert","region":"Gilbert","notes":"Zoom ID: 89646600555\nPasscode: bigbook","conference_url":"https://zoom.us/j/89646600555","url":"https://aamesaaz.org/meetings/upon-awakening-6/","timezone":"America/Phoenix"},{"feed":"area03.com","slug":"upon-awakening-6","name":"Upon Awakening - Zoom","day":0,"time":"06:45","end_time":"07:45","types":["TC","ONL"],"state":"AZ","postal_code":"85295","city":"Gilbert","address":"3225 S Lindsay Rd","latitude":33.2915257,"longitude":-111.7738094,"location":"Desert Cross Lutheran Church - Gilbert","region":"Gilbert","notes":"Zoom ID: 89646600555\nPasscode: bigbook","conference_url":"https://zoom.us/j/89646600555","url":"https://area03.com/meetings/upon-awakening-6/","timezone":"America/Phoenix"},{"feed":"area03.com","slug":"1704","name":"11 At 7","day":0,"time":"07:00","types":["O","D","MED"],"state":"AZ","postal_code":"85268","city":"Fountain Hills","address":"15300 N Fountain Hills Blvd","latitude":33.6254188,"longitude":-111.7199178,"location":"The Fountains UMC","region":"Fountain Hills","url":"https://area03.com/meetings/1704/","timezone":"America/Phoenix"},{"feed":"area03.com","slug":"24-hour-international-marathon-meeting-of-aa-where-sobriety-never-sleeps-149","name":"24 Hour International Marathon Meeting of AA (Where sobriety never sleeps)","day":0,"time":"07:00","end_time":"08:00","types":["12x12","BE","SEN","Y","ONL"],"state":"AZ","city":"Tombstone","latitude":31.7128683,"longitude":-110.0675764,"location":"Online Meeting","region":"Zoom","notes":"The 24 International Marathon Meeting of AA was started by two newcomers from New Zealand with cell phones at the beginning of the COVID pandemic. The meeting has been running continuously since 20 April 2020.","conference_url":"https://us02web.zoom.us/j/2923712604","url":"https://area03.com/meetings/24-hour-international-marathon-meeting-of-aa-where-sobriety-never-sleeps-149/","group":"24 Hour International Marathon Meeting of AA","timezone":"America/Phoenix"},{"feed":"area03.com","slug":"30","name":"Go For It Group 1","day":0,"time":"07:00","types":["O","SP"],"state":"AZ","postal_code":"85008","city":"Phoenix","address":"2310 N 56th St a","latitude":33.4737694,"longitude":-111.9614015,"location":"Valley Alano","region":"Phoenix","notes":"Room C","url":"https://area03.com/meetings/30/","timezone":"America/Phoenix"},{"feed":"area03.com","slug":"3054","name":"7am Solution","day":0,"time":"07:00","types":["O","D","ONL"],"state":"AZ","postal_code":"85250","city":"Scottsdale","latitude":33.5243639,"longitude":-111.8985922,"location":", Scottsdale, AZ 85250, USA","region":"Scottsdale","conference_url":"https://zoom.us/j/85242340739","url":"https://area03.com/meetings/3054/","timezone":"America/Phoenix"},{"feed":"area03.com","slug":"785","name":"One For The Road","day":0,"time":"07:00","end_time":"08:00","types":["D","O"],"state":"AZ","postal_code":"85051","city":"Phoenix","address":"7523 N 35th Ave","latitude":33.5467658,"longitude":-112.1331479,"location":"Crossroads West","region":"Phoenix","url":"https://area03.com/meetings/785/","timezone":"America/Phoenix"},{"feed":"area03.com","slug":"786","name":"No Sniveling","day":0,"time":"07:00","types":["O","D","X"],"state":"AZ","postal_code":"85250","city":"Scottsdale","address":"7405 E McDonald Dr","latitude":33.5238335,"longitude":-111.920961,"location":"First Christian Church","region":"Scottsdale","url":"https://area03.com/meetings/786/","timezone":"America/Phoenix"},{"feed":"aatucson.org","slug":"byobb","name":"BYOBB","day":0,"time":"07:00","end_time":"08:00","types":["B","O","XB","EN"],"state":"AZ","postal_code":"85705","city":"Tucson","address":"3120 W Curtis Rd","latitude":32.301893,"longitude":-111.0340211,"location":"Northwest Alano Club","region":"Tucson Northwest (Marana, Oro-Valley)","url":"https://aatucson.org/meetings/byobb/","timezone":"America/Phoenix"},{"feed":"area03.com","slug":"byobb","name":"BYOBB","day":0,"time":"07:00","end_time":"08:00","types":["B","O","XB","EN"],"state":"AZ","postal_code":"85705","city":"Tucson","address":"3120 W Curtis Rd","latitude":32.3018658,"longitude":-111.0340484,"location":"Northwest Alano Club","region":"Tucson Northwest (Marana, Oro-Valley)","url":"https://area03.com/meetings/byobb/","timezone":"America/Phoenix"},{"feed":"area03.com","slug":"earlybirds-flagstaff-online","name":"Earlybirds Flagstaff Online","day":0,"time":"07:00","end_time":"08:00","types":["O","ONL"],"state":"AZ","city":"Flagstaff","latitude":35.1982836,"longitude":-111.651302,"location":"Online Meeting","region":"Flagstaff","notes":"Meeting ID is 599 355 1376\n\nNo password required.\n\n7th Tradition: Early Birds Online can be found on the PayPal website as https://paypal.me/EarlyBirdsFlagOnline. Many members find it convenient to contribute a week, 2 weeks or a month at a time.","conference_url":"https://us02web.zoom.us/j/5993551376","url":"https://area03.com/meetings/earlybirds-flagstaff-online/","timezone":"America/Phoenix"},{"feed":"flagstaffaa.org","slug":"earlybirds-flagstaff-online","name":"Earlybirds Flagstaff Online","day":0,"time":"07:00","end_time":"08:00","types":["O","ONL"],"state":"AZ","city":"Flagstaff","latitude":35.1982836,"longitude":-111.651302,"location":"Online Meeting","region":"Flagstaff","notes":"Meeting ID is 599 355 1376\n\nNo password required.\n\n7th Tradition: Early Birds Online can be found on the PayPal website as https://paypal.me/EarlyBirdsFlagOnline. Many members find it convenient to contribute a week, 2 weeks or a month at a time.","conference_url":"https://us02web.zoom.us/j/5993551376","url":"https://flagstaffaa.org/meetings/earlybirds-flagstaff-online/","timezone":"America/Phoenix"},{"feed":"aatucson.org","slug":"fresh-start-virtual-meeting-4-2-2","name":"Fresh Start Virtual Meeting","day":0,"time":"07:00","end_time":"08:00","types":["C","BE","ONL"],"state":"AZ","city":"Tucson","latitude":32.2539787,"longitude":-110.9741769,"location":"Online Meeting","region":"Tucson Midtown","notes":"Zoom Meeting please download the app prior to the meeting. Zoom https://zoom.us/j/406967657\nPassword 163980\nModerators please use suggested settings below in location notes\nTO DIAL IN: 1-669-900-6833,,406967657#,,,#,,,163980","conference_url":"https://us04web.zoom.us/j/406967657?pwd=VVNncjV0VkZMWlJ3YXRmc2ErTGliZz09","url":"https://aatucson.org/meetings/fresh-start-virtual-meeting-4-2-2/","timezone":"America/Phoenix"},{"feed":"area03.com","slug":"fresh-start-virtual-meeting-4-2-2","name":"Fresh Start Virtual Meeting","day":0,"time":"07:00","end_time":"08:00","types":["C","BE","ONL"],"state":"AZ","city":"Tucson","latitude":32.2539787,"longitude":-110.9741769,"location":"Online Meeting","region":"Tucson Midtown","notes":"Zoom Meeting please download the app prior to the meeting. Zoom https://zoom.us/j/406967657\nPassword 163980\nModerators please use suggested settings below in location notes\nTO DIAL IN: 1-669-900-6833,,406967657#,,,#,,,163980","conference_url":"https://us04web.zoom.us/j/406967657?pwd=VVNncjV0VkZMWlJ3YXRmc2ErTGliZz09","url":"https://area03.com/meetings/fresh-start-virtual-meeting-4-2-2/","timezone":"America/Phoenix"},{"feed":"aamesaaz.org","slug":"new-spirit-7am-daily-digital-5","name":"New Spirit 7am Daily Digital","day":0,"time":"07:00","end_time":"08:00","types":["DR","ONL"],"state":"AZ","postal_code":"85282","city":"Tempe","latitude":33.3897576,"longitude":-111.9343636,"location":"Online-Tempe","region":"Tempe","notes":"ID: 8151 828 9904\nPasscode: 123456","conference_url":"https://zoom.us/j/81518289904","url":"https://aamesaaz.org/meetings/new-spirit-7am-daily-digital-5/","timezone":"America/Phoenix"},{"feed":"area03.com","slug":"new-spirit-7am-daily-digital-5","name":"New Spirit 7am Daily Digital","day":0,"time":"07:00","end_time":"08:00","types":["DR","ONL"],"state":"AZ","postal_code":"85282","city":"Tempe","latitude":33.3897576,"longitude":-111.9343636,"location":"Online-Tempe","region":"Tempe","notes":"ID: 8151 828 9904\nPasscode: 123456","conference_url":"https://zoom.us/j/81518289904","url":"https://area03.com/meetings/new-spirit-7am-daily-digital-5/","timezone":"America/Phoenix"},{"feed":"area03.com","slug":"our-house-7","name":"Our House","day":0,"time":"07:00","end_time":"08:00","types":["O"],"state":"AZ","postal_code":"86403","city":"Lake Havasu City","address":"2060 W Acoma Blvd","latitude":34.4960749,"longitude":-114.3382752,"region":"Lake Havasu City","url":"https://area03.com/meetings/our-house-7/","group":"Our House","timezone":"America/Phoenix"},{"feed":"area03.com","slug":"spirit-of-sedona-3","name":"Spirit of Sedona","day":0,"time":"07:00","end_time":"08:00","types":["D","LIT","MED","O","ONL"],"state":"AZ","postal_code":"86351","city":"Sedona","latitude":34.7566841,"longitude":-111.7376178,"region":"Sedona","notes":"Strong sobriety based in red rock country, with online members from across the country. Gather with our eclectic community 3 days a week for readings from Daily Reflections, As Bill Sees It, and other recovery literature. We usually start with a 10 \u2013 20 minute meditation followed by lots of healthy discussion.","conference_url":"https://zoom.us/j/810%207268%208881#success","url":"https://area03.com/meetings/spirit-of-sedona-3/","timezone":"America/Phoenix"},{"feed":"aatucson.org","slug":"sunday-fresh-start-meeting","name":"Fresh Start Group","day":0,"time":"07:00","end_time":"08:00","types":["C","LIT","X"],"state":"AZ","postal_code":"85705","city":"Tucson","address":"3120 W Curtis Rd","latitude":32.301893,"longitude":-111.0340211,"location":"Northwest Alano Club","region":"Tucson Northwest (Marana, Oro-Valley)","notes":"Study of The History of AA\nMeets in the clubhouse","url":"https://aatucson.org/meetings/sunday-fresh-start-meeting/","timezone":"America/Phoenix"},{"feed":"area03.com","slug":"sunday-fresh-start-meeting","name":"Fresh Start Group","day":0,"time":"07:00","end_time":"08:00","types":["C","LIT","X"],"state":"AZ","postal_code":"85705","city":"Tucson","address":"3120 W Curtis Rd","latitude":32.3018658,"longitude":-111.0340484,"location":"Northwest Alano Club","region":"Tucson Northwest (Marana, Oro-Valley)","notes":"Study of The History of AA\nMeets in the clubhouse","url":"https://area03.com/meetings/sunday-fresh-start-meeting/","timezone":"America/Phoenix"},{"feed":"area03.com","slug":"sunday-morning-aa-solutions","name":"Sunday Morning AA Solutions","day":0,"time":"07:00","end_time":"08:00","types":["O","D"],"state":"AZ","postal_code":"86301","city":"Prescott","address":"520 W Delano Ave","latitude":34.5721101,"longitude":-112.4712486,"location":"Safe Harbor","region":"Prescott","notes":"2nd & 4th Sunday AA","url":"https://area03.com/meetings/sunday-morning-aa-solutions/","timezone":"America/Phoenix"},{"feed":"prescottaa.org","slug":"sunday-morning-aa-solutions","name":"Sunday Morning AA Solutions","day":0,"time":"07:00","end_time":"08:00","types":["O","D"],"state":"AZ","postal_code":"86301","city":"Prescott","address":"520 W Delano Ave","latitude":34.5721088,"longitude":-112.4712643,"location":"Safe Harbor","region":"Prescott","notes":"2nd & 4th Sunday AA","url":"https://prescottaa.org/meetings/sunday-morning-aa-solutions/","timezone":"America/Phoenix"},{"feed":"aamesaaz.org","slug":"the-patio-group","name":"The Patio Group","day":0,"time":"07:00","end_time":"08:00","types":["O"],"state":"AZ","postal_code":"85284","city":"Tempe","address":"8600 S McClintock Dr","latitude":33.3367754,"longitude":-111.9123791,"location":"Desert Cross Lutheran","region":"Tempe","notes":"Meets outside 7 days a week. Patio chairs are available or bring your own patio chair if you'd like. This is an outdoor meeting but moves inside depending on the weather. There are smoking and non-smoking areas.","url":"https://aamesaaz.org/meetings/the-patio-group/","timezone":"America/Phoenix"},{"feed":"area03.com","slug":"the-patio-group","name":"The Patio Group","day":0,"time":"07:00","end_time":"08:00","types":["O"],"state":"AZ","postal_code":"85284","city":"Tempe","address":"8600 S McClintock Dr","latitude":33.3367754,"longitude":-111.9123791,"location":"Desert Cross Lutheran","region":"Tempe","notes":"Meets outside 7 days a week. Patio chairs are available or bring your own patio chair if you'd like. This is an outdoor meeting but moves inside depending on the weather. There are smoking and non-smoking areas.","url":"https://area03.com/meetings/the-patio-group/","timezone":"America/Phoenix"},{"feed":"area03.com","slug":"2815","name":"BYOChair","day":0,"time":"07:30","end_time":"08:30","types":["C","D","OUT"],"state":"AZ","postal_code":"85258","city":"Scottsdale","address":"7957 E Gainey Ranch Rd","latitude":33.5626513,"longitude":-111.9106456,"location":"Scottsdale Rotary Park","region":"Scottsdale","notes":"Bring your own chair. It is outside in the park!","url":"https://area03.com/meetings/2815/","timezone":"America/Phoenix"},{"feed":"area03.com","slug":"3154","name":"3 Pertinent Ideas","day":0,"time":"07:30","types":["C","D","M","ONL"],"state":"AZ","postal_code":"85323","city":"Avondale","latitude":33.4334649,"longitude":-112.3278161,"location":", Avondale, AZ 85323, USA","region":"Avondale","conference_url":"https://zoom.us/j/81287116983","url":"https://area03.com/meetings/3154/","timezone":"America/Phoenix"},{"feed":"area03.com","slug":"5","name":"Goodale Mens Stag","day":0,"time":"07:30","types":["C","D","M"],"state":"AZ","postal_code":"85323","city":"Avondale","address":"919 N Dysart Rd w","latitude":33.4431,"longitude":-112.3404362,"location":"West Valley Fellowship","region":"Avondale","url":"https://area03.com/meetings/5/","timezone":"America/Phoenix"},{"feed":"area03.com","slug":"eye-openers-2","name":"Eye Openers","day":0,"time":"07:30","end_time":"08:30","types":["D","O","X"],"state":"AZ","postal_code":"85901","city":"Show Low","address":"380 E McNeil","latitude":34.2499497,"longitude":-110.0384757,"location":"Show Low Fellowship Hall","region":"Show Low","url":"https://area03.com/meetings/eye-openers-2/","timezone":"America/Phoenix"},{"feed":"aatucson.org","slug":"green-valley-morning-group-4-2","name":"Green Valley Morning Group","day":0,"time":"07:30","end_time":"08:30","types":["D","O","X"],"state":"AZ","postal_code":"85614","city":"Green Valley","address":"880 W Camino Casa Verde","latitude":31.885674,"longitude":-111.0052673,"location":"Green Valley Alano Club","region":"Pima County Far South (Green Valley, Sahuarita)","url":"https://aatucson.org/meetings/green-valley-morning-group-4-2/","timezone":"America/Phoenix"},{"feed":"area03.com","slug":"green-valley-morning-group-4-2","name":"Green Valley Morning Group","day":0,"time":"07:30","end_time":"08:30","types":["D","O","X"],"state":"AZ","postal_code":"85614","city":"Green Valley","address":"880 W Camino Casa Verde","latitude":31.8856396,"longitude":-111.0052207,"location":"Green Valley Alano Club","region":"Pima County Far South (Green Valley, Sahuarita)","url":"https://area03.com/meetings/green-valley-morning-group-4-2/","timezone":"America/Phoenix"},{"feed":"area03.com","slug":"3","name":"New Faces","day":0,"time":"07:45","types":["O","D","X"],"state":"AZ","postal_code":"85253","city":"Scottsdale","address":"10427 N Scottsdale Rd","latitude":33.5814533,"longitude":-111.92407,"location":"North Scottsdale Fellowship Club","region":"Scottsdale","url":"https://area03.com/meetings/3/","timezone":"America/Phoenix"},{"feed":"area03.com","slug":"24-hour-international-marathon-meeting-of-aa-where-sobriety-never-sleeps-150","name":"24 Hour International Marathon Meeting of AA (Where sobriety never sleeps)","day":0,"time":"08:00","end_time":"09:00","types":["12x12","BE","SEN","Y","ONL"],"state":"AZ","city":"Tombstone","latitude":31.7128683,"longitude":-110.0675764,"location":"Online Meeting","region":"Zoom","notes":"The 24 International Marathon Meeting of AA was started by two newcomers from New Zealand with cell phones at the beginning of the COVID pandemic. The meeting has been running continuously since 20 April 2020.","conference_url":"https://us02web.zoom.us/j/2923712604","url":"https://area03.com/meetings/24-hour-international-marathon-meeting-of-aa-where-sobriety-never-sleeps-150/","group":"24 Hour International Marathon Meeting of AA","timezone":"America/Phoenix"},{"feed":"area03.com","slug":"2647","name":"Mens 86 Group","day":0,"time":"08:00","types":["O","D","M"],"state":"AZ","postal_code":"85032","city":"Phoenix","address":"13627 N 32nd St","latitude":33.6109774,"longitude":-112.0131011,"location":"Studio 164","region":"Phoenix","notes":"Room A","url":"https://area03.com/meetings/2647/","timezone":"America/Phoenix"},{"feed":"area03.com","slug":"27","name":"Rain Or Shine","day":0,"time":"08:00","types":["O","D","BE"],"state":"AZ","postal_code":"85020","city":"Phoenix","address":"10600 N 7th St","latitude":33.5856557,"longitude":-112.0662904,"location":"North Mountain Park","region":"Phoenix","notes":"Havasupai Ramada","url":"https://area03.com/meetings/27/","timezone":"America/Phoenix"},{"feed":"area03.com","slug":"28","name":"Sunday Donuts","day":0,"time":"08:00","types":["C","D"],"state":"AZ","postal_code":"85302","city":"Glendale","address":"8910 N 43rd Ave #102","latitude":33.5660522,"longitude":-112.1528517,"location":"Fellowship Hall","region":"Glendale","url":"https://area03.com/meetings/28/","timezone":"America/Phoenix"},{"feed":"area03.com","slug":"3156","name":"Rain Or Shine","day":0,"time":"08:00","types":["O","D","BE","ONL"],"state":"AZ","postal_code":"85020","city":"Phoenix","latitude":33.5636878,"longitude":-112.0595603,"location":", Phoenix, AZ 85020, USA","region":"Phoenix","conference_url":"https://zoom.us/j/88523320382","url":"https://area03.com/meetings/3156/","timezone":"America/Phoenix"},{"feed":"aamesaaz.org","slug":"aint-saints-mens-stag","name":"Ain't Saints Men's Stag","day":0,"time":"08:00","end_time":"09:00","types":["C","M","ONL"],"state":"AZ","city":"Chandler","latitude":33.3061605,"longitude":-111.8412502,"location":"Online Chandler","region":"Chandler","notes":"Zoom ID: 838 416 4171\nPasscode: 12Steps","conference_url":"https://zoom.us/j/8384164171","url":"https://aamesaaz.org/meetings/aint-saints-mens-stag/","timezone":"America/Phoenix"},{"feed":"area03.com","slug":"aint-saints-mens-stag","name":"Ain't Saints Men's Stag","day":0,"time":"08:00","end_time":"09:00","types":["C","M","ONL"],"state":"AZ","city":"Chandler","latitude":33.3061605,"longitude":-111.8412502,"location":"Online Chandler","region":"Chandler","notes":"Zoom ID: 838 416 4171\nPasscode: 12Steps","conference_url":"https://zoom.us/j/8384164171","url":"https://area03.com/meetings/aint-saints-mens-stag/","timezone":"America/Phoenix"},{"feed":"aamesaaz.org","slug":"dog-tired-stag","name":"Dog Tired Stag","day":0,"time":"08:00","end_time":"09:00","types":["MED","M","O"],"state":"AZ","postal_code":"85282","city":"Tempe","address":"2103 E Southern Ave","latitude":33.3927086,"longitude":-111.8959606,"location":"Compassion Sync 2655 West Guadalupe #21 Mesa, AZ 85202","region":"Tempe","url":"https://aamesaaz.org/meetings/dog-tired-stag/","timezone":"America/Phoenix"},{"feed":"area03.com","slug":"dog-tired-stag","name":"Dog Tired Stag","day":0,"time":"08:00","end_time":"09:00","types":["MED","M","O"],"state":"AZ","postal_code":"85282","city":"Tempe","address":"2103 E Southern Ave","latitude":33.3927086,"longitude":-111.8959606,"location":"Compassion Sync 2655 West Guadalupe #21 Mesa, AZ 85202","region":"Tempe","url":"https://area03.com/meetings/dog-tired-stag/","timezone":"America/Phoenix"},{"feed":"aamesaaz.org","slug":"easy-does-it-grapevine","name":"Easy Does It - Grapevine","day":0,"time":"08:00","types":["O"],"state":"AZ","postal_code":"85203","city":"Mesa","address":"1933 E University Dr #24","latitude":33.4221257,"longitude":-111.7891338,"location":"Easy Does It","region":"Mesa","url":"https://aamesaaz.org/meetings/easy-does-it-grapevine/","timezone":"America/Phoenix"},{"feed":"area03.com","slug":"easy-does-it-grapevine","name":"Easy Does It - Grapevine","day":0,"time":"08:00","types":["O"],"state":"AZ","postal_code":"85203","city":"Mesa","address":"1933 E University Dr #24","latitude":33.4221257,"longitude":-111.7891338,"location":"Easy Does It","region":"Mesa","url":"https://area03.com/meetings/easy-does-it-grapevine/","timezone":"America/Phoenix"},{"feed":"area03.com","slug":"expect-a-miracle-3","name":"Expect a Miracle","day":0,"time":"08:00","end_time":"09:00","types":["O"],"state":"AZ","postal_code":"85367","city":"Yuma","address":"11388 S Foothills Blvd","latitude":32.6650191,"longitude":-114.4100877,"location":"2-Story Steel Building","region":"Foothills","url":"https://area03.com/meetings/expect-a-miracle-3/","group":"Expect a Miracle","timezone":"America/Phoenix"},{"feed":"area03.com","slug":"expect-a-miracle-9","name":"Expect a Miracle","day":0,"time":"08:00","end_time":"09:00","types":["X"],"state":"AZ","postal_code":"85367","city":"Yuma","address":"12731 E 38th St","latitude":32.6589971,"longitude":-114.4123687,"location":"Foothills Alano Club","region":"Foothills","url":"https://area03.com/meetings/expect-a-miracle-9/","group":"Expect a Miracle","timezone":"America/Phoenix"},{"feed":"aatucson.org","slug":"founders-path","name":"Founders Path","day":0,"time":"08:00","end_time":"09:00","types":["LIT","O","X"],"state":"AZ","postal_code":"85712","city":"Tucson","address":"4405 E Pima St","latitude":32.2437111,"longitude":-110.8988527,"location":"Pima Alano Club","region":"Tucson Midtown","url":"https://aatucson.org/meetings/founders-path/","timezone":"America/Phoenix"},{"feed":"area03.com","slug":"founders-path-2","name":"Founders Path","day":0,"time":"08:00","end_time":"09:00","types":["LIT","O","X"],"state":"AZ","postal_code":"85712","city":"Tucson","address":"4405 E Pima St","latitude":32.2437422,"longitude":-110.8988557,"location":"Pima Alano Club","region":"Tucson Midtown","url":"https://area03.com/meetings/founders-path-2/","timezone":"America/Phoenix"},{"feed":"area03.com","slug":"happy-hour-mens","name":"Happy Hour Men's","day":0,"time":"08:00","end_time":"09:00","types":["C","M"],"state":"AZ","postal_code":"86001","city":"Flagstaff","address":"400 W Aspen Ave","latitude":35.2002801,"longitude":-111.6531704,"location":"Federated Church","region":"Flagstaff","notes":"Men's meeting. We read the step corresponding with the month from the 12 and 12.","url":"https://area03.com/meetings/happy-hour-mens/","timezone":"America/Phoenix"},{"feed":"flagstaffaa.org","slug":"happy-hour-mens","name":"Happy Hour Men's","day":0,"time":"08:00","end_time":"09:00","types":["C","M"],"state":"AZ","postal_code":"86001","city":"Flagstaff","address":"400 W Aspen Ave","latitude":35.2002801,"longitude":-111.6531704,"location":"Federated Church","region":"Flagstaff","notes":"Men's meeting. We read the step corresponding with the month from the 12 and 12.","url":"https://flagstaffaa.org/meetings/happy-hour-mens/","timezone":"America/Phoenix"},{"feed":"area03.com","slug":"highway-92-group-9","name":"Highway 92 Group","day":0,"time":"08:00","end_time":"09:00","types":["O"],"state":"AZ","postal_code":"85650","city":"Sierra Vista","address":"5049 AZ-92","latitude":31.4767291,"longitude":-110.2569392,"location":"Serenity Club","region":"Sierra Vista","url":"https://area03.com/meetings/highway-92-group-9/","timezone":"America/Phoenix"},{"feed":"aamesaaz.org","slug":"miracle-house-group-22","name":"Miracle House Group","day":0,"time":"08:00","end_time":"09:00","types":["D","O"],"state":"AZ","postal_code":"85122","city":"Casa Grande","address":"204 E 3rd St","latitude":32.87751,"longitude":-111.7519302,"location":"Miracle House","region":"Casa Grande","notes":"Non-smoking","url":"https://aamesaaz.org/meetings/miracle-house-group-22/","group":"Miracle House","timezone":"America/Phoenix"},{"feed":"area03.com","slug":"miracle-house-group-22","name":"Miracle House Group","day":0,"time":"08:00","end_time":"09:00","types":["D","O"],"state":"AZ","postal_code":"85122","city":"Casa Grande","address":"204 E 3rd St","latitude":32.87751,"longitude":-111.7519302,"location":"Miracle House","region":"Casa Grande","notes":"Non-smoking","url":"https://area03.com/meetings/miracle-house-group-22/","group":"Miracle House","timezone":"America/Phoenix"},{"feed":"aamesaaz.org","slug":"road-to-recovery-2","name":"Road To Recovery","day":0,"time":"08:00","types":["O"],"state":"AZ","postal_code":"85205","city":"Mesa","address":"6134 E Main St #102","latitude":33.4169382,"longitude":-111.6984597,"location":"Road To Recovery","region":"Mesa","url":"https://aamesaaz.org/meetings/road-to-recovery-2/","timezone":"America/Phoenix"},{"feed":"area03.com","slug":"road-to-recovery-2","name":"Road To Recovery","day":0,"time":"08:00","types":["O"],"state":"AZ","postal_code":"85205","city":"Mesa","address":"6134 E Main St #102","latitude":33.4169382,"longitude":-111.6984597,"location":"Road To Recovery","region":"Mesa","url":"https://area03.com/meetings/road-to-recovery-2/","timezone":"America/Phoenix"},{"feed":"area03.com","slug":"rule-62-10","name":"Rule 62 Daily Reflections BYOB","day":0,"time":"08:00","end_time":"09:00","types":["C","X"],"state":"AZ","postal_code":"85541","city":"Payson","address":"434 S Beeline Hwy","latitude":34.2351933,"longitude":-111.3240464,"location":"Payson Rule 62 Club","region":"Payson","notes":"BYOB=Bring Your Own Book","url":"https://area03.com/meetings/rule-62-10/","timezone":"America/Phoenix"},{"feed":"area03.com","slug":"steps-to-success-2","name":"Steps To Success","day":0,"time":"08:00","types":["O","ST","X"],"state":"AZ","postal_code":"86326","city":"Cottonwood","address":"1309 E Cherry St","latitude":34.7317437,"longitude":-112.0125656,"location":"Cottonwood ALANO Club","region":"Cottonwood","url":"https://area03.com/meetings/steps-to-success-2/","timezone":"America/Phoenix"},{"feed":"centralmountain.org","slug":"steps-to-success-2","name":"Steps To Success","day":0,"time":"08:00","types":["O","ST","X"],"state":"AZ","postal_code":"86326","city":"Cottonwood","address":"1309 E Cherry St","latitude":34.7317443,"longitude":-112.0125448,"location":"Cottonwood ALANO Club","region":"Cottonwood","url":"https://centralmountain.org/meetings/steps-to-success-2/","timezone":"America/Phoenix"},{"feed":"aamesaaz.org","slug":"sunday-am-reflections","name":"Fill In The Blanks","day":0,"time":"08:00","types":["O"],"state":"AZ","postal_code":"85142","city":"Queen Creek","address":"19729 E San Tan Blvd","latitude":33.2117362,"longitude":-111.656973,"location":"Queen Creek Meeting House","region":"Queen Creek","url":"https://aamesaaz.org/meetings/sunday-am-reflections/","timezone":"America/Phoenix"},{"feed":"area03.com","slug":"sunday-am-reflections","name":"Fill In The Blanks","day":0,"time":"08:00","types":["O"],"state":"AZ","postal_code":"85142","city":"Queen Creek","address":"19729 E San Tan Blvd","latitude":33.2116584,"longitude":-111.6570053,"location":"Queen Creek Meeting House","region":"Queen Creek","url":"https://area03.com/meetings/sunday-am-reflections/","timezone":"America/Phoenix"},{"feed":"aatucson.org","slug":"sunday-each-day-new-beginning","name":"Stone Sober/Each Day a New Beginning Meeting","day":0,"time":"08:00","end_time":"09:00","types":["D","O","X"],"state":"AZ","postal_code":"85705","city":"Tucson","address":"610 E Delano St #103","latitude":32.2629676,"longitude":-110.9617945,"location":"Stone Sober Meeting Place","region":"Tucson Midtown","url":"https://aatucson.org/meetings/sunday-each-day-new-beginning/","group":"Stone Sober","timezone":"America/Phoenix"},{"feed":"area03.com","slug":"sunday-each-day-new-beginning","name":"Stone Sober/Each Day a New Beginning Meeting","day":0,"time":"08:00","end_time":"09:00","types":["D","O","X"],"state":"AZ","postal_code":"85705","city":"Tucson","address":"610 E Delano St #103","latitude":32.2629676,"longitude":-110.9617945,"location":"Stone Sober Meeting Place","region":"Tucson Midtown","url":"https://area03.com/meetings/sunday-each-day-new-beginning/","group":"Stone Sober","timezone":"America/Phoenix"},{"feed":"area03.com","slug":"thy-will-not-mine-serenity-group-sunday-writing-workshop","name":"Thy Will Not Mine Serenity Group (Sunday Writing Workshop)","day":0,"time":"08:00","end_time":"09:00","types":["O","W","D","ONL"],"state":"AZ","city":"Prescott","latitude":34.5400242,"longitude":-112.4685025,"location":"Prescott, AZ","region":"Prescott","conference_url":"https://zoom.us/j/85720072065","url":"https://area03.com/meetings/thy-will-not-mine-serenity-group-sunday-writing-workshop/","timezone":"America/Phoenix"},{"feed":"prescottaa.org","slug":"thy-will-not-mine-serenity-group-sunday-writing-workshop","name":"Thy Will Not Mine Serenity Group (Sunday Writing Workshop)","day":0,"time":"08:00","end_time":"09:00","types":["O","W","D","ONL"],"state":"AZ","city":"Prescott","latitude":34.5400242,"longitude":-112.4685025,"location":"Prescott, AZ","region":"Prescott","conference_url":"https://zoom.us/j/85720072065","url":"https://prescottaa.org/meetings/thy-will-not-mine-serenity-group-sunday-writing-workshop/","timezone":"America/Phoenix"},{"feed":"area03.com","slug":"2180","name":"Doing The Work","day":0,"time":"08:15","types":["O","D"],"state":"AZ","postal_code":"85253","city":"Scottsdale","address":"10427 N Scottsdale Rd","latitude":33.5814533,"longitude":-111.92407,"location":"North Scottsdale Fellowship Club","region":"Scottsdale","notes":"Room 2","url":"https://area03.com/meetings/2180/","timezone":"America/Phoenix"},{"feed":"aatucson.org","slug":"business-professional-mens-meeting","name":"Business & Professional Men's Meeting","day":0,"time":"08:15","end_time":"09:30","types":["C","M","SP"],"state":"AZ","postal_code":"85718","city":"Tucson","address":"4440 N Campbell Ave","latitude":32.2880632,"longitude":-110.9434755,"location":"St Phillips in the Hills","region":"Tucson Foothills","url":"https://aatucson.org/meetings/business-professional-mens-meeting/","timezone":"America/Phoenix"},{"feed":"area03.com","slug":"business-professional-mens-meeting","name":"Business & Professional Men's Meeting","day":0,"time":"08:15","end_time":"09:30","types":["C","M","SP"],"state":"AZ","postal_code":"85718","city":"Tucson","address":"4440 N Campbell Ave","latitude":32.2879566,"longitude":-110.9430262,"location":"St Phillips in the Hills","region":"Tucson Foothills","url":"https://area03.com/meetings/business-professional-mens-meeting/","timezone":"America/Phoenix"},{"feed":"area03.com","slug":"2502","name":"Our Daily Books","day":0,"time":"08:30","types":["O","D"],"state":"AZ","postal_code":"85015","city":"Phoenix","address":"6619 N 19th Ave b","latitude":33.5347546,"longitude":-112.0992187,"location":"Mid-City Group","region":"Phoenix","url":"https://area03.com/meetings/2502/","timezone":"America/Phoenix"},{"feed":"area03.com","slug":"2694","name":"Morning In Recovery","day":0,"time":"08:30","types":["O","D","ST"],"state":"AZ","postal_code":"85051","city":"Phoenix","address":"3104 W Glendale Ave","latitude":33.5389061,"longitude":-112.1264878,"location":"Trinity United Methodist Church","region":"Phoenix","url":"https://area03.com/meetings/2694/","timezone":"America/Phoenix"},{"feed":"area03.com","slug":"3111","name":"Living in the Solution (Mens Stag)","day":0,"time":"08:30","types":["C","D","M","ONL"],"state":"AZ","postal_code":"85032","city":"Phoenix","latitude":33.6364503,"longitude":-112.0118669,"location":", Phoenix, AZ 85032, USA","region":"Phoenix","conference_url":"https://zoom.us/j/82409316342","url":"https://area03.com/meetings/3111/","timezone":"America/Phoenix"},{"feed":"area03.com","slug":"32","name":"Sisters In Sobriety","day":0,"time":"08:30","types":["O","W","N"],"state":"AZ","postal_code":"85016","city":"Phoenix","address":"4212 N 16th St","latitude":33.4974067,"longitude":-112.0488115,"location":"Phoenix Indian Medical Center","region":"Phoenix","url":"https://area03.com/meetings/32/","timezone":"America/Phoenix"},{"feed":"area03.com","slug":"3309","name":"Womens Daily Wake Up","day":0,"time":"08:30","types":["C","D","W","ONL"],"state":"AZ","postal_code":"85032","city":"Phoenix","latitude":33.6364503,"longitude":-112.0118669,"location":", Phoenix, AZ 85032, USA","region":"Phoenix","conference_url":"https://us02web.zoom.us/j/83738233399?pwd=ZkMvNEpiWWxkRDAveFZpektVQ2RzQT09","url":"https://area03.com/meetings/3309/","timezone":"America/Phoenix"},{"feed":"aatucson.org","slug":"sunday-morning-aa-meeting","name":"Sunday Morning AA Group","day":0,"time":"08:30","end_time":"09:30","types":["C","D","X"],"state":"AZ","postal_code":"85718","city":"Tucson","address":"Jewish Community Center, 3800 E River Rd","latitude":32.2735994,"longitude":-110.9117269,"location":"Jewish Community Center","region":"Tucson Midtown","url":"https://aatucson.org/meetings/sunday-morning-aa-meeting/","timezone":"America/Phoenix"},{"feed":"area03.com","slug":"sunday-morning-aa-meeting","name":"Sunday Morning AA Group","day":0,"time":"08:30","end_time":"09:30","types":["C","D","X"],"state":"AZ","postal_code":"85718","city":"Tucson","address":"Jewish Community Center, 3800 E River Rd","latitude":32.2738624,"longitude":-110.9123838,"location":"Jewish Community Center","region":"Tucson Midtown","url":"https://area03.com/meetings/sunday-morning-aa-meeting/","timezone":"America/Phoenix"},{"feed":"aamesaaz.org","slug":"the-society-group","name":"The Society Group","day":0,"time":"08:30","types":["BE","O"],"state":"AZ","postal_code":"85207","city":"Mesa","address":"9333 E Main St","latitude":33.4145213,"longitude":-111.6290654,"location":"The Society #125","region":"Mesa","url":"https://aamesaaz.org/meetings/the-society-group/","timezone":"America/Phoenix"},{"feed":"area03.com","slug":"the-society-group","name":"The Society Group","day":0,"time":"08:30","types":["BE","O"],"state":"AZ","postal_code":"85207","city":"Mesa","address":"9333 E Main St","latitude":33.4145061,"longitude":-111.6285764,"location":"The Society #125","region":"Mesa","url":"https://area03.com/meetings/the-society-group/","timezone":"America/Phoenix"},{"feed":"area03.com","slug":"women-awakening-2","name":"Women Awakening","day":0,"time":"08:30","end_time":"09:30","types":["C","W","D","ONL"],"state":"AZ","city":"Prescott","latitude":34.5400242,"longitude":-112.4685025,"location":"Prescott, AZ","region":"Prescott","conference_url":"https://zoom.us/j/8495565909","url":"https://area03.com/meetings/women-awakening-2/","timezone":"America/Phoenix"},{"feed":"prescottaa.org","slug":"women-awakening-2","name":"Women Awakening","day":0,"time":"08:30","end_time":"09:30","types":["C","W","D","ONL"],"state":"AZ","city":"Prescott","latitude":34.5400242,"longitude":-112.4685025,"location":"Prescott, AZ","region":"Prescott","conference_url":"https://zoom.us/j/8495565909","url":"https://prescottaa.org/meetings/women-awakening-2/","timezone":"America/Phoenix"},{"feed":"area03.com","slug":"morning-gratitude","name":"Morning Gratitude","day":0,"time":"08:33","end_time":"09:33","types":["O","D"],"state":"AZ","postal_code":"86323","city":"Chino Valley","address":"318 W Perkinsville Rd","latitude":34.7714893,"longitude":-112.4541661,"location":"AA Meeting Place","region":"Chino Valley","url":"https://area03.com/meetings/morning-gratitude/","timezone":"America/Phoenix"},{"feed":"prescottaa.org","slug":"morning-gratitude","name":"Morning Gratitude","day":0,"time":"08:33","end_time":"09:33","types":["O","D"],"state":"AZ","postal_code":"86323","city":"Chino Valley","address":"318 W Perkinsville Rd","latitude":34.7714772,"longitude":-112.4541714,"location":"AA Meeting Place","region":"Chino Valley","url":"https://prescottaa.org/meetings/morning-gratitude/","timezone":"America/Phoenix"},{"feed":"aatucson.org","slug":"first-edition-big-book-study","name":"Big Book Study First Edition","day":0,"time":"08:50","end_time":"09:50","types":["B","O","X","XB"],"state":"AZ","postal_code":"85614","city":"Green Valley","address":"880 W Camino Casa Verde","latitude":31.885674,"longitude":-111.0052673,"location":"Green Valley Alano Club","region":"Pima County Far South (Green Valley, Sahuarita)","url":"https://aatucson.org/meetings/first-edition-big-book-study/","timezone":"America/Phoenix"},{"feed":"area03.com","slug":"first-edition-big-book-study","name":"Big Book Study First Edition","day":0,"time":"08:50","end_time":"09:50","types":["B","O","X","XB"],"state":"AZ","postal_code":"85614","city":"Green Valley","address":"880 W Camino Casa Verde","latitude":31.8856396,"longitude":-111.0052207,"location":"Green Valley Alano Club","region":"Pima County Far South (Green Valley, Sahuarita)","url":"https://area03.com/meetings/first-edition-big-book-study/","timezone":"America/Phoenix"},{"feed":"area03.com","slug":"1786","name":"Surprise Serenity Group","day":0,"time":"09:00","types":["O","ST"],"state":"AZ","postal_code":"85374","city":"Surprise","address":"18300 W Bell Rd","latitude":33.6399208,"longitude":-112.4535931,"location":"Riverboat","region":"Surprise","url":"https://area03.com/meetings/1786/","timezone":"America/Phoenix"},{"feed":"area03.com","slug":"24-hour-international-marathon-meeting-of-aa-where-sobriety-never-sleeps-151","name":"24 Hour International Marathon Meeting of AA (Where sobriety never sleeps)","day":0,"time":"09:00","end_time":"10:00","types":["12x12","BE","SEN","Y","ONL"],"state":"AZ","city":"Tombstone","latitude":31.7128683,"longitude":-110.0675764,"location":"Online Meeting","region":"Zoom","notes":"The 24 International Marathon Meeting of AA was started by two newcomers from New Zealand with cell phones at the beginning of the COVID pandemic. The meeting has been running continuously since 20 April 2020.","conference_url":"https://us02web.zoom.us/j/2923712604","url":"https://area03.com/meetings/24-hour-international-marathon-meeting-of-aa-where-sobriety-never-sleeps-151/","group":"24 Hour International Marathon Meeting of AA","timezone":"America/Phoenix"},{"feed":"area03.com","slug":"2483","name":"Grupo Mesa Este","day":0,"time":"09:00","types":["O","S"],"state":"AZ","postal_code":"85204","city":"Mesa","address":"1410 E Broadway Rd c","latitude":33.4083121,"longitude":-111.8006785,"location":"Meeting Place - Spanish","region":"Mesa","notes":"1.5hr","url":"https://area03.com/meetings/2483/","timezone":"America/Phoenix"},{"feed":"area03.com","slug":"3327","name":"Phoenix Rising","day":0,"time":"09:00","types":["D","LIT","O","ONL"],"state":"AZ","postal_code":"85323","city":"Avondale","latitude":33.4334649,"longitude":-112.3278161,"location":", Avondale, AZ 85323, USA","region":"Avondale","conference_url":"https://us02web.zoom.us/j/8675017425","url":"https://area03.com/meetings/3327/","timezone":"America/Phoenix"},{"feed":"area03.com","slug":"35","name":"Vision For You","day":0,"time":"09:00","types":["O","D"],"state":"AZ","postal_code":"85323","city":"Avondale","address":"919 N Dysart Rd w","latitude":33.4431,"longitude":-112.3404362,"location":"West Valley Fellowship","region":"Avondale","url":"https://area03.com/meetings/35/","timezone":"America/Phoenix"},{"feed":"area03.com","slug":"37","name":"Gratitude","day":0,"time":"09:00","types":["O","D","X"],"state":"AZ","postal_code":"85390","city":"Wickenburg","address":"2050 W Wickenburg Way #7","latitude":33.9627186,"longitude":-112.7727054,"location":"Wickenburg Plaza","region":"Wickenburg","url":"https://area03.com/meetings/37/","timezone":"America/Phoenix"},{"feed":"area03.com","slug":"53","name":"Functional Group","day":0,"time":"09:00","types":["O","D"],"state":"AZ","postal_code":"85258","city":"Scottsdale","address":"8625 E Mountain View Rd","latitude":33.5701873,"longitude":-111.8960537,"location":"Mountain View Park","region":"Scottsdale","url":"https://area03.com/meetings/53/","timezone":"America/Phoenix"},{"feed":"area03.com","slug":"93252","name":"Acid Test LGBTQIA+","day":0,"time":"09:00","types":["O","D","LGBTQ","ONL"],"state":"AZ","city":"Phoenix","latitude":33.4482948,"longitude":-112.0725488,"location":"Phoenix, AZ, USA","region":"Phoenix","conference_url":"http://zoom.us/j/537542397","url":"https://area03.com/meetings/93252/","timezone":"America/Phoenix"},{"feed":"area03.com","slug":"as-bill-sees-it-2","name":"As Bill Sees It","day":0,"time":"09:00","types":["D","O"],"state":"AZ","postal_code":"86336","city":"Sedona","address":"44 Stutz Bearcat Dr","latitude":34.8621915,"longitude":-111.8038293,"location":"Stutz Bearcat","region":"Sedona","notes":"Off SR 89A. Please do not park in front of 50 Stutz Bearcat","url":"https://area03.com/meetings/as-bill-sees-it-2/","timezone":"America/Phoenix"},{"feed":"centralmountain.org","slug":"as-bill-sees-it-2","name":"As Bill Sees It","day":0,"time":"09:00","types":["D","O"],"state":"AZ","postal_code":"86336","city":"Sedona","address":"44 Stutz Bearcat Dr","latitude":34.8621967,"longitude":-111.8038453,"location":"Stutz Bearcat","region":"Sedona","notes":"Off SR 89A. Please do not park in front of 50 Stutz Bearcat","url":"https://centralmountain.org/meetings/as-bill-sees-it-2/","timezone":"America/Phoenix"},{"feed":"area03.com","slug":"camp-verde-group-12-2","name":"Camp Verde Group","day":0,"time":"09:00","types":["D","O","X"],"state":"AZ","postal_code":"86322","city":"Camp Verde","address":"435 S Main St","latitude":34.5633677,"longitude":-111.8534584,"location":"Old Camp Verde High School","region":"Camp Verde","notes":"Room 205","url":"https://area03.com/meetings/camp-verde-group-12-2/","timezone":"America/Phoenix"},{"feed":"centralmountain.org","slug":"camp-verde-group-12-2","name":"Camp Verde Group","day":0,"time":"09:00","types":["D","O","X"],"state":"AZ","postal_code":"86322","city":"Camp Verde","address":"435 S Main St","latitude":34.5633201,"longitude":-111.8535355,"location":"Old Camp Verde High School","region":"Camp Verde","notes":"Room 205","url":"https://centralmountain.org/meetings/camp-verde-group-12-2/","timezone":"America/Phoenix"},{"feed":"aatucson.org","slug":"green-valley-daily-reprieve-virtual-meeting-2","name":"Green Valley Daily Reprieve Virtual Meeting","day":0,"time":"09:00","end_time":"10:00","types":["D","O","ONL"],"state":"AZ","city":"Tucson","latitude":32.2539787,"longitude":-110.9741769,"location":"Online Meeting","region":"Tucson Midtown","notes":"This meeting meets on Zoom.\nZoom ID # 873 4501 6547\nPW: 827669","conference_url":"https://www.zoom.us/j/87345016547","url":"https://aatucson.org/meetings/green-valley-daily-reprieve-virtual-meeting-2/","timezone":"America/Phoenix"},{"feed":"area03.com","slug":"green-valley-daily-reprieve-virtual-meeting-2","name":"Green Valley Daily Reprieve Virtual Meeting","day":0,"time":"09:00","end_time":"10:00","types":["D","O","ONL"],"state":"AZ","city":"Tucson","latitude":32.2539787,"longitude":-110.9741769,"location":"Online Meeting","region":"Tucson Midtown","notes":"This meeting meets on Zoom.\nZoom ID # 873 4501 6547\nPW: 827669","conference_url":"https://www.zoom.us/j/87345016547","url":"https://area03.com/meetings/green-valley-daily-reprieve-virtual-meeting-2/","timezone":"America/Phoenix"},{"feed":"aamesaaz.org","slug":"grupo-hispano-apache-junction-7","name":"Grupo Hispano Apache Junction","day":0,"time":"09:00","end_time":"10:30","types":["S"],"state":"AZ","postal_code":"85120","city":"Apache Junction","address":"2114 Apache Trail #9","latitude":33.415564,"longitude":-111.5690814,"location":"2114 Apache Trail #9, Apache Junction, AZ 85120, USA","region":"Apache Junction","url":"https://aamesaaz.org/meetings/grupo-hispano-apache-junction-7/","timezone":"America/Phoenix"},{"feed":"area03.com","slug":"grupo-hispano-apache-junction-7","name":"Grupo Hispano Apache Junction","day":0,"time":"09:00","end_time":"10:30","types":["S"],"state":"AZ","postal_code":"85120","city":"Apache Junction","address":"2114 Apache Trail #9","latitude":33.4155562,"longitude":-111.5686757,"location":"2114 Apache Trail #9, Apache Junction, AZ 85120, USA","region":"Apache Junction","url":"https://area03.com/meetings/grupo-hispano-apache-junction-7/","timezone":"America/Phoenix"},{"feed":"aamesaaz.org","slug":"grupo-sendero-de-vida","name":"Grupo Sendero De Vida","day":0,"time":"09:00","types":["O","S"],"state":"AZ","postal_code":"85202","city":"Mesa","address":"1911 W Broadway Rd","latitude":33.4071088,"longitude":-111.8726252,"location":"1911 W Broadway Rd. #19","region":"Mesa","url":"https://aamesaaz.org/meetings/grupo-sendero-de-vida/","timezone":"America/Phoenix"},{"feed":"area03.com","slug":"grupo-sendero-de-vida","name":"Grupo Sendero De Vida","day":0,"time":"09:00","types":["O","S"],"state":"AZ","postal_code":"85202","city":"Mesa","address":"1911 W Broadway Rd","latitude":33.4071225,"longitude":-111.8726485,"location":"1911 W Broadway Rd. #19","region":"Mesa","url":"https://area03.com/meetings/grupo-sendero-de-vida/","timezone":"America/Phoenix"},{"feed":"area03.com","slug":"mens-step-study-online","name":"Men's Step Study Online","day":0,"time":"09:00","end_time":"10:00","types":["12x12","M","ONL"],"state":"AZ","city":"Flagstaff","latitude":35.1982836,"longitude":-111.651302,"location":"Online Meeting","region":"Flagstaff","notes":"Meeting password is 928 928 1234, same as meeting ID#.","conference_url":"https://us02web.zoom.us/j/9289281234","url":"https://area03.com/meetings/mens-step-study-online/","timezone":"America/Phoenix"},{"feed":"flagstaffaa.org","slug":"mens-step-study-online","name":"Men's Step Study Online","day":0,"time":"09:00","end_time":"10:00","types":["12x12","M","ONL"],"state":"AZ","city":"Flagstaff","latitude":35.1982836,"longitude":-111.651302,"location":"Online Meeting","region":"Flagstaff","notes":"Meeting password is 928 928 1234, same as meeting ID#.","conference_url":"https://us02web.zoom.us/j/9289281234","url":"https://flagstaffaa.org/meetings/mens-step-study-online/","timezone":"America/Phoenix"},{"feed":"area03.com","slug":"pass-it-on-phone-groups","name":"Pass It On Phone Groups","day":0,"time":"09:00","end_time":"10:00","types":["DR","D","LIT","O","ONL"],"state":"AZ","city":"Kingman","latitude":35.1912977,"longitude":-114.0522845,"location":"Kingman AZ","region":"Kingman","notes":"Telephone conference call\n(848) 777-1212\nPasscode 72774866#","url":"https://area03.com/meetings/pass-it-on-phone-groups/","timezone":"America/Phoenix"},{"feed":"area03.com","slug":"rainbow-recovery","name":"Rainbow Recovery","day":0,"time":"09:00","end_time":"10:00","types":["LGBTQ"],"state":"AZ","postal_code":"86004","city":"Flagstaff","address":"2400 N Gemini Rd","latitude":35.2181382,"longitude":-111.6330823,"location":"Buffalo Park","region":"Flagstaff","notes":"Queer AA Recovery Meeting","url":"https://area03.com/meetings/rainbow-recovery/","timezone":"America/Phoenix"},{"feed":"flagstaffaa.org","slug":"rainbow-recovery","name":"Rainbow Recovery","day":0,"time":"09:00","end_time":"10:00","types":["LGBTQ"],"state":"AZ","postal_code":"86004","city":"Flagstaff","address":"2400 N Gemini Rd","latitude":35.2181382,"longitude":-111.6330823,"location":"Buffalo Park","region":"Flagstaff","notes":"Queer AA Recovery Meeting","url":"https://flagstaffaa.org/meetings/rainbow-recovery/","timezone":"America/Phoenix"},{"feed":"area03.com","slug":"read-talk-group-7","name":"Read & Talk Group","day":0,"time":"09:00","end_time":"10:00","types":["D"],"state":"AZ","postal_code":"86409","city":"Kingman","address":"2170 E Northern Ave","latitude":35.253491,"longitude":-114.0271279,"location":"Northern Lights","region":"Kingman","url":"https://area03.com/meetings/read-talk-group-7/","group":"Read & Talk Group","timezone":"America/Phoenix"},{"feed":"area03.com","slug":"spiritual-awakening-dine-bizaad","name":"Spiritual Awakening - Dine' bizaad","day":0,"time":"09:00","end_time":"10:30","state":"AZ","postal_code":"86504","city":"Fort Defiance","address":"Blue Canyon Rd","latitude":35.7603723,"longitude":-109.0956798,"location":"A Day at a Time Club","region":"Fort Defiance","url":"https://area03.com/meetings/spiritual-awakening-dine-bizaad/","timezone":"America/Denver"},{"feed":"aatucson.org","slug":"sunday-grupo-4-de-enero","name":"Grupo 4 de Enero","day":0,"time":"09:00","end_time":"10:30","types":["D","O","S","SP","X"],"state":"AZ","postal_code":"85705","city":"Tucson","address":"2241 N Oracle Rd #4","latitude":32.24877,"longitude":-110.9786638,"location":"Grupo 4 de Enero Meeting Place","region":"Tucson Midtown","notes":"Juntas de Estudio","url":"https://aatucson.org/meetings/sunday-grupo-4-de-enero/","timezone":"America/Phoenix"},{"feed":"area03.com","slug":"sunday-grupo-4-de-enero","name":"Grupo 4 de Enero","day":0,"time":"09:00","end_time":"10:30","types":["D","O","S","SP","X"],"state":"AZ","postal_code":"85705","city":"Tucson","address":"2241 N Oracle Rd #4","latitude":32.24877,"longitude":-110.9786638,"location":"Grupo 4 de Enero Meeting Place","region":"Tucson Midtown","notes":"Juntas de Estudio","url":"https://area03.com/meetings/sunday-grupo-4-de-enero/","timezone":"America/Phoenix"},{"feed":"aatucson.org","slug":"sunday-morning-funnies","name":"Sunday Morning Funnies","day":0,"time":"09:00","end_time":"10:00","types":["D","O"],"state":"AZ","postal_code":"85623","city":"Oracle","address":"Oracle Park, 333 E Nuestro St","latitude":32.606045,"longitude":-110.770287,"location":"Oracle Park","region":"Pima County Far North (Catalina, Saddlebrooke, Oracle)","url":"https://aatucson.org/meetings/sunday-morning-funnies/","timezone":"America/Phoenix"},{"feed":"area03.com","slug":"sunday-morning-funnies","name":"Sunday Morning Funnies","day":0,"time":"09:00","end_time":"10:00","types":["D","O"],"state":"AZ","postal_code":"85623","city":"Oracle","address":"Oracle Park, 333 E Nuestro St","latitude":32.606045,"longitude":-110.770287,"location":"Oracle Park","region":"Pima County Far North (Catalina, Saddlebrooke, Oracle)","url":"https://area03.com/meetings/sunday-morning-funnies/","timezone":"America/Phoenix"},{"feed":"area03.com","slug":"sunday-morning-mens-stag","name":"Sunday Morning Men's Stag","day":0,"time":"09:00","end_time":"10:00","types":["C","M","D"],"state":"AZ","postal_code":"86301","city":"Prescott","address":"520 W Delano Ave","latitude":34.5721101,"longitude":-112.4712486,"location":"Safe Harbor","region":"Prescott","notes":"Closed Men's","url":"https://area03.com/meetings/sunday-morning-mens-stag/","timezone":"America/Phoenix"},{"feed":"prescottaa.org","slug":"sunday-morning-mens-stag","name":"Sunday Morning Men's Stag","day":0,"time":"09:00","end_time":"10:00","types":["C","M","D"],"state":"AZ","postal_code":"86301","city":"Prescott","address":"520 W Delano Ave","latitude":34.5721088,"longitude":-112.4712643,"location":"Safe Harbor","region":"Prescott","notes":"Closed Men's","url":"https://prescottaa.org/meetings/sunday-morning-mens-stag/","timezone":"America/Phoenix"},{"feed":"area03.com","slug":"sunday-morning-mens-stag-online","name":"Sunday Morning Men's Stag (Online)","day":0,"time":"09:00","end_time":"10:00","types":["C","M","D","ONL"],"state":"AZ","city":"Prescott","latitude":34.5400242,"longitude":-112.4685025,"location":"Prescott, AZ","region":"Prescott","conference_url":"https://us02web.zoom.us/j/85452410829","url":"https://area03.com/meetings/sunday-morning-mens-stag-online/","timezone":"America/Phoenix"},{"feed":"prescottaa.org","slug":"sunday-morning-mens-stag-online","name":"Sunday Morning Men's Stag (Online)","day":0,"time":"09:00","end_time":"10:00","types":["C","M","D","ONL"],"state":"AZ","city":"Prescott","latitude":34.5400242,"longitude":-112.4685025,"location":"Prescott, AZ","region":"Prescott","conference_url":"https://us02web.zoom.us/j/85452410829","url":"https://prescottaa.org/meetings/sunday-morning-mens-stag-online/","timezone":"America/Phoenix"},{"feed":"area03.com","slug":"sunday-online-carefree","name":"Sunday Online Carefree","day":0,"time":"09:00","end_time":"10:00","types":["O","SP","ONL"],"state":"AZ","city":"Carefree","latitude":33.8222611,"longitude":-111.918203,"location":"Meeting Location","region":"Carefree","conference_url":"https://us02web.zoom.us/j/81733440239","url":"https://area03.com/meetings/sunday-online-carefree/","timezone":"America/Phoenix"},{"feed":"aatucson.org","slug":"sunday-sober-sunday-mornign-meeting","name":"Sober Sunday Morning Meeting","day":0,"time":"09:00","end_time":"10:00","types":["D","O","X"],"state":"AZ","postal_code":"85711","city":"Tucson","address":"6061 E Broadway Blvd #127","latitude":32.2229073,"longitude":-110.8627892,"location":"Eastside Meeting Place","region":"Tucson East, Northeast","url":"https://aatucson.org/meetings/sunday-sober-sunday-mornign-meeting/","timezone":"America/Phoenix"},{"feed":"area03.com","slug":"sunday-sober-sunday-mornign-meeting","name":"Sober Sunday Morning Meeting","day":0,"time":"09:00","end_time":"10:00","types":["D","O","X"],"state":"AZ","postal_code":"85711","city":"Tucson","address":"6061 E Broadway Blvd #127","latitude":32.2229073,"longitude":-110.8627892,"location":"Eastside Meeting Place","region":"Tucson East, Northeast","url":"https://area03.com/meetings/sunday-sober-sunday-mornign-meeting/","timezone":"America/Phoenix"},{"feed":"area03.com","slug":"39","name":"Get Your Spirits Here","day":0,"time":"09:30","types":["O","D","X"],"state":"AZ","postal_code":"85253","city":"Scottsdale","address":"10427 N Scottsdale Rd","latitude":33.5814533,"longitude":-111.92407,"location":"North Scottsdale Fellowship Club","region":"Scottsdale","notes":"Room 2","url":"https://area03.com/meetings/39/","timezone":"America/Phoenix"},{"feed":"area03.com","slug":"40","name":"In-Betweeners","day":0,"time":"09:30","types":["O","D"],"state":"AZ","postal_code":"85253","city":"Scottsdale","address":"10427 N Scottsdale Rd","latitude":33.5814533,"longitude":-111.92407,"location":"North Scottsdale Fellowship Club","region":"Scottsdale","notes":"Room 3","url":"https://area03.com/meetings/40/","timezone":"America/Phoenix"},{"feed":"aamesaaz.org","slug":"attitude-of-gratitude","name":"Attitude Of Gratitude","day":0,"time":"09:30","types":["O","W"],"state":"AZ","postal_code":"85142","city":"Queen Creek","address":"19729 E San Tan Blvd","latitude":33.2117362,"longitude":-111.656973,"location":"Queen Creek Meeting House","region":"Queen Creek","url":"https://aamesaaz.org/meetings/attitude-of-gratitude/","timezone":"America/Phoenix"},{"feed":"area03.com","slug":"attitude-of-gratitude","name":"Attitude Of Gratitude","day":0,"time":"09:30","types":["O","W"],"state":"AZ","postal_code":"85142","city":"Queen Creek","address":"19729 E San Tan Blvd","latitude":33.2116584,"longitude":-111.6570053,"location":"Queen Creek Meeting House","region":"Queen Creek","url":"https://area03.com/meetings/attitude-of-gratitude/","timezone":"America/Phoenix"},{"feed":"aatucson.org","slug":"overton-sunday-morning-meeting-hybrid","name":"Overton Sunday Morning Meeting Hybrid","day":0,"time":"09:30","end_time":"10:30","types":["D","O","X","ONL"],"state":"AZ","postal_code":"85704","city":"Tucson","address":"7900 N La Ca\u00f1ada Dr","latitude":32.3493392,"longitude":-110.9936013,"location":"Mountain View Retirement Village","region":"Tucson Northwest (Marana, Oro-Valley)","notes":"This meeting is a hybrid meeting using Zoom\nMTG ID: 939204155\nPSWD: 123","conference_url":"https://www.zoom.us/j/939204155","url":"https://aatucson.org/meetings/overton-sunday-morning-meeting-hybrid/","timezone":"America/Phoenix"},{"feed":"area03.com","slug":"overton-sunday-morning-meeting-hybrid","name":"Overton Sunday Morning Meeting Hybrid","day":0,"time":"09:30","end_time":"10:30","types":["D","O","X","ONL"],"state":"AZ","postal_code":"85704","city":"Tucson","address":"7900 N La Ca\u00f1ada Dr","latitude":32.3493392,"longitude":-110.9936013,"location":"Mountain View Retirement Village","region":"Tucson Northwest (Marana, Oro-Valley)","notes":"This meeting is a hybrid meeting using Zoom\nMTG ID: 939204155\nPSWD: 123","conference_url":"https://www.zoom.us/j/939204155","url":"https://area03.com/meetings/overton-sunday-morning-meeting-hybrid/","timezone":"America/Phoenix"},{"feed":"aamesaaz.org","slug":"serenity-now-2","name":"Serenity Now","day":0,"time":"09:30","end_time":"10:30","types":["O"],"state":"AZ","postal_code":"85208","city":"Mesa","address":"655 S Crismon Rd","latitude":33.4026642,"longitude":-111.6131587,"location":"Skyline Park","region":"Mesa","notes":"Meeting is north of the restrooms. Water provided, bring a chair.","url":"https://aamesaaz.org/meetings/serenity-now-2/","timezone":"America/Phoenix"},{"feed":"area03.com","slug":"serenity-now-2","name":"Serenity Now","day":0,"time":"09:30","end_time":"10:30","types":["O"],"state":"AZ","postal_code":"85208","city":"Mesa","address":"655 S Crismon Rd","latitude":33.4023326,"longitude":-111.6123435,"location":"Skyline Park","region":"Mesa","notes":"Meeting is north of the restrooms. Water provided, bring a chair.","url":"https://area03.com/meetings/serenity-now-2/","timezone":"America/Phoenix"},{"feed":"aamesaaz.org","slug":"shade-tree-mtg","name":"Shade Tree Mtg.","day":0,"time":"09:30","types":["C","M"],"state":"AZ","postal_code":"85142","city":"Queen Creek","address":"19729 E San Tan Blvd","latitude":33.2117362,"longitude":-111.656973,"location":"Queen Creek Meeting House","region":"Queen Creek","url":"https://aamesaaz.org/meetings/shade-tree-mtg/","timezone":"America/Phoenix"},{"feed":"area03.com","slug":"shade-tree-mtg","name":"Shade Tree Mtg.","day":0,"time":"09:30","types":["C","M"],"state":"AZ","postal_code":"85142","city":"Queen Creek","address":"19729 E San Tan Blvd","latitude":33.2116584,"longitude":-111.6570053,"location":"Queen Creek Meeting House","region":"Queen Creek","url":"https://area03.com/meetings/shade-tree-mtg/","timezone":"America/Phoenix"},{"feed":"aatucson.org","slug":"sunday-sos-group","name":"SOS Group","day":0,"time":"09:30","end_time":"10:30","types":["D","O","X"],"state":"AZ","postal_code":"85712","city":"Tucson","address":"4405 E Pima St","latitude":32.2437111,"longitude":-110.8988527,"location":"Pima Alano Club","region":"Tucson Midtown","notes":"Main- Please note smoking is NOT allowed in this building","url":"https://aatucson.org/meetings/sunday-sos-group/","timezone":"America/Phoenix"},{"feed":"area03.com","slug":"sunday-sos-group","name":"SOS Group","day":0,"time":"09:30","end_time":"10:30","types":["D","O","X"],"state":"AZ","postal_code":"85712","city":"Tucson","address":"4405 E Pima St","latitude":32.2437422,"longitude":-110.8988557,"location":"Pima Alano Club","region":"Tucson Midtown","notes":"Main- Please note smoking is NOT allowed in this building","url":"https://area03.com/meetings/sunday-sos-group/","timezone":"America/Phoenix"},{"feed":"area03.com","slug":"15532","name":"Willing to Grow Along Spiritual Lines","day":0,"time":"10:00","types":["C","SP"],"state":"AZ","postal_code":"85040","city":"Phoenix","address":"4012 S Central Ave","latitude":33.4101785,"longitude":-112.0735513,"location":"Backyard Group","region":"Phoenix","url":"https://area03.com/meetings/15532/","timezone":"America/Phoenix"},{"feed":"area03.com","slug":"1650","name":"H.O.W.","day":0,"time":"10:00","types":["O","D"],"state":"AZ","postal_code":"85008","city":"Phoenix","address":"2310 N 56th St a","latitude":33.4737694,"longitude":-111.9614015,"location":"Valley Alano","region":"Phoenix","notes":"Room B","url":"https://area03.com/meetings/1650/","timezone":"America/Phoenix"},{"feed":"area03.com","slug":"2270","name":"Grupo Hay Una Solucion","day":0,"time":"10:00","types":["S","O"],"state":"AZ","postal_code":"85033","city":"Phoenix","address":"7342 W Indian School Rd #118","latitude":33.4950638,"longitude":-112.2178637,"location":"Meeting Place - Spanish","region":"Phoenix","url":"https://area03.com/meetings/2270/","timezone":"America/Phoenix"},{"feed":"area03.com","slug":"2306","name":"Grupo Fuente De Vida","day":0,"time":"10:00","types":["S","O"],"state":"AZ","postal_code":"85008","city":"Phoenix","address":"2943 E McDowell Rd","latitude":33.46546,"longitude":-112.017603,"location":"Meeting Place - Spanish","region":"Phoenix","url":"https://area03.com/meetings/2306/","timezone":"America/Phoenix"},{"feed":"area03.com","slug":"24-hour-international-marathon-meeting-of-aa-where-sobriety-never-sleeps-152","name":"24 Hour International Marathon Meeting of AA (Where sobriety never sleeps)","day":0,"time":"10:00","end_time":"11:00","types":["12x12","BE","SEN","Y","ONL"],"state":"AZ","city":"Tombstone","latitude":31.7128683,"longitude":-110.0675764,"location":"Online Meeting","region":"Zoom","notes":"The 24 International Marathon Meeting of AA was started by two newcomers from New Zealand with cell phones at the beginning of the COVID pandemic. The meeting has been running continuously since 20 April 2020.","conference_url":"https://us02web.zoom.us/j/2923712604","url":"https://area03.com/meetings/24-hour-international-marathon-meeting-of-aa-where-sobriety-never-sleeps-152/","group":"24 Hour International Marathon Meeting of AA","timezone":"America/Phoenix"},{"feed":"area03.com","slug":"2459","name":"Grupo Cuatro Vientos","day":0,"time":"10:00","types":["S","O"],"state":"AZ","postal_code":"85017","city":"Phoenix","address":"5612 N 27th Ave #6","latitude":33.5191358,"longitude":-112.1174525,"location":"Meeting Place - Spanish","region":"Phoenix","url":"https://area03.com/meetings/2459/","timezone":"America/Phoenix"},{"feed":"area03.com","slug":"41","name":"Scottsdale Non-Drinkers","day":0,"time":"10:00","types":["D","O"],"state":"AZ","postal_code":"85257","city":"Scottsdale","address":"2311 N Miller Rd","latitude":33.474009,"longitude":-111.9166177,"location":"Boys and Girls Club","region":"Scottsdale","url":"https://area03.com/meetings/41/","timezone":"America/Phoenix"},{"feed":"area03.com","slug":"50","name":"Oldtimers Speakers","day":0,"time":"10:00","types":["O","SP"],"state":"AZ","postal_code":"85302","city":"Glendale","address":"8910 N 43rd Ave #102","latitude":33.5660522,"longitude":-112.1528517,"location":"Fellowship Hall","region":"Glendale","url":"https://area03.com/meetings/50/","timezone":"America/Phoenix"},{"feed":"aamesaaz.org","slug":"bloopers","name":"Bloopers","day":0,"time":"10:00","types":["O"],"state":"AZ","postal_code":"85283","city":"Tempe","address":"1859 E Baseline Rd","latitude":33.3773185,"longitude":-111.9058937,"location":"Bloopers","region":"Tempe","url":"https://aamesaaz.org/meetings/bloopers/","timezone":"America/Phoenix"},{"feed":"area03.com","slug":"bloopers","name":"Bloopers","day":0,"time":"10:00","types":["O"],"state":"AZ","postal_code":"85283","city":"Tempe","address":"1859 E Baseline Rd","latitude":33.3773185,"longitude":-111.9058937,"location":"Bloopers","region":"Tempe","url":"https://area03.com/meetings/bloopers/","timezone":"America/Phoenix"},{"feed":"aatucson.org","slug":"grupo-gratitud-7","name":"Grupo Gratitud","day":0,"time":"10:00","end_time":"11:30","types":["S"],"state":"AZ","postal_code":"85714","city":"Tucson","address":"119 E Pennsylvania Dr","latitude":32.1716024,"longitude":-110.9664274,"location":"Gratitud Meeting Place","region":"Tucson South, Southwest","url":"https://aatucson.org/meetings/grupo-gratitud-7/","timezone":"America/Phoenix"},{"feed":"area03.com","slug":"grupo-gratitud-7","name":"Grupo Gratitud","day":0,"time":"10:00","end_time":"11:30","types":["S"],"state":"AZ","postal_code":"85714","city":"Tucson","address":"119 E Pennsylvania Dr","latitude":32.1716024,"longitude":-110.9664274,"location":"Gratitud Meeting Place","region":"Tucson South, Southwest","url":"https://area03.com/meetings/grupo-gratitud-7/","timezone":"America/Phoenix"},{"feed":"area03.com","slug":"h-o-aa-group","name":"Heber-Overgaard AA Group","day":0,"time":"10:00","end_time":"11:00","types":["B","D","O"],"state":"AZ","postal_code":"85928","city":"Heber","address":"3404 Mustang","latitude":34.4307091,"longitude":-110.5867696,"location":"Heber/Overgaard Rim County Library","region":"Heber-Overgaard","url":"https://area03.com/meetings/h-o-aa-group/","timezone":"America/Phoenix"},{"feed":"aatucson.org","slug":"himmel-park-outdoor-meeting-bring-your-own-chair-6-2","name":"Himmel Park Outdoor Meeting - Bring Your Own Chair","day":0,"time":"10:00","end_time":"11:00","types":["D","BE","O","OUT"],"state":"AZ","postal_code":"85716","city":"Tucson","address":"1035 N Treat Ave","latitude":32.2345996,"longitude":-110.9316167,"location":"Himmel Park Library Outside","region":"Tucson Midtown","notes":"This meeting meets at 10 am May-Oct and Noon Nov-April","url":"https://aatucson.org/meetings/himmel-park-outdoor-meeting-bring-your-own-chair-6-2/","timezone":"America/Phoenix"},{"feed":"area03.com","slug":"himmel-park-outdoor-meeting-bring-your-own-chair-6-2","name":"Himmel Park Outdoor Meeting - Bring Your Own Chair","day":0,"time":"10:00","end_time":"11:00","types":["D","BE","O","OUT"],"state":"AZ","postal_code":"85716","city":"Tucson","address":"1035 N Treat Ave","latitude":32.2345996,"longitude":-110.9316167,"location":"Himmel Park Library Outside","region":"Tucson Midtown","notes":"This meeting meets at 10 am May-Oct and Noon Nov-April","url":"https://area03.com/meetings/himmel-park-outdoor-meeting-bring-your-own-chair-6-2/","timezone":"America/Phoenix"},{"feed":"aamesaaz.org","slug":"new-hope-click-for-note","name":"New Hope *click for NOTE*","day":0,"time":"10:00","types":["G","O"],"state":"AZ","postal_code":"85210","city":"Mesa","address":"145 E 1st Ave","latitude":33.4124824,"longitude":-111.827165,"location":"Mesa Alano Club","region":"Mesa","notes":"1.5 hr","url":"https://aamesaaz.org/meetings/new-hope-click-for-note/","timezone":"America/Phoenix"},{"feed":"area03.com","slug":"new-hope-click-for-note","name":"New Hope *click for NOTE*","day":0,"time":"10:00","types":["G","O"],"state":"AZ","postal_code":"85210","city":"Mesa","address":"145 E 1st Ave","latitude":33.4125333,"longitude":-111.8271406,"location":"Mesa Alano Club","region":"Mesa","notes":"1.5 hr","url":"https://area03.com/meetings/new-hope-click-for-note/","timezone":"America/Phoenix"},{"feed":"area03.com","slug":"primary-purpose-group-3","name":"Primary Purpose Group","day":0,"time":"10:00","end_time":"11:00","types":["X"],"state":"AZ","postal_code":"85367","city":"Yuma","address":"12731 E 38th St","latitude":32.6589971,"longitude":-114.4123687,"location":"Foothills Alano Club","region":"Foothills","url":"https://area03.com/meetings/primary-purpose-group-3/","timezone":"America/Phoenix"},{"feed":"aamesaaz.org","slug":"road-to-recovery-11th-step","name":"Road To Recovery 11th Step","day":0,"time":"10:00","types":["O"],"state":"AZ","postal_code":"85205","city":"Mesa","address":"6134 E Main St #102","latitude":33.4169382,"longitude":-111.6984597,"location":"Road To Recovery","region":"Mesa","url":"https://aamesaaz.org/meetings/road-to-recovery-11th-step/","timezone":"America/Phoenix"},{"feed":"area03.com","slug":"road-to-recovery-11th-step","name":"Road To Recovery 11th Step","day":0,"time":"10:00","types":["O"],"state":"AZ","postal_code":"85205","city":"Mesa","address":"6134 E Main St #102","latitude":33.4169382,"longitude":-111.6984597,"location":"Road To Recovery","region":"Mesa","url":"https://area03.com/meetings/road-to-recovery-11th-step/","timezone":"America/Phoenix"},{"feed":"aamesaaz.org","slug":"the-society-group-women","name":"The Society Group Women","day":0,"time":"10:00","end_time":"11:30","types":["O","W"],"state":"AZ","postal_code":"85207","city":"Mesa","address":"9333 E Main St","latitude":33.4145213,"longitude":-111.6290654,"location":"The Society #125","region":"Mesa","url":"https://aamesaaz.org/meetings/the-society-group-women/","timezone":"America/Phoenix"},{"feed":"area03.com","slug":"the-society-group-women","name":"The Society Group Women","day":0,"time":"10:00","end_time":"11:30","types":["O","W"],"state":"AZ","postal_code":"85207","city":"Mesa","address":"9333 E Main St","latitude":33.4145061,"longitude":-111.6285764,"location":"The Society #125","region":"Mesa","url":"https://area03.com/meetings/the-society-group-women/","timezone":"America/Phoenix"},{"feed":"area03.com","slug":"89","name":"Puttin' Sober","day":0,"time":"10:30","types":["D","O"],"state":"AZ","postal_code":"85021","city":"Phoenix","address":"1917 W Glendale Ave # 4","latitude":33.5381296,"longitude":-112.1004236,"location":"A New Freedom","region":"Phoenix","notes":"Biker","url":"https://area03.com/meetings/89/","timezone":"America/Phoenix"},{"feed":"area03.com","slug":"crows-nest-group","name":"Crows Nest Group","day":0,"time":"10:30","end_time":"11:30","types":["D","O"],"state":"AZ","postal_code":"85602","city":"Benson","address":"1030 Barrel Cactus Ridge","latitude":31.9496258,"longitude":-110.3470183,"location":"Community Center","region":"Benson","url":"https://area03.com/meetings/crows-nest-group/","timezone":"America/Phoenix"},{"feed":"area03.com","slug":"drunkin-donuts","name":"Drunkin Donuts","day":0,"time":"10:30","end_time":"11:30","types":["D","O","X"],"state":"AZ","postal_code":"85901","city":"Show Low","address":"380 E McNeil","latitude":34.2499497,"longitude":-110.0384757,"location":"Show Low Fellowship Hall","region":"Show Low","url":"https://area03.com/meetings/drunkin-donuts/","timezone":"America/Phoenix"},{"feed":"aamesaaz.org","slug":"g-i-t-group-11-step","name":"G-I-T Group 11 Step","day":0,"time":"10:30","types":["O"],"state":"AZ","postal_code":"85202","city":"Mesa","address":"2121 W Guadalupe Rd #1","latitude":33.3629379,"longitude":-111.8791127,"location":"G I T","region":"Mesa","url":"https://aamesaaz.org/meetings/g-i-t-group-11-step/","timezone":"America/Phoenix"},