[{"feed":"birminghamaa.org","slug":"leggo-my-ego","name":"Leggo My EGO","day":0,"time":"06:30","end_time":"07:30","types":["C","D","ONL"],"state":"AL","city":"Birmingham","latitude":33.5185892,"longitude":-86.8103567,"location":"Zoom","region":"Zoom","notes":"Zoom ID: 827 9426 1633\nPasscode: 698495","conference_url":"https://zoom.us/j/82794261633","url":"https://birminghamaa.org/wp/meetings/leggo-my-ego/","group":"Leggo My EGO","timezone":"America/Chicago"},{"feed":"aahuntsvilleal.com","slug":"madison-hopeful","name":"Madison Hopeful","day":0,"time":"06:30","types":["O","D","MED"],"state":"AL","postal_code":"35758","city":"Madison","address":"190 Lime Quarry Rd","latitude":34.6756645,"longitude":-86.7498036,"location":"190 Lime Quarry Road Suite 109","region":"Madison","notes":"Non-Smoking, Wheelchair Access","url":"https://aahuntsvilleal.com/meetings/madison-hopeful/","group":"Madison Hopeful Group","timezone":"America/Chicago"},{"feed":"mobileaa.org","slug":"rise-shine-7","name":"RISE & SHINE","day":0,"time":"06:30","end_time":"07:30","types":["D","O","ONL"],"state":"AL","city":"Mobile","latitude":30.6953657,"longitude":-88.0398912,"location":"Online Only","conference_url":"https://zoom.us/j/9186046793","url":"https://mobileaa.org/meetings/rise-shine-7/","timezone":"America/Chicago"},{"feed":"mobileaa.org","slug":"sunrise-group-7","name":"SUNRISE GROUP","day":0,"time":"06:30","end_time":"07:30","types":["D","O","X"],"state":"AL","postal_code":"36606","city":"Mobile","address":"908 McRae Ave","latitude":30.6610363,"longitude":-88.1062911,"location":"Alano Club","url":"https://mobileaa.org/meetings/sunrise-group-7/","timezone":"America/Chicago"},{"feed":"shoalsaa.org","slug":"4d-online-7","name":"4D Online","day":0,"time":"07:00","end_time":"08:00","types":["D","O","ONL"],"state":"AL","postal_code":"35630","city":"Florence","address":"121 S Royal Ave","latitude":34.8061301,"longitude":-87.6619699,"location":"4D Meeting Hall","region":"Florence","notes":"Online only, Zoom, Meeting ID 573857015 Password 241873\nIn-Person meetings at the 4D Meetinghouse are listed as Fourth Dimension Group","conference_url":"https://us02web.zoom.us/j/573857015","url":"https://www.shoalsaa.org/meetings/4d-online-7/","group":"Fourth Dimension Group","timezone":"America/Chicago"},{"feed":"gulfcoastaa.org","slug":"easy-like-sunday-morning","name":"Easy Like Sunday Morning","day":0,"time":"07:00","end_time":"08:00","types":["D","O"],"state":"AL","postal_code":"36542","city":"Gulf Shores","address":"21196 E Beach Blvd","latitude":30.250184,"longitude":-87.6644393,"location":"The Lodge at Gulf State Park","region":"GULF SHORES","url":"https://gulfcoastaa.org/meetings/easy-like-sunday-morning","timezone":"America/Chicago"},{"feed":"shoalsaa.org","slug":"fourth-dimension","name":"Fourth Dimension","day":0,"time":"07:00","end_time":"08:00","types":["C","D"],"state":"AL","postal_code":"35630","city":"Florence","address":"121 S Royal Ave","latitude":34.8061301,"longitude":-87.6619699,"location":"4D Meeting Hall","region":"Florence","url":"https://www.shoalsaa.org/meetings/fourth-dimension/","group":"Fourth Dimension Group","timezone":"America/Chicago"},{"feed":"aahuntsvilleal.com","slug":"stairway-group","name":"Stairway Group","day":0,"time":"07:00","end_time":"08:00","types":["D","O"],"state":"AL","postal_code":"35601","city":"Decatur","address":"1820- 6th Ave SE","latitude":34.5761577,"longitude":-86.9739646,"location":"Gateway Shopping Center #G2","region":"Decatur","notes":"Non-Smoking, Non-Vaping, Wheelchair Access","url":"https://aahuntsvilleal.com/meetings/stairway-group/","group":"Stairway Group","timezone":"America/Chicago"},{"feed":"easternshoreaa.org","slug":"serenity-6","name":"SERENITY","day":0,"time":"07:30","types":["D","O"],"state":"AL","postal_code":"36526","city":"Daphne","address":"8162 Well Rd","latitude":30.6103804,"longitude":-87.8835682,"location":"Common Ground","url":"https://easternshoreaa.org/meetings/serenity-6/","timezone":"America/Chicago"},{"feed":"easternshoreaa.org","slug":"zoom-with-serenity-7","name":"Zooming With Serenity","day":0,"time":"07:30","types":["D","O","ONL"],"state":"AL","city":"Daphne","latitude":30.6035255,"longitude":-87.9036047,"location":"Online-Daphne AL","url":"https://easternshoreaa.org/meetings/zoom-with-serenity-7/","timezone":"America/Chicago"},{"feed":"birminghamaa.org","slug":"busters","name":"Busters","day":0,"time":"08:00","types":["C","D"],"state":"AL","postal_code":"35243","city":"Vestavia Hills","address":"2520 Rocky Ridge Rd","latitude":33.4254249,"longitude":-86.7735039,"location":"Moe's BBQ","region":"Birmingham","notes":"In Person","url":"https://birminghamaa.org/wp/meetings/busters/","group":"Busters","timezone":"America/Chicago"},{"feed":"birminghamaa.org","slug":"early-risers-3","name":"Early Risers","day":0,"time":"08:00","types":["12x12","O"],"state":"AL","postal_code":"35213","city":"Birmingham","address":"350 Overbrook Rd","latitude":33.489253,"longitude":-86.7560866,"location":"Canterbury United Methodist (Canterbury Hall)","region":"Birmingham","notes":"In Person","url":"https://birminghamaa.org/wp/meetings/early-risers-3/","group":"Early Risers","timezone":"America/Chicago"},{"feed":"aahuntsvilleal.com","slug":"fellowship","name":"Fellowship","day":0,"time":"08:00","types":["C","D"],"state":"AL","postal_code":"35805","city":"Huntsville","address":"2905 Bob Wallace Ave SW c","latitude":34.7107459,"longitude":-86.60481,"location":"2905 Bob Wallace Avenue, Suite C, Huntsville, AL 35805","region":"Huntsville","notes":"Non-Smoking, Wheelchair Access","url":"https://aahuntsvilleal.com/meetings/fellowship/","group":"Fellowship Group","timezone":"America/Chicago"},{"feed":"centralalaa.org","slug":"thorsby-group-o-d","name":"Thorsby Group [O : D]","day":0,"time":"08:00","end_time":"09:00","types":["D","O"],"state":"AL","postal_code":"35171","city":"Thorsby","address":"20466 US-31","latitude":32.9077414,"longitude":-86.7087025,"location":"Farmhouse Cafe","region":"Thorsby","url":"https://centralalaa.org/meetings/thorsby-group-o-d","group":"Thorsby Group","timezone":"America/Chicago"},{"feed":"mobileaa.org","slug":"god-shot-group-7","name":"GOD SHOT GROUP","day":0,"time":"08:30","end_time":"09:30","types":["O","SP","X"],"state":"AL","postal_code":"36606","city":"Mobile","address":"908 McRae Ave","latitude":30.6610363,"longitude":-88.1062911,"location":"Alano Club","url":"https://mobileaa.org/meetings/god-shot-group-7/","timezone":"America/Chicago"},{"feed":"birminghamaa.org","slug":"leeds-4","name":"Leeds","day":0,"time":"08:30","types":["D","O"],"state":"AL","postal_code":"35094","city":"Leeds","address":"8220 Parkway Dr","latitude":33.5427613,"longitude":-86.539529,"location":"Leeds Group (Next to Ryan's Automotive - 1st & 3rd Monday - Traditions Study)","region":"Leeds","notes":"In Person","url":"https://birminghamaa.org/wp/meetings/leeds-4/","group":"Leeds","timezone":"America/Chicago"},{"feed":"shoalsaa.org","slug":"0900sundaygrupo-nuevo-amanecer","name":"Grupo Nuevo Amanecer","day":0,"time":"09:00","end_time":"11:00","types":["D","O","S"],"state":"AL","postal_code":"35653","city":"Russellville","address":"110 Tuscaloosa St","latitude":34.5018898,"longitude":-87.7309403,"location":"GNA Meeting Hall","region":"Russellville","notes":"All Meetings are Spanish speaking - Hablamos Espanol Aqui","url":"https://www.shoalsaa.org/meetings/0900sundaygrupo-nuevo-amanecer/","group":"Grupo Nuevo Amanecer","timezone":"America/Chicago"},{"feed":"mobileaa.org","slug":"biscuits-and-big-books","name":"BISCUITS AND BIG BOOKS","day":0,"time":"09:00","end_time":"10:00","types":["B","O","X"],"state":"AL","postal_code":"36606","city":"Mobile","address":"3103 Airport Blvd # 160","latitude":30.6753577,"longitude":-88.1161371,"location":"P.E.I.R Center","notes":"Biscuits at 8:30 meeting at 9:00","url":"https://mobileaa.org/meetings/biscuits-and-big-books/","timezone":"America/Chicago"},{"feed":"centralalaa.org","slug":"legacies-zoom-c-d","name":"Legacies Hybrid [C : D]","day":0,"time":"09:00","end_time":"10:00","types":["C","DB","D","ONL"],"state":"AL","postal_code":"36109","city":"Montgomery","address":"3412 Atlanta Hwy","latitude":32.3841815,"longitude":-86.2582272,"location":"Legacies Group","region":"Montgomery","notes":"Zoom ID: 798 727 9234\nPassword: Awakening","conference_url":"https://us04web.zoom.us/j/7987279234","url":"https://centralalaa.org/meetings/legacies-zoom-c-d","group":"Legacies Group","timezone":"America/Chicago"},{"feed":"shoalsaa.org","slug":"sheffield","name":"Sheffield","day":0,"time":"09:30","end_time":"10:30","types":["C","D"],"state":"AL","postal_code":"35660","city":"Sheffield","address":"210 E 2nd St","latitude":34.7595958,"longitude":-87.6968995,"location":"Sheffield Mtg House","region":"Sheffield","url":"https://www.shoalsaa.org/meetings/sheffield/","group":"Sheffield Group","timezone":"America/Chicago"},{"feed":"shoalsaa.org","slug":"0800sundayflorence-open-door","name":"Florence Open Door","day":0,"time":"10:00","end_time":"11:00","types":["D","O"],"state":"AL","postal_code":"35630","city":"Florence","address":"526 W College St","latitude":34.796775,"longitude":-87.6815448,"location":"Open Door Mtg Hall","region":"Florence","url":"https://www.shoalsaa.org/meetings/0800sundayflorence-open-door/","group":"Florence Open Door Group","timezone":"America/Chicago"},{"feed":"aahuntsvilleal.com","slug":"fellowship-2","name":"Fellowship","day":0,"time":"10:00","types":["C","D"],"state":"AL","postal_code":"35805","city":"Huntsville","address":"2905 Bob Wallace Ave SW c","latitude":34.7107459,"longitude":-86.60481,"location":"2905 Bob Wallace Avenue, Suite C, Huntsville, AL 35805","region":"Huntsville","notes":"Non-Smoking, Wheelchair Access","url":"https://aahuntsvilleal.com/meetings/fellowship-2/","group":"Fellowship Group","timezone":"America/Chicago"},{"feed":"aahuntsvilleal.com","slug":"huntsville-group","name":"Huntsville Group","day":0,"time":"10:00","types":["12x12","D","O","X"],"state":"AL","postal_code":"35801","city":"Huntsville","address":"1407 Memorial Pkwy NW #9","latitude":34.7489498,"longitude":-86.6000142,"location":"1407 Memorial Pkwy NW, Ste 9","region":"Huntsville","notes":"Non-Smoking, Non-Vaping, Wheelchair Access","url":"https://aahuntsvilleal.com/meetings/huntsville-group/","group":"Huntsville Group","timezone":"America/Chicago"},{"feed":"shoalsaa.org","slug":"1100sundayquad-cities","name":"Quad Cities","day":0,"time":"11:00","end_time":"12:00","types":["D","O","SM"],"state":"AL","postal_code":"35661","city":"Muscle Shoals","address":"750 Michigan Ave","latitude":34.748638,"longitude":-87.6628322,"location":"Quad cities Mtg. House","region":"Muscle Shoals","url":"https://www.shoalsaa.org/meetings/1100sundayquad-cities/","group":"Quad Cities Group","timezone":"America/Chicago"},{"feed":"centralalaa.org","slug":"ayudate-a-ti-mismo-o-d-hisp","name":"Ayudate a ti Mismo [O : D : Hisp]","day":0,"time":"11:00","end_time":"13:00","types":["D","O","S"],"state":"AL","postal_code":"36109","city":"Montgomery","address":"3412 Atlanta Hwy","latitude":32.3841815,"longitude":-86.2582272,"location":"Legacies Group","region":"Montgomery","notes":"Hispanic. Spanish-speaking meeting.","url":"https://centralalaa.org/meetings/ayudate-a-ti-mismo-o-d-hisp","timezone":"America/Chicago"},{"feed":"birminghamaa.org","slug":"five-points-15","name":"Five Points","day":0,"time":"11:00","end_time":"12:00","types":["O","SP","ONL"],"state":"AL","postal_code":"35222","city":"Birmingham","address":"3513 7th Ave S","latitude":33.5160603,"longitude":-86.7787415,"location":"JAFI Jefferson Alcoholic Foundation","region":"Birmingham","notes":"Zoom: 953 986 1321\nPasscode: 349951\n\nHYBRID MEETING","conference_url":"https://zoom.us/j/9539861321","url":"https://birminghamaa.org/wp/meetings/five-points-15/","group":"Five Points","timezone":"America/Chicago"},{"feed":"shoalsaa.org","slug":"fourth-dimension-8","name":"Fourth Dimension","day":0,"time":"11:00","end_time":"12:00","types":["MED"],"state":"AL","postal_code":"35630","city":"Florence","address":"121 S Royal Ave","latitude":34.8061301,"longitude":-87.6619699,"location":"4D Meeting Hall","region":"Florence","url":"https://www.shoalsaa.org/meetings/fourth-dimension-8/","timezone":"America/Chicago"},{"feed":"mobileaa.org","slug":"the-1916-group-2","name":"THE 1916 GROUP","day":0,"time":"11:00","end_time":"00:00","types":["D","BE","O","X"],"state":"AL","postal_code":"36606","city":"Mobile","address":"908 McRae Ave","latitude":30.6610363,"longitude":-88.1062911,"location":"Alano Club","url":"https://mobileaa.org/meetings/the-1916-group-2/","timezone":"America/Chicago"},{"feed":"easternshoreaa.org","slug":"daytimers-4","name":"DAYTIMERS","day":0,"time":"11:30","types":["D","O"],"state":"AL","postal_code":"36526","city":"Daphne","address":"8162 Well Rd","latitude":30.6103804,"longitude":-87.8835682,"location":"Common Ground","url":"https://easternshoreaa.org/meetings/daytimers-4/","timezone":"America/Chicago"},{"feed":"aahuntsvilleal.com","slug":"athens-serenity","name":"Athens Serenity","day":0,"time":"12:00","types":["O","D","12x12"],"state":"AL","postal_code":"35611","city":"Athens","address":"518 S Clinton St","latitude":34.7977091,"longitude":-86.9695748,"location":"518 South Clinton","region":"Athens","notes":"Non-Smoking, Non-Vaping, Wheelchair Access","url":"https://aahuntsvilleal.com/meetings/athens-serenity/","group":"Athens Serenity","timezone":"America/Chicago"},{"feed":"aahuntsvilleal.com","slug":"fellowship-3","name":"Fellowship","day":0,"time":"12:00","types":["D","O"],"state":"AL","postal_code":"35805","city":"Huntsville","address":"2905 Bob Wallace Ave SW c","latitude":34.7107459,"longitude":-86.60481,"location":"2905 Bob Wallace Avenue, Suite C, Huntsville, AL 35805","region":"Huntsville","notes":"Non-Smoking, Wheelchair Access","url":"https://aahuntsvilleal.com/meetings/fellowship-3/","group":"Fellowship Group","timezone":"America/Chicago"},{"feed":"centralalaa.org","slug":"happy-hour-group-c-d-11","name":"Happy Hour Group [C : D]","day":0,"time":"12:00","end_time":"13:00","types":["C","D","BE"],"state":"AL","postal_code":"36117","city":"Montgomery","address":"3466 Eastdale Cir","latitude":32.3853681,"longitude":-86.2014809,"location":"Happy Hour Group","region":"Montgomery","url":"https://centralalaa.org/meetings/happy-hour-group-c-d-11","group":"Happy Hour Group","timezone":"America/Chicago"},{"feed":"centralalaa.org","slug":"prattville-downtown-group-o-d-2","name":"Prattville Downtown Group [O : D]","day":0,"time":"12:00","end_time":"13:00","types":["O","D"],"state":"AL","postal_code":"36067","city":"Prattville","address":"326 W 5th St","latitude":32.4650183,"longitude":-86.4799495,"location":"Prattville Downtown Group","region":"Prattville","url":"https://centralalaa.org/meetings/prattville-downtown-group-o-d-2","group":"Prattville Downtown Group","timezone":"America/Chicago"},{"feed":"aahuntsvilleal.com","slug":"stairway-group-3","name":"Stairway Group","day":0,"time":"12:15","end_time":"13:15","types":["C","D"],"state":"AL","postal_code":"35601","city":"Decatur","address":"1820- 6th Ave SE","latitude":34.5761577,"longitude":-86.9739646,"location":"Gateway Shopping Center #G2","region":"Decatur","notes":"Non-Smoking, Non-Vaping, Wheelchair Access","url":"https://aahuntsvilleal.com/meetings/stairway-group-3/","group":"Stairway Group","timezone":"America/Chicago"},{"feed":"aahuntsvilleal.com","slug":"madison-hopeful-3","name":"Madison Hopeful","day":0,"time":"12:30","types":["O","D"],"state":"AL","postal_code":"35758","city":"Madison","address":"190 Lime Quarry Rd","latitude":34.6756645,"longitude":-86.7498036,"location":"190 Lime Quarry Road Suite 109","region":"Madison","notes":"Non-Smoking, Wheelchair Access","url":"https://aahuntsvilleal.com/meetings/madison-hopeful-3/","group":"Madison Hopeful Group","timezone":"America/Chicago"},{"feed":"centralalaa.org","slug":"chapter-9-group-o-d-2","name":"Chapter 9 Group [O : D]","day":0,"time":"13:30","end_time":"14:30","types":["D","TC","O"],"state":"AL","postal_code":"36108","city":"Montgomery","address":"1153 Air Base Blvd","latitude":32.3525216,"longitude":-86.3414367,"location":"CAP Auditorium","region":"Montgomery","url":"https://centralalaa.org/meetings/chapter-9-group-o-d-2","group":"Chapter 9 Group","timezone":"America/Chicago"},{"feed":"birminghamaa.org","slug":"primary-purpose-3","name":"Primary Purpose","day":0,"time":"13:30","end_time":"14:30","types":["C","D","BE","X","ONL"],"state":"AL","postal_code":"35209","city":"Homewood","address":"850 Oxmoor Rd","latitude":33.4730099,"longitude":-86.8110109,"location":"Edgewood Presbyterian Church","region":"Birmingham","notes":"In Person & Zoom (Hybrid)\n\nZoom ID: 216 614 1489\nPasscode: 737851\n\nHybrid","conference_url":"https://zoom.us/j/2166141489","url":"https://birminghamaa.org/wp/meetings/primary-purpose-3/","group":"Primary Purpose","timezone":"America/Chicago"},{"feed":"birminghamaa.org","slug":"a-vision-for-you-4","name":"A Vision For You","day":0,"time":"14:00","end_time":"15:00","types":["D","O"],"state":"AL","postal_code":"35244","city":"Birmingham","address":"741 Volare Dr","latitude":33.3458587,"longitude":-86.7982758,"location":"Keystone Club","region":"Pelham","notes":"Potluck and Speaker Meeting every 3rd Sunday\n1PM Food - 2PM Speaker","url":"https://birminghamaa.org/wp/meetings/a-vision-for-you-4/","group":"A Vision for You","timezone":"America/Chicago"},{"feed":"aahuntsvilleal.com","slug":"downtown-group-5","name":"Downtown Group","day":0,"time":"14:00","end_time":"15:00","types":["D","TC","O"],"state":"AL","postal_code":"35801","city":"Huntsville","address":"801 Governors Dr SW","latitude":34.7196565,"longitude":-86.5915714,"location":"801A Governors Drive","region":"Huntsville","notes":"Non-Smoking","url":"https://aahuntsvilleal.com/meetings/downtown-group-5/","group":"Downtown Group","timezone":"America/Chicago"},{"feed":"centralalaa.org","slug":"fellowship-group-c-d","name":"Fellowship Group [C : D]*","day":0,"time":"14:00","end_time":"15:00","types":["C","D"],"state":"AL","postal_code":"36117","city":"Montgomery","address":"5 Bell Rd","latitude":32.381004,"longitude":-86.1908098,"location":"Fellowship Group","region":"Montgomery","url":"https://centralalaa.org/meetings/fellowship-group-c-d","group":"Fellowship Group","timezone":"America/Chicago"},{"feed":"gulfcoastaa.org","slug":"st-peters-episcopal-church-sundays-at-200-pm","name":"Just For Today","day":0,"time":"14:00","types":["B","D","O"],"state":"AL","postal_code":"36511","city":"Bon Secour","address":"6270 Bon Secour Hwy","latitude":30.3150909,"longitude":-87.7290928,"location":"St. Peter's Episcopal Church","region":"BON SECOUR","url":"https://gulfcoastaa.org/meetings/st-peters-episcopal-church-sundays-at-200-pm","timezone":"America/Chicago"},{"feed":"birminghamaa.org","slug":"a-new-freedom-group","name":"A New Freedom Group","day":0,"time":"14:30","end_time":"15:30","types":["B","O"],"state":"AL","postal_code":"35043","city":"Chelsea","address":"11101 Hwy 47","latitude":33.3339437,"longitude":-86.6273318,"location":"Chelsea Community Center Break Room","region":"Birmingham","notes":"In Person","url":"https://birminghamaa.org/wp/meetings/a-new-freedom-group/","group":"A New Freedom Group","timezone":"America/Chicago"},{"feed":"birminghamaa.org","slug":"tittusville","name":"Tittusville","day":0,"time":"15:00","end_time":"16:00","types":["12x12","B","D","O","SP","EN"],"state":"AL","postal_code":"35205","city":"Birmingham","address":"708 1st St S","latitude":33.4918597,"longitude":-86.8271474,"location":"Our Lady of Fatima Church","region":"Birmingham","url":"https://birminghamaa.org/wp/meetings/tittusville/","timezone":"America/Chicago"},{"feed":"mobileaa.org","slug":"back-to-basics","name":"BACK TO BASICS","day":0,"time":"16:00","end_time":"17:00","types":["B","O","X"],"state":"AL","postal_code":"36606","city":"Mobile","address":"3103 Airport Blvd # 160","latitude":30.6753577,"longitude":-88.1161371,"location":"P.E.I.R Center","url":"https://mobileaa.org/meetings/back-to-basics/","timezone":"America/Chicago"},{"feed":"birminghamaa.org","slug":"calera","name":"Calera","day":0,"time":"16:00","types":["D","O"],"state":"AL","postal_code":"35040","city":"Calera","address":"7820 US-31","latitude":33.1094221,"longitude":-86.7527744,"location":"Calera Church of Christ","region":"Calera","notes":"In Person","url":"https://birminghamaa.org/wp/meetings/calera/","group":"Calera","timezone":"America/Chicago"},{"feed":"shoalsaa.org","slug":"florence-open-door-2","name":"Florence Open Door","day":0,"time":"16:00","end_time":"17:00","types":["D","O"],"state":"AL","postal_code":"35630","city":"Florence","address":"526 W College St","latitude":34.796775,"longitude":-87.6815448,"location":"Open Door Mtg Hall","region":"Florence","url":"https://www.shoalsaa.org/meetings/florence-open-door-2/","group":"Florence Open Door Group","timezone":"America/Chicago"},{"feed":"aahuntsvilleal.com","slug":"new-young-timers-3","name":"Young Timers","day":0,"time":"16:00","end_time":"17:00","types":["D","O"],"state":"AL","postal_code":"35758","city":"Madison","address":"190 Lime Quarry Rd","latitude":34.6756645,"longitude":-86.7498036,"location":"190 Lime Quarry Road Suite 109","region":"Madison","url":"https://aahuntsvilleal.com/meetings/new-young-timers-3/","group":"New Young Timers","timezone":"America/Chicago"},{"feed":"birminghamaa.org","slug":"serenity-at-hwy-11-16","name":"Serenity at Hwy 11","day":0,"time":"16:00","end_time":"17:00","types":["C","D"],"state":"AL","postal_code":"35124","city":"Pelham","address":"5000 Co Rd 11","latitude":33.2911554,"longitude":-86.7580673,"location":"Highway 11 Clubhouse","region":"Pelham","notes":"In Person","url":"https://birminghamaa.org/wp/meetings/serenity-at-hwy-11-16/","group":"Serenity at Hwy 11","timezone":"America/Chicago"},{"feed":"birminghamaa.org","slug":"uss-missouri-2","name":"USS Missouri","day":0,"time":"16:00","end_time":"17:00","types":["C","M"],"state":"AL","postal_code":"35223","city":"Birmingham","address":"3207 Montevallo Rd","latitude":33.4912778,"longitude":-86.7629615,"location":"St. Peter's Anglican Church","region":"Birmingham","url":"https://birminghamaa.org/wp/meetings/uss-missouri-2/","group":"USS Missouri","timezone":"America/Chicago"},{"feed":"birminghamaa.org","slug":"north-jefferson-group","name":"North Jefferson Group","day":0,"time":"16:30","types":["D","O"],"state":"AL","postal_code":"35071","city":"Gardendale","address":"2456 Decatur Hwy","latitude":33.6832403,"longitude":-86.8212318,"location":"Good Shepherd Lutheran Church","region":"Gardendale","notes":"In Person\n\nPull into the church parking lot then drive around until you see a picnic pavilion. The entrance will be the middle door.","url":"https://birminghamaa.org/wp/meetings/north-jefferson-group/","group":"North Jefferson Group","timezone":"America/Chicago"},{"feed":"aahuntsvilleal.com","slug":"huntsville-group-2","name":"Huntsville Group","day":0,"time":"17:00","types":["C","AL-AN","D","X"],"state":"AL","postal_code":"35801","city":"Huntsville","address":"1407 Memorial Pkwy NW #9","latitude":34.7489498,"longitude":-86.6000142,"location":"1407 Memorial Pkwy NW, Ste 9","region":"Huntsville","notes":"Non-Smoking, Non-Vaping, Wheelchair Access","url":"https://aahuntsvilleal.com/meetings/huntsville-group-2/","group":"Huntsville Group","timezone":"America/Chicago"},{"feed":"shoalsaa.org","slug":"1730sundayquad-cities","name":"Quad Cities","day":0,"time":"17:30","end_time":"19:30","types":["D","O","SM"],"state":"AL","postal_code":"35661","city":"Muscle Shoals","address":"750 Michigan Ave","latitude":34.748638,"longitude":-87.6628322,"location":"Quad cities Mtg. House","region":"Muscle Shoals","notes":"1st Sunday of each month is a speaker meeting with Fellowship and Food starting at 4:30.\nThat meeting is Non-Smoking.","url":"https://www.shoalsaa.org/meetings/1730sundayquad-cities/","group":"Quad Cities Group","timezone":"America/Chicago"},{"feed":"aahuntsvilleal.com","slug":"fellowship-4","name":"Fellowship","day":0,"time":"17:30","types":["C","D"],"state":"AL","postal_code":"35805","city":"Huntsville","address":"2905 Bob Wallace Ave SW c","latitude":34.7107459,"longitude":-86.60481,"location":"2905 Bob Wallace Avenue, Suite C, Huntsville, AL 35805","region":"Huntsville","notes":"Non-Smoking, Non-Vaping, Wheelchair Access","url":"https://aahuntsvilleal.com/meetings/fellowship-4/","group":"Fellowship Group","timezone":"America/Chicago"},{"feed":"gulfcoastaa.org","slug":"living-sober-group-2","name":"Living Sober Group","day":0,"time":"17:30","end_time":"18:30","types":["12x12","B","LS","O","TC"],"state":"AL","postal_code":"36535","city":"Foley","address":"19489 Keller Rd","latitude":30.3413566,"longitude":-87.6919134,"location":"South Baldwin Christian Church","region":"FOLEY","url":"https://gulfcoastaa.org/meetings/living-sober-group-2","timezone":"America/Chicago"},{"feed":"birminghamaa.org","slug":"serenity-now-3","name":"Serenity Now","day":0,"time":"17:30","types":["C","D"],"state":"AL","postal_code":"35209","city":"Homewood","address":"1728 Oxmoor Rd","latitude":33.4761069,"longitude":-86.7953075,"location":"Our Lady of Sorrows (Scout Room)","region":"Homewood","notes":"In Person\nPlease park on top of parking deck in back.","url":"https://birminghamaa.org/wp/meetings/serenity-now-3/","group":"Serenity Now","timezone":"America/Chicago"},{"feed":"aahuntsvilleal.com","slug":"southside-group","name":"Southside Group","day":0,"time":"17:30","types":["C","D","W"],"state":"AL","postal_code":"35802","city":"Huntsville","address":"5003 Whitesburg Dr","latitude":34.6906109,"longitude":-86.567229,"location":"Faith Presbyterian Church Room 209","region":"Huntsville","notes":"Non-Smoking","url":"https://aahuntsvilleal.com/meetings/southside-group/","group":"Southside Group","timezone":"America/Chicago"},{"feed":"birminghamaa.org","slug":"the-fourth-dimension-formerly-serenity-now-zoom-6","name":"The Fourth Dimension","day":0,"time":"17:30","types":["C","D","ONL"],"state":"AL","city":"Birmingham","latitude":33.5185892,"longitude":-86.8103567,"location":"Zoom","region":"Zoom","notes":"Zoom ID: 259 404 1173","conference_url":"https://zoom.us/j/2594041173","url":"https://birminghamaa.org/wp/meetings/the-fourth-dimension-formerly-serenity-now-zoom-6/","group":"The Fourth Dimension","timezone":"America/Chicago"},{"feed":"mobileaa.org","slug":"11th-step-group","name":"11th STEP GROUP","day":0,"time":"18:00","end_time":"19:00","types":["C","D","X"],"state":"AL","postal_code":"36606","city":"Mobile","address":"416 Little Flower Ave","latitude":30.6738429,"longitude":-88.0899066,"location":"Sister Mary Joyce Springer Ctr","url":"https://mobileaa.org/meetings/11th-step-group/","timezone":"America/Chicago"},{"feed":"shoalsaa.org","slug":"1800sundayflorence-open-door","name":"Florence Open Door","day":0,"time":"18:00","end_time":"19:00","types":["D","O"],"state":"AL","postal_code":"35630","city":"Florence","address":"526 W College St","latitude":34.796775,"longitude":-87.6815448,"location":"Open Door Mtg Hall","region":"Florence","url":"https://www.shoalsaa.org/meetings/1800sundayflorence-open-door/","group":"Florence Open Door Group","timezone":"America/Chicago"},{"feed":"shoalsaa.org","slug":"1800sundaysheffield","name":"Sheffield","day":0,"time":"18:00","end_time":"19:00","types":["C","D"],"state":"AL","postal_code":"35660","city":"Sheffield","address":"210 E 2nd St","latitude":34.7595958,"longitude":-87.6968995,"location":"Sheffield Mtg House","region":"Sheffield","url":"https://www.shoalsaa.org/meetings/1800sundaysheffield/","group":"Sheffield Group","timezone":"America/Chicago"},{"feed":"centralalaa.org","slug":"fellowship-group-online-c-d-w","name":"Fellowship Group [ C : D / W ]","day":0,"time":"18:00","end_time":"19:00","types":["C","D","W"],"state":"AL","postal_code":"36117","city":"Montgomery","address":"5 Bell Rd","latitude":32.381004,"longitude":-86.1908098,"location":"Fellowship Group","region":"Montgomery","url":"https://centralalaa.org/meetings/fellowship-group-online-c-d-w","group":"Fellowship Group","timezone":"America/Chicago"},{"feed":"shoalsaa.org","slug":"fourth-dimension-3","name":"Fourth Dimension","day":0,"time":"18:00","end_time":"19:00","types":["C","D"],"state":"AL","postal_code":"35630","city":"Florence","address":"121 S Royal Ave","latitude":34.8061301,"longitude":-87.6619699,"location":"4D Meeting Hall","region":"Florence","url":"https://www.shoalsaa.org/meetings/fourth-dimension-3/","group":"Fourth Dimension Group","timezone":"America/Chicago"},{"feed":"birminghamaa.org","slug":"grupo-esperanza-de-vivir-4","name":"Grupo Esperanza De Vivir","day":0,"time":"18:00","end_time":"19:30","types":["D","O","S"],"state":"AL","postal_code":"35404","city":"Tuscaloosa","address":"3615 University Blvd E","latitude":33.205225,"longitude":-87.4904373,"location":"Reflections","region":"Out of Area","notes":"In Person","url":"https://birminghamaa.org/wp/meetings/grupo-esperanza-de-vivir-4/","group":"Grupo Esperanza De Vivir","timezone":"America/Chicago"},{"feed":"gulfcoastaa.org","slug":"gulf-pines-4","name":"Gulf Pines","day":0,"time":"18:00","end_time":"19:00","types":["D","O"],"state":"AL","postal_code":"36542","city":"Gulf Shores","address":"491 W 23rd Ave","latitude":30.276182,"longitude":-87.6996833,"location":"Grace Lutheran Chruch","region":"GULF SHORES","url":"https://gulfcoastaa.org/meetings/gulf-pines-4","timezone":"America/Chicago"},{"feed":"easternshoreaa.org","slug":"happy-hour","name":"HAPPY HOUR","day":0,"time":"18:00","types":["B","O","ONL"],"state":"AL","postal_code":"36526","city":"Daphne","address":"8162 Well Rd","latitude":30.6103804,"longitude":-87.8835682,"location":"Common Ground","url":"https://easternshoreaa.org/meetings/happy-hour/","timezone":"America/Chicago"},{"feed":"centralalaa.org","slug":"happy-hour-group-c-d-14","name":"Happy Hour Group [O : S]","day":0,"time":"18:00","end_time":"19:00","types":["O","SP"],"state":"AL","postal_code":"36117","city":"Montgomery","address":"3466 Eastdale Cir","latitude":32.3853681,"longitude":-86.2014809,"location":"Happy Hour Group","region":"Montgomery","notes":"*Eating Meeting 6 PM, Open Speaker Meeting 7 PM on 1st Sunday of every month.","url":"https://centralalaa.org/meetings/happy-hour-group-c-d-14","group":"Happy Hour Group","timezone":"America/Chicago"},{"feed":"centralalaa.org","slug":"happy-hour-group-o-d","name":"Happy Hour Group [O : D BG]","day":0,"time":"18:00","end_time":"19:00","types":["D","BE","O"],"state":"AL","postal_code":"36117","city":"Montgomery","address":"3466 Eastdale Cir","latitude":32.3853681,"longitude":-86.2014809,"location":"Happy Hour Group","region":"Montgomery","url":"https://centralalaa.org/meetings/happy-hour-group-o-d","group":"Happy Hour Group","timezone":"America/Chicago"},{"feed":"birminghamaa.org","slug":"live-and-let-live-2","name":"Live and Let Live","day":0,"time":"18:00","end_time":"19:00","types":["D","G","O"],"state":"AL","postal_code":"35233","city":"Birmingham","address":"2113 University Blvd","latitude":33.5055233,"longitude":-86.7969372,"location":"Baptist Church of the Covenant","region":"Birmingham","notes":"In Block Mayse Ministry Center\nEnter parking lot behind the building off 8th Ct.\nIn person meeting","url":"https://birminghamaa.org/wp/meetings/live-and-let-live-2/","group":"Live and Let Live","timezone":"America/Chicago"},{"feed":"aahuntsvilleal.com","slug":"madison-hopeful-4","name":"Madison Hopeful","day":0,"time":"18:00","types":["O","D","12x12"],"state":"AL","postal_code":"35758","city":"Madison","address":"190 Lime Quarry Rd","latitude":34.6756645,"longitude":-86.7498036,"location":"190 Lime Quarry Road Suite 109","region":"Madison","notes":"Non-Smoking, Wheelchair Access","url":"https://aahuntsvilleal.com/meetings/madison-hopeful-4/","group":"Madison Hopeful Group","timezone":"America/Chicago"},{"feed":"centralalaa.org","slug":"selma-group-o-d-6","name":"Selma Group [O : D]","day":0,"time":"18:00","end_time":"19:00","types":["O","D"],"state":"AL","postal_code":"36703","city":"Selma","address":"Alabama Ave & Lauderdale St","latitude":32.407365,"longitude":-87.0209249,"location":"Courthouse Basement","region":"Selma","url":"https://centralalaa.org/meetings/selma-group-o-d-6","group":"Selma Group","timezone":"America/Chicago"},{"feed":"mobileaa.org","slug":"turning-point-group-2","name":"TURNING POINT GROUP","day":0,"time":"18:00","end_time":"19:00","types":["D","O","X"],"state":"AL","postal_code":"36606","city":"Mobile","address":"908 McRae Ave","latitude":30.6610363,"longitude":-88.1062911,"location":"Alano Club","url":"https://mobileaa.org/meetings/turning-point-group-2/","timezone":"America/Chicago"},{"feed":"birminghamaa.org","slug":"day-by-day","name":"Day by Day","day":0,"time":"18:30","types":["C","D"],"state":"AL","postal_code":"35242","city":"Birmingham","address":"6690 Cahaba Valley Rd","latitude":33.4096982,"longitude":-86.6729351,"location":"Asbury United Methodist Church","region":"Birmingham","notes":"In Person\n\n**OPEN** SPEAKER MEETING ON 5TH SUNDAY OF THE MONTH (January 29th, April 30th, July 30th, October 30th)","url":"https://birminghamaa.org/wp/meetings/day-by-day/","group":"Day by Day","timezone":"America/Chicago"},{"feed":"centralalaa.org","slug":"prattville-downtown-group-o-st","name":"Prattville Downtown Group [C : L 12& 12]","day":0,"time":"18:30","end_time":"19:30","types":["12x12","C","LIT"],"state":"AL","postal_code":"36067","city":"Prattville","address":"326 W 5th St","latitude":32.4650183,"longitude":-86.4799495,"location":"Prattville Downtown Group","region":"Prattville","notes":"Step Study","url":"https://centralalaa.org/meetings/prattville-downtown-group-o-st","group":"Prattville Downtown Group","timezone":"America/Chicago"},{"feed":"centralalaa.org","slug":"sole-purpose-group-c-d-2","name":"Sole Purpose Group [C : D]","day":0,"time":"18:30","end_time":"19:30","types":["C","D"],"state":"AL","postal_code":"36117","city":"Montgomery","address":"6000 Atlanta Hwy #3103","latitude":32.3809174,"longitude":-86.1972782,"location":"Frazer Church","region":"Montgomery","notes":"Non-Smoking","url":"https://centralalaa.org/meetings/sole-purpose-group-c-d-2","group":"Sole Purpose Group","timezone":"America/Chicago"},{"feed":"shoalsaa.org","slug":"1900sundayred-bay-freedom","name":"Red Bay Freedom","day":0,"time":"19:00","end_time":"20:00","types":["D","O"],"state":"AL","postal_code":"35582","city":"Red Bay","address":"407 4th St W","latitude":34.4427997,"longitude":-88.1480765,"location":"CB & S Bank basement","region":"Red Bay","notes":"In Person only, literature based discussion meeting.\n6:30 PM Fellowship - 7:00 PM\nLast meeting of the month is an Open Speaker meeting.","url":"https://www.shoalsaa.org/meetings/1900sundayred-bay-freedom/","group":"Red Bay Freedom","timezone":"America/Chicago"},{"feed":"aahuntsvilleal.com","slug":"athens-serenity-2","name":"Athens Serenity","day":0,"time":"19:00","types":["C","D"],"state":"AL","postal_code":"35611","city":"Athens","address":"518 S Clinton St","latitude":34.7977091,"longitude":-86.9695748,"location":"518 South Clinton","region":"Athens","notes":"Non-Smoking, Non-Vaping, Wheelchair Access","url":"https://aahuntsvilleal.com/meetings/athens-serenity-2/","group":"Athens Serenity","timezone":"America/Chicago"},{"feed":"aahuntsvilleal.com","slug":"fellowship-5","name":"Fellowship","day":0,"time":"19:00","end_time":"20:00","types":["D","O"],"state":"AL","postal_code":"35805","city":"Huntsville","address":"2905 Bob Wallace Ave SW c","latitude":34.7107459,"longitude":-86.60481,"location":"2905 Bob Wallace Avenue, Suite C, Huntsville, AL 35805","region":"Huntsville","notes":"Non-Smoking, Wheelchair Access","url":"https://aahuntsvilleal.com/meetings/fellowship-5/","group":"Fellowship Group","timezone":"America/Chicago"},{"feed":"aahuntsvilleal.com","slug":"harvest","name":"Harvest","day":0,"time":"19:00","end_time":"20:00","types":["D","BE","O"],"state":"AL","postal_code":"35749","city":"Harvest","address":"1418 Old Railroad Bed Rd","latitude":34.7718019,"longitude":-86.7872694,"location":"Good Shepherd United Methodist","region":"Harvest","notes":"Non-Smoking.\n\nThe Beginners Meeting series will run for 6 consecutive Sundays followed by 6 Sundays of Open Discussion meetings prior to repeating the series. AAs willing to share experience, strength and hope, or willing to sponsor are greatly encouraged to attend as well.","url":"https://aahuntsvilleal.com/meetings/harvest/","group":"Harvest Group","timezone":"America/Chicago"},{"feed":"birminghamaa.org","slug":"hoover","name":"Hoover","day":0,"time":"19:00","end_time":"20:00","types":["SP"],"state":"AL","postal_code":"35226","city":"Hoover","address":"1815 Patton Chapel Rd","latitude":33.3887477,"longitude":-86.8165424,"location":"Green Valley Church","region":"Hoover","notes":"In Person Speaker Meeting","url":"https://birminghamaa.org/wp/meetings/hoover/","group":"Hoover","timezone":"America/Chicago"},{"feed":"aahuntsvilleal.com","slug":"huntsville-group-3","name":"Huntsville Group","day":0,"time":"19:00","types":["D","O","X"],"state":"AL","postal_code":"35801","city":"Huntsville","address":"1407 Memorial Pkwy NW #9","latitude":34.7489498,"longitude":-86.6000142,"location":"1407 Memorial Pkwy NW, Ste 9","region":"Huntsville","notes":"Non-Smoking, Non-Vaping, Wheelchair Access","url":"https://aahuntsvilleal.com/meetings/huntsville-group-3/","group":"Huntsville Group","timezone":"America/Chicago"},{"feed":"birminghamaa.org","slug":"leeds-5","name":"Leeds","day":0,"time":"19:00","types":["D","O"],"state":"AL","postal_code":"35094","city":"Leeds","address":"8220 Parkway Dr","latitude":33.5427613,"longitude":-86.539529,"location":"Leeds Group (Next to Ryan's Automotive - 1st & 3rd Monday - Traditions Study)","region":"Leeds","notes":"In Person","url":"https://birminghamaa.org/wp/meetings/leeds-5/","group":"Leeds","timezone":"America/Chicago"},{"feed":"birminghamaa.org","slug":"logan-martin-pell-city-3","name":"Logan Martin/Pell City","day":0,"time":"19:00","end_time":"20:00","types":["B","D"],"state":"AL","postal_code":"35125","city":"Pell City","address":"2200 3rd Ave N","latitude":33.5897197,"longitude":-86.2835011,"location":"First United Methodist Church","region":"Pell City","notes":"In Person","url":"https://birminghamaa.org/wp/meetings/logan-martin-pell-city-3/","group":"Logan Martin/Pell City","timezone":"America/Chicago"},{"feed":"birminghamaa.org","slug":"new-beginning","name":"New Beginning","day":0,"time":"19:00","types":["D","O"],"state":"AL","postal_code":"35115","city":"Montevallo","address":"925 Plowman St","latitude":33.1047134,"longitude":-86.8604314,"location":"St. Andrews Episcopal (Montevallo)","region":"Montevallo","notes":"In Person","url":"https://birminghamaa.org/wp/meetings/new-beginning/","group":"New Beginning","timezone":"America/Chicago"},{"feed":"mobileaa.org","slug":"theodore-memorial-group-3","name":"THEODORE MEMORIAL GROUP","day":0,"time":"19:00","end_time":"20:00","types":["O","SP"],"state":"AL","postal_code":"36582","city":"Theodore","address":"6255 Swedetown Rd N","latitude":30.5448837,"longitude":-88.1878562,"location":"Theodore UMC","url":"https://mobileaa.org/meetings/theodore-memorial-group-3/","timezone":"America/Chicago"},{"feed":"birminghamaa.org","slug":"trussville-8","name":"Trussville","day":0,"time":"19:00","end_time":"20:00","types":["C","D"],"state":"AL","postal_code":"35173","city":"Trussville","address":"115 Glenn Ave","latitude":33.6202169,"longitude":-86.6109554,"location":"Methodist Church Annex (House behind Church)","region":"Trussville","notes":"In Person","url":"https://birminghamaa.org/wp/meetings/trussville-8/","group":"Trussville","timezone":"America/Chicago"},{"feed":"aahuntsvilleal.com","slug":"volviendo-a-lo-basico-dispuestos-a-creer","name":"Volviendo A Lo B\u00e1sico; Dispuestos A Creer","day":0,"time":"19:00","end_time":"20:30","types":["O","S"],"state":"AL","postal_code":"35802","city":"Huntsville","address":"8211 Stephanie Dr SW","latitude":34.6570277,"longitude":-86.5674289,"location":"8211 Stephanie Dr Sw Huntsville Alabama 35802","region":"Huntsville","url":"https://aahuntsvilleal.com/meetings/volviendo-a-lo-basico-dispuestos-a-creer/","timezone":"America/Chicago"},{"feed":"aahuntsvilleal.com","slug":"grupo-sendero-de-fe-hsv-7","name":"Grupo Sendero de Fe HSV","day":0,"time":"19:30","end_time":"21:00","types":["D","O","S"],"state":"AL","postal_code":"35805","city":"Huntsville","address":"3113 Ivy Ave","latitude":34.7050868,"longitude":-86.608954,"location":"3113 Ivy Avenue","region":"Huntsville","notes":"Non-smoking","url":"https://aahuntsvilleal.com/meetings/grupo-sendero-de-fe-hsv-7/","group":"Grupo Sendero de Fe HSV","timezone":"America/Chicago"},{"feed":"birminghamaa.org","slug":"grupo-sendero-de-vida-3","name":"Grupo Sendero De Vida","day":0,"time":"19:30","end_time":"21:00","types":["D","O","S"],"state":"AL","postal_code":"35950","city":"Albertville","address":"114 E Main St","latitude":34.2677403,"longitude":-86.208097,"location":"114 E Main St, Albertville, AL 35950","region":"Out of Area","notes":"In Person","url":"https://birminghamaa.org/wp/meetings/grupo-sendero-de-vida-3/","group":"Grupo Sendero De Vida","timezone":"America/Chicago"},{"feed":"shoalsaa.org","slug":"2000sundayflorence-open-door","name":"Florence Open Door","day":0,"time":"20:00","end_time":"21:00","types":["D","O"],"state":"AL","postal_code":"35630","city":"Florence","address":"526 W College St","latitude":34.796775,"longitude":-87.6815448,"location":"Open Door Mtg Hall","region":"Florence","url":"https://www.shoalsaa.org/meetings/2000sundayflorence-open-door/","group":"Florence Open Door Group","timezone":"America/Chicago"},{"feed":"birminghamaa.org","slug":"grupo-nueva-vida-3","name":"Grupo Nueva Vida","day":0,"time":"20:00","end_time":"21:30","types":["D","O","S"],"state":"AL","postal_code":"36203","city":"Oxford","address":"2240 US-78","latitude":33.5929698,"longitude":-85.8828819,"location":"2240 US-78, Oxford, AL 36203","region":"Out of Area","notes":"In Person","url":"https://birminghamaa.org/wp/meetings/grupo-nueva-vida-3/","group":"Grupo Nueva Vida","timezone":"America/Chicago"},{"feed":"birminghamaa.org","slug":"new-beginnings-zoom-only","name":"New Beginnings (Zoom Only)","day":0,"time":"20:00","end_time":"21:00","types":["D","O","ONL"],"state":"AL","city":"Birmingham","latitude":33.5185892,"longitude":-86.8103567,"location":"Zoom","region":"Zoom","notes":"Zoom ID: 491 307 1224","conference_url":"https://us02web.zoom.us/j/4913071224","url":"https://birminghamaa.org/wp/meetings/new-beginnings-zoom-only/","group":"New Beginnings","timezone":"America/Chicago"},{"feed":"mobileaa.org","slug":"sunshine-group-4","name":"SUNSHINE GROUP","day":0,"time":"20:00","end_time":"21:00","types":["D","O","X"],"state":"AL","postal_code":"36604","city":"Mobile","address":"1005 Old Shell Rd","latitude":30.6890671,"longitude":-88.0581978,"location":"Old Shell Clubhouse","url":"https://mobileaa.org/meetings/sunshine-group-4/","timezone":"America/Chicago"},{"feed":"aahuntsvilleal.com","slug":"stairway-group-2","name":"Stairway Group","day":1,"time":"05:30","end_time":"06:30","types":["D","O"],"state":"AL","postal_code":"35601","city":"Decatur","address":"1820- 6th Ave SE","latitude":34.5761577,"longitude":-86.9739646,"location":"Gateway Shopping Center #G2","region":"Decatur","notes":"Non-Smoking, Non-Vaping, Wheelchair Access","url":"https://aahuntsvilleal.com/meetings/stairway-group-2/","group":"Stairway Group","timezone":"America/Chicago"},{"feed":"aahuntsvilleal.com","slug":"athens-serenity-6","name":"Athens Serenity","day":1,"time":"06:30","end_time":"07:30","types":["D","O"],"state":"AL","postal_code":"35611","city":"Athens","address":"518 S Clinton St","latitude":34.7977091,"longitude":-86.9695748,"location":"518 South Clinton","region":"Athens","notes":"Non-Smoking, Non-Vaping, Wheelchair Access","url":"https://aahuntsvilleal.com/meetings/athens-serenity-6/","group":"Athens Serenity","timezone":"America/Chicago"},{"feed":"centralalaa.org","slug":"happy-hour-group-c-d","name":"Happy Hour Group [C : D]","day":1,"time":"06:30","end_time":"07:30","types":["C","D"],"state":"AL","postal_code":"36117","city":"Montgomery","address":"3466 Eastdale Cir","latitude":32.3853681,"longitude":-86.2014809,"location":"Happy Hour Group","region":"Montgomery","url":"https://centralalaa.org/meetings/happy-hour-group-c-d","group":"Happy Hour Group","timezone":"America/Chicago"},{"feed":"birminghamaa.org","slug":"leggo-my-ego-2","name":"Leggo My EGO","day":1,"time":"06:30","end_time":"07:30","types":["C","D","ONL"],"state":"AL","city":"Birmingham","latitude":33.5185892,"longitude":-86.8103567,"location":"Zoom","region":"Zoom","notes":"Zoom ID: 827 9426 1633\nPasscode: 698495","conference_url":"https://zoom.us/j/82794261633","url":"https://birminghamaa.org/wp/meetings/leggo-my-ego-2/","timezone":"America/Chicago"},{"feed":"aahuntsvilleal.com","slug":"madison-hopeful-6","name":"Madison Hopeful","day":1,"time":"06:30","types":["O","D","MED"],"state":"AL","postal_code":"35758","city":"Madison","address":"190 Lime Quarry Rd","latitude":34.6756645,"longitude":-86.7498036,"location":"190 Lime Quarry Road Suite 109","region":"Madison","notes":"Non-Smoking, Wheelchair Access","url":"https://aahuntsvilleal.com/meetings/madison-hopeful-6/","group":"Madison Hopeful Group","timezone":"America/Chicago"},{"feed":"mobileaa.org","slug":"rise-shine","name":"RISE & SHINE","day":1,"time":"06:30","end_time":"07:30","types":["D","O","ONL"],"state":"AL","city":"Mobile","latitude":30.6953657,"longitude":-88.0398912,"location":"Online Only","conference_url":"https://zoom.us/j/9186046793","url":"https://mobileaa.org/meetings/rise-shine/","timezone":"America/Chicago"},{"feed":"birminghamaa.org","slug":"serenity-at-hwy-11","name":"Serenity at Hwy 11","day":1,"time":"06:30","end_time":"07:30","types":["D","O"],"state":"AL","postal_code":"35124","city":"Pelham","address":"5000 Co Rd 11","latitude":33.2911554,"longitude":-86.7580673,"location":"Highway 11 Clubhouse","region":"Pelham","notes":"In Person","url":"https://birminghamaa.org/wp/meetings/serenity-at-hwy-11/","group":"Serenity at Hwy 11","timezone":"America/Chicago"},{"feed":"birminghamaa.org","slug":"sunrise-8","name":"Sunrise","day":1,"time":"06:30","end_time":"07:30","types":["C","D"],"state":"AL","postal_code":"35222","city":"Birmingham","address":"3513 7th Ave S","latitude":33.5160603,"longitude":-86.7787415,"location":"JAFI Jefferson Alcoholic Foundation","region":"Birmingham","url":"https://birminghamaa.org/wp/meetings/sunrise-8/","group":"Sunrise","timezone":"America/Chicago"},{"feed":"mobileaa.org","slug":"sunrise-group","name":"SUNRISE GROUP","day":1,"time":"06:30","end_time":"07:30","types":["D","O","X"],"state":"AL","postal_code":"36606","city":"Mobile","address":"908 McRae Ave","latitude":30.6610363,"longitude":-88.1062911,"location":"Alano Club","url":"https://mobileaa.org/meetings/sunrise-group/","timezone":"America/Chicago"},{"feed":"shoalsaa.org","slug":"0700mondayfourth-dimension","name":"Fourth Dimension","day":1,"time":"07:00","end_time":"08:00","types":["C","D"],"state":"AL","postal_code":"35630","city":"Florence","address":"121 S Royal Ave","latitude":34.8061301,"longitude":-87.6619699,"location":"4D Meeting Hall","region":"Florence","url":"https://www.shoalsaa.org/meetings/0700mondayfourth-dimension/","group":"Fourth Dimension Group","timezone":"America/Chicago"},{"feed":"shoalsaa.org","slug":"4d-online","name":"4D Online","day":1,"time":"07:00","end_time":"08:00","types":["D","O","ONL"],"state":"AL","postal_code":"35630","city":"Florence","address":"121 S Royal Ave","latitude":34.8061301,"longitude":-87.6619699,"location":"4D Meeting Hall","region":"Florence","notes":"Online only, Zoom, Meeting ID 573857015 Password 241873\nIn-Person meetings at the 4D Meetinghouse are listed as Fourth Dimension Group","conference_url":"https://us02web.zoom.us/j/573857015","url":"https://www.shoalsaa.org/meetings/4d-online/","group":"Fourth Dimension Group","timezone":"America/Chicago"},{"feed":"aahuntsvilleal.com","slug":"downtown-group","name":"Downtown Group","day":1,"time":"07:00","types":["D","TC","MED","O"],"state":"AL","postal_code":"35801","city":"Huntsville","address":"801 Governors Dr SW","latitude":34.7196565,"longitude":-86.5915714,"location":"801A Governors Drive","region":"Huntsville","notes":"Non-Smoking","url":"https://aahuntsvilleal.com/meetings/downtown-group/","group":"Downtown Group","timezone":"America/Chicago"},{"feed":"aahuntsvilleal.com","slug":"huntsville-group-27","name":"Huntsville Group","day":1,"time":"07:00","end_time":"07:30","types":["MED","O","X"],"state":"AL","postal_code":"35801","city":"Huntsville","address":"1407 Memorial Pkwy NW #9","latitude":34.7489498,"longitude":-86.6000142,"location":"1407 Memorial Pkwy NW, Ste 9","region":"Huntsville","notes":"Non-Smoking, Non-Vaping, Wheelchair Access","url":"https://aahuntsvilleal.com/meetings/huntsville-group-27/","group":"Huntsville Group","timezone":"America/Chicago"},{"feed":"gulfcoastaa.org","slug":"orange-beach-presbyterian-mondays-at-700-am","name":"Orange Beach","day":1,"time":"07:00","types":["D","O"],"state":"AL","postal_code":"36561","city":"Orange Beach","address":"26640 Canal Rd","latitude":30.2922918,"longitude":-87.5699862,"location":"Orange Beach Presbyterian","region":"ORANGE BEACH","notes":"Speaker meeting 1st Saturday (8am) of the month.","url":"https://gulfcoastaa.org/meetings/orange-beach-presbyterian-mondays-at-700-am","timezone":"America/Chicago"},{"feed":"aahuntsvilleal.com","slug":"triangle-in-the-circle-off-the-square-4","name":"Triangle in the Circle off the Square","day":1,"time":"07:00","end_time":"08:00","types":["D","O"],"state":"AL","postal_code":"35801","city":"Huntsville","address":"120 Greene St SE bldg 3 room 221","latitude":34.7318678,"longitude":-86.5845241,"location":"First United Methodist Church","region":"Huntsville","notes":"Non-Smoking, Non-Vaping","url":"https://aahuntsvilleal.com/meetings/triangle-in-the-circle-off-the-square-4/","group":"Triangle in the Circle off the Square","timezone":"America/Chicago"},{"feed":"easternshoreaa.org","slug":"serenity-4","name":"SERENITY","day":1,"time":"07:30","types":["D","O"],"state":"AL","postal_code":"36526","city":"Daphne","address":"8162 Well Rd","latitude":30.6103804,"longitude":-87.8835682,"location":"Common Ground","url":"https://easternshoreaa.org/meetings/serenity-4/","timezone":"America/Chicago"},{"feed":"easternshoreaa.org","slug":"there-is-hope-in-fairhope-13","name":"THERE IS HOPE IN FAIRHOPE","day":1,"time":"07:30","types":["C","D"],"state":"AL","postal_code":"36532","city":"Fairhope","address":"349 Fairwood Blvd","latitude":30.5298446,"longitude":-87.8982811,"location":"Fairhope Christian Church","url":"https://easternshoreaa.org/meetings/there-is-hope-in-fairhope-13/","timezone":"America/Chicago"},{"feed":"easternshoreaa.org","slug":"zooming-with-serenity","name":"Zooming With Serenity","day":1,"time":"07:30","types":["D","O","ONL"],"state":"AL","city":"Daphne","latitude":30.6035255,"longitude":-87.9036047,"location":"Online-Daphne AL","url":"https://easternshoreaa.org/meetings/zooming-with-serenity/","timezone":"America/Chicago"},{"feed":"aahuntsvilleal.com","slug":"fellowship-6","name":"Fellowship","day":1,"time":"08:00","types":["C","D","12x12"],"state":"AL","postal_code":"35805","city":"Huntsville","address":"2905 Bob Wallace Ave SW c","latitude":34.7107459,"longitude":-86.60481,"location":"2905 Bob Wallace Avenue, Suite C, Huntsville, AL 35805","region":"Huntsville","notes":"Non-Smoking, Wheelchair Access","url":"https://aahuntsvilleal.com/meetings/fellowship-6/","group":"Fellowship Group","timezone":"America/Chicago"},{"feed":"mobileaa.org","slug":"god-shot-group","name":"GOD SHOT GROUP","day":1,"time":"08:30","end_time":"09:30","types":["O","SP","X"],"state":"AL","postal_code":"36606","city":"Mobile","address":"908 McRae Ave","latitude":30.6610363,"longitude":-88.1062911,"location":"Alano Club","url":"https://mobileaa.org/meetings/god-shot-group/","timezone":"America/Chicago"},{"feed":"aahuntsvilleal.com","slug":"huntsville-group-4","name":"Huntsville Group","day":1,"time":"09:30","types":["C","D","X"],"state":"AL","postal_code":"35801","city":"Huntsville","address":"1407 Memorial Pkwy NW #9","latitude":34.7489498,"longitude":-86.6000142,"location":"1407 Memorial Pkwy NW, Ste 9","region":"Huntsville","notes":"Non-Smoking, Non-Vaping, Wheelchair Access","url":"https://aahuntsvilleal.com/meetings/huntsville-group-4/","group":"Huntsville Group","timezone":"America/Chicago"},{"feed":"birminghamaa.org","slug":"starting-over-2","name":"Starting Over","day":1,"time":"09:30","end_time":"10:30","types":["C","D"],"state":"AL","postal_code":"35242","city":"Birmingham","address":"4887 Valleydale Rd","latitude":33.3960433,"longitude":-86.7181765,"location":"Shepherd of the Hills Lutheran Church","region":"Birmingham","notes":"In Person","url":"https://birminghamaa.org/wp/meetings/starting-over-2/","group":"Starting Over","timezone":"America/Chicago"},{"feed":"shoalsaa.org","slug":"1100mondayfourth-dimension","name":"Fourth Dimension","day":1,"time":"11:00","end_time":"12:00","types":["C","D"],"state":"AL","postal_code":"35630","city":"Florence","address":"121 S Royal Ave","latitude":34.8061301,"longitude":-87.6619699,"location":"4D Meeting Hall","region":"Florence","notes":"1st and 3rd Mondays are Open Discussion","url":"https://www.shoalsaa.org/meetings/1100mondayfourth-dimension/","group":"Fourth Dimension Group","timezone":"America/Chicago"},{"feed":"shoalsaa.org","slug":"1100mondayquad-cities","name":"Quad Cities","day":1,"time":"11:00","end_time":"12:00","types":["D","O","SM"],"state":"AL","postal_code":"35661","city":"Muscle Shoals","address":"750 Michigan Ave","latitude":34.748638,"longitude":-87.6628322,"location":"Quad cities Mtg. House","region":"Muscle Shoals","url":"https://www.shoalsaa.org/meetings/1100mondayquad-cities/","group":"Quad Cities Group","timezone":"America/Chicago"},{"feed":"shoalsaa.org","slug":"1100mondaysheffield","name":"Sheffield","day":1,"time":"11:00","end_time":"12:00","types":["C","D"],"state":"AL","postal_code":"35660","city":"Sheffield","address":"210 E 2nd St","latitude":34.7595958,"longitude":-87.6968995,"location":"Sheffield Mtg House","region":"Sheffield","url":"https://www.shoalsaa.org/meetings/1100mondaysheffield/","group":"Sheffield Group","timezone":"America/Chicago"},{"feed":"mobileaa.org","slug":"1916-group","name":"1916 GROUP","day":1,"time":"11:00","end_time":"00:00","types":["D","O","X"],"state":"AL","postal_code":"36606","city":"Mobile","address":"908 McRae Ave","latitude":30.6610363,"longitude":-88.1062911,"location":"Alano Club","url":"https://mobileaa.org/meetings/1916-group/","timezone":"America/Chicago"},{"feed":"mobileaa.org","slug":"common-solution-group","name":"COMMON SOLUTION GROUP","day":1,"time":"11:00","end_time":"00:00","types":["D","O","X"],"state":"AL","postal_code":"36604","city":"Mobile","address":"1005 Old Shell Rd","latitude":30.6890671,"longitude":-88.0581978,"location":"Old Shell Clubhouse","url":"https://mobileaa.org/meetings/common-solution-group/","timezone":"America/Chicago"},{"feed":"mobileaa.org","slug":"girlfriends-of-bill-w","name":"Girlfriends of Bill W.","day":1,"time":"11:00","end_time":"12:00","types":["D","O","W","EN"],"state":"AL","postal_code":"36426","city":"Brewton","address":"1023 Douglas Ave #322","latitude":31.1229014,"longitude":-87.0697966,"location":"People Engaged In Recovery (P.E.I.R.)","url":"https://mobileaa.org/meetings/girlfriends-of-bill-w/","group":"Girlfriends of Bill W.","timezone":"America/Chicago"},{"feed":"centralalaa.org","slug":"tradition-three-group-o-d","name":"Tradition Three Group [O : D]","day":1,"time":"11:00","end_time":"12:00","types":["D","O"],"state":"AL","postal_code":"36117","city":"Montgomery","address":"1705 Taylor Rd","latitude":32.3531649,"longitude":-86.1712816,"location":"First Christian Church","region":"Montgomery","url":"https://centralalaa.org/meetings/tradition-three-group-o-d","group":"Tradition Three Group","timezone":"America/Chicago"},{"feed":"easternshoreaa.org","slug":"daytimers","name":"DAYTIMERS","day":1,"time":"11:30","types":["D","O"],"state":"AL","postal_code":"36526","city":"Daphne","address":"8162 Well Rd","latitude":30.6103804,"longitude":-87.8835682,"location":"Common Ground","url":"https://easternshoreaa.org/meetings/daytimers/","timezone":"America/Chicago"},{"feed":"birminghamaa.org","slug":"women-zooming-to-sobriety-2","name":"Women ZOOMing to Sobriety","day":1,"time":"11:30","end_time":"12:30","types":["B","C","D","ONL"],"state":"AL","city":"Birmingham","latitude":33.5185892,"longitude":-86.8103567,"location":"Zoom","region":"Zoom","notes":"Meeting ID & Passcode:\n\nZoom ID: 828 0345 3380\nPasscode: 19655","conference_url":"https://zoom.us/j/82803453380?pwd=KsUVYZ4zJa3CbPU4nN6iSYxBBfDRIs","url":"https://birminghamaa.org/wp/meetings/women-zooming-to-sobriety-2/","timezone":"America/Chicago"},{"feed":"birminghamaa.org","slug":"womens-acceptance-2","name":"Womens Acceptance","day":1,"time":"11:30","types":["C","D","W"],"state":"AL","postal_code":"35213","city":"Birmingham","address":"350 Overbrook Rd","latitude":33.489253,"longitude":-86.7560866,"location":"Canterbury United Methodist (Canterbury Hall)","region":"Birmingham","notes":"In Person - Room M144","url":"https://birminghamaa.org/wp/meetings/womens-acceptance-2/","group":"Womens Acceptance","timezone":"America/Chicago"},{"feed":"shoalsaa.org","slug":"1200mondayflorence-open-door","name":"Florence Open Door","day":1,"time":"12:00","end_time":"13:00","types":["12x12","O"],"state":"AL","postal_code":"35630","city":"Florence","address":"526 W College St","latitude":34.796775,"longitude":-87.6815448,"location":"Open Door Mtg Hall","region":"Florence","url":"https://www.shoalsaa.org/meetings/1200mondayflorence-open-door/","group":"Florence Open Door Group","timezone":"America/Chicago"},{"feed":"aahuntsvilleal.com","slug":"athens-serenity-3","name":"Athens Serenity","day":1,"time":"12:00","types":["O","D"],"state":"AL","postal_code":"35611","city":"Athens","address":"518 S Clinton St","latitude":34.7977091,"longitude":-86.9695748,"location":"518 South Clinton","region":"Athens","notes":"Non-Smoking, Non-Vaping, Wheelchair Access","url":"https://aahuntsvilleal.com/meetings/athens-serenity-3/","group":"Athens Serenity","timezone":"America/Chicago"},{"feed":"centralalaa.org","slug":"autauga-s-o-s-group-o-l","name":"Autauga S.O.S. Group [O : L]","day":1,"time":"12:00","end_time":"13:00","types":["B","LIT","O"],"state":"AL","postal_code":"36067","city":"Prattville","address":"178 E 4th St","latitude":32.462475,"longitude":-86.4700741,"location":"St. Mark's Episcopal Church","region":"Prattville","url":"https://centralalaa.org/meetings/autauga-s-o-s-group-o-l","group":"Autauga S.O.S. Group","timezone":"America/Chicago"},{"feed":"birminghamaa.org","slug":"bessemer-4","name":"Bessemer","day":1,"time":"12:00","types":["C","D"],"state":"AL","postal_code":"35020","city":"Bessemer","address":"824 9th St N","latitude":33.3944348,"longitude":-86.9699758,"location":"Bessemer Clubhouse","region":"Bessemer","notes":"In Person","url":"https://birminghamaa.org/wp/meetings/bessemer-4/","group":"Bessemer","timezone":"America/Chicago"},{"feed":"birminghamaa.org","slug":"columbiana-serenity","name":"Columbiana Serenity","day":1,"time":"12:00","end_time":"13:00","types":["D","O"],"state":"AL","postal_code":"35051","city":"Columbiana","address":"200 N Main St","latitude":33.1798347,"longitude":-86.6076253,"location":"Columbiana United Methodist Church","region":"Columbiana","notes":"In Person","url":"https://birminghamaa.org/wp/meetings/columbiana-serenity/","group":"Columbiana Serenity","timezone":"America/Chicago"},{"feed":"birminghamaa.org","slug":"downtown-group","name":"Downtown Group","day":1,"time":"12:00","types":["D","O"],"state":"AL","postal_code":"35203","city":"Birmingham","address":"2017 6th Ave N","latitude":33.5191581,"longitude":-86.8083038,"location":"Church of the Advent","region":"Birmingham","notes":"On the 20th street side you will find a large courtyard. Enter the courtyard mid block Once in the courtyard, proceed to the right, next to the elevator, you\u2019ll see a set of steps leading down take those steps to the door at the bottom, and that will lead you into the meeting space.","url":"https://birminghamaa.org/wp/meetings/downtown-group/","group":"Downtown Group","timezone":"America/Chicago"},{"feed":"aahuntsvilleal.com","slug":"fellowship-7","name":"Fellowship","day":1,"time":"12:00","types":["C","D","12x12"],"state":"AL","postal_code":"35805","city":"Huntsville","address":"2905 Bob Wallace Ave SW c","latitude":34.7107459,"longitude":-86.60481,"location":"2905 Bob Wallace Avenue, Suite C, Huntsville, AL 35805","region":"Huntsville","notes":"Non-Smoking, Wheelchair Access","url":"https://aahuntsvilleal.com/meetings/fellowship-7/","group":"Fellowship Group","timezone":"America/Chicago"},{"feed":"gulfcoastaa.org","slug":"first-presbyterian-church-mondays-at-1200-pm","name":"There Is A Solution","day":1,"time":"12:00","types":["B","AL-AN","BE","O"],"state":"AL","postal_code":"36535","city":"Foley","address":"195 E Berry Ave","latitude":30.4187523,"longitude":-87.682344,"location":"First Presbyterian Church","region":"FOLEY","notes":"Speaker meeting last Friday of the month at noon","url":"https://gulfcoastaa.org/meetings/first-presbyterian-church-mondays-at-1200-pm","timezone":"America/Chicago"},{"feed":"birminghamaa.org","slug":"five-points-3","name":"Five Points","day":1,"time":"12:00","types":["C","D","BE"],"state":"AL","postal_code":"35222","city":"Birmingham","address":"3513 7th Ave S","latitude":33.5160603,"longitude":-86.7787415,"location":"JAFI Jefferson Alcoholic Foundation","region":"Birmingham","notes":"In Person","url":"https://birminghamaa.org/wp/meetings/five-points-3/","group":"Five Points","timezone":"America/Chicago"},{"feed":"centralalaa.org","slug":"happy-hour-group-c-d-6","name":"Happy Hour Group [C : D]","day":1,"time":"12:00","end_time":"13:00","types":["C","D"],"state":"AL","postal_code":"36117","city":"Montgomery","address":"3466 Eastdale Cir","latitude":32.3853681,"longitude":-86.2014809,"location":"Happy Hour Group","region":"Montgomery","url":"https://centralalaa.org/meetings/happy-hour-group-c-d-6","group":"Happy Hour Group","timezone":"America/Chicago"},{"feed":"birminghamaa.org","slug":"hueytown-5","name":"Hueytown","day":1,"time":"12:00","end_time":"13:00","types":["D","O"],"state":"AL","postal_code":"35023","city":"Hueytown","address":"110 Sunset Dr","latitude":33.4517756,"longitude":-86.9975756,"location":"Hueytown United Methodist Church","region":"Hueytown","notes":"In Person","url":"https://birminghamaa.org/wp/meetings/hueytown-5/","group":"Hueytown","timezone":"America/Chicago"},{"feed":"birminghamaa.org","slug":"huffman-2","name":"Huffman","day":1,"time":"12:00","types":["D","O"],"state":"AL","postal_code":"35235","city":"Birmingham","address":"711 Gene Reed Rd","latitude":33.5971459,"longitude":-86.6910535,"location":"Huffman United Methodist","region":"Huffman","notes":"In Person","url":"https://birminghamaa.org/wp/meetings/huffman-2/","group":"Huffman","timezone":"America/Chicago"},{"feed":"aahuntsvilleal.com","slug":"huntsville-group-26","name":"Huntsville Group","day":1,"time":"12:00","end_time":"13:00","types":["C","D","X"],"state":"AL","postal_code":"35801","city":"Huntsville","address":"1407 Memorial Pkwy NW #9","latitude":34.7489498,"longitude":-86.6000142,"location":"1407 Memorial Pkwy NW, Ste 9","region":"Huntsville","notes":"Non-Smoking, Non-Vaping, Wheelchair Access","url":"https://aahuntsvilleal.com/meetings/huntsville-group-26/","group":"Huntsville Group","timezone":"America/Chicago"},{"feed":"aahuntsvilleal.com","slug":"huntsville-zoom","name":"Huntsville Zoom","day":1,"time":"12:00","end_time":"13:00","types":["O","ONL"],"state":"AL","city":"Huntsville","latitude":34.7295497,"longitude":-86.5853155,"region":"Huntsville","notes":"Zoom Meeting:\nMeeting ID: 3335067853\nPassword: 542512","conference_url":"https://zoom.us/j/3335067853","url":"https://aahuntsvilleal.com/meetings/huntsville-zoom/","timezone":"America/Chicago"},{"feed":"centralalaa.org","slug":"legacies-c-d-2","name":"Legacies Group [C : D]","day":1,"time":"12:00","end_time":"13:00","types":["C","D"],"state":"AL","postal_code":"36109","city":"Montgomery","address":"3412 Atlanta Hwy","latitude":32.3841815,"longitude":-86.2582272,"location":"Legacies Group","region":"Montgomery","url":"https://centralalaa.org/meetings/legacies-c-d-2","timezone":"America/Chicago"},{"feed":"aahuntsvilleal.com","slug":"madison-hopeful-8","name":"Madison Hopeful","day":1,"time":"12:00","types":["O","D"],"state":"AL","postal_code":"35758","city":"Madison","address":"190 Lime Quarry Rd","latitude":34.6756645,"longitude":-86.7498036,"location":"190 Lime Quarry Road Suite 109","region":"Madison","notes":"Non-Smoking, Wheelchair Access","url":"https://aahuntsvilleal.com/meetings/madison-hopeful-8/","group":"Madison Hopeful Group","timezone":"America/Chicago"},{"feed":"birminghamaa.org","slug":"serenity-at-hwy-11-17","name":"Serenity at Hwy 11","day":1,"time":"12:00","end_time":"13:00","types":["C","D"],"state":"AL","postal_code":"35124","city":"Pelham","address":"5000 Co Rd 11","latitude":33.2911554,"longitude":-86.7580673,"location":"Highway 11 Clubhouse","region":"Pelham","notes":"In Person","url":"https://birminghamaa.org/wp/meetings/serenity-at-hwy-11-17/","group":"Serenity at Hwy 11","timezone":"America/Chicago"},{"feed":"birminghamaa.org","slug":"serenity-now-2","name":"Serenity Now","day":1,"time":"12:00","types":["C","D"],"state":"AL","postal_code":"35209","city":"Homewood","address":"1728 Oxmoor Rd","latitude":33.4761069,"longitude":-86.7953075,"location":"Our Lady of Sorrows (Scout Room)","region":"Homewood","notes":"In Person\nPlease park on top of parking deck in back.","url":"https://birminghamaa.org/wp/meetings/serenity-now-2/","group":"Serenity Now","timezone":"America/Chicago"},{"feed":"birminghamaa.org","slug":"the-fourth-dimension-formerly-serenity-now-zoom","name":"The Fourth Dimension","day":1,"time":"12:00","types":["C","D","ONL"],"state":"AL","city":"Birmingham","latitude":33.5185892,"longitude":-86.8103567,"location":"Zoom","region":"Zoom","notes":"Zoom ID: 259 404 1173","conference_url":"https://zoom.us/j/2594041173","url":"https://birminghamaa.org/wp/meetings/the-fourth-dimension-formerly-serenity-now-zoom/","group":"The Fourth Dimension","timezone":"America/Chicago"},{"feed":"easternshoreaa.org","slug":"there-is-hope-in-fairhope-14","name":"THERE IS HOPE IN FAIRHOPE","day":1,"time":"12:00","types":["C","D"],"state":"AL","postal_code":"36532","city":"Fairhope","address":"349 Fairwood Blvd","latitude":30.5298446,"longitude":-87.8982811,"location":"Fairhope Christian Church","url":"https://easternshoreaa.org/meetings/there-is-hope-in-fairhope-14/","timezone":"America/Chicago"},{"feed":"birminghamaa.org","slug":"south-suburban-7","name":"South Suburban","day":1,"time":"12:15","end_time":"13:15","types":["D","O"],"state":"AL","postal_code":"35226","city":"Hoover","address":"1815 Patton Chapel Rd","latitude":33.3887477,"longitude":-86.8165424,"location":"Green Valley Church","region":"Hoover","url":"https://birminghamaa.org/wp/meetings/south-suburban-7/","group":"South Suburban","timezone":"America/Chicago"},{"feed":"aahuntsvilleal.com","slug":"stairway-group-7","name":"Stairway Group","day":1,"time":"12:15","end_time":"13:15","types":["12x12","O"],"state":"AL","postal_code":"35601","city":"Decatur","address":"1820- 6th Ave SE","latitude":34.5761577,"longitude":-86.9739646,"location":"Gateway Shopping Center #G2","region":"Decatur","notes":"Non-Smoking, Non-Vaping, Wheelchair Access","url":"https://aahuntsvilleal.com/meetings/stairway-group-7/","group":"Stairway Group","timezone":"America/Chicago"},{"feed":"centralalaa.org","slug":"selma-group-o-d","name":"Selma Group [O : D]","day":1,"time":"12:30","end_time":"13:30","types":["D","O"],"state":"AL","postal_code":"36703","city":"Selma","address":"Alabama Ave & Lauderdale St","latitude":32.407365,"longitude":-87.0209249,"location":"Courthouse Basement","region":"Selma","url":"https://centralalaa.org/meetings/selma-group-o-d","group":"Selma Group","timezone":"America/Chicago"},{"feed":"shoalsaa.org","slug":"1600mondayflorence-open-door","name":"Florence Open Door","day":1,"time":"16:00","end_time":"17:00","types":["D","O"],"state":"AL","postal_code":"35630","city":"Florence","address":"526 W College St","latitude":34.796775,"longitude":-87.6815448,"location":"Open Door Mtg Hall","region":"Florence","url":"https://www.shoalsaa.org/meetings/1600mondayflorence-open-door/","group":"Florence Open Door Group","timezone":"America/Chicago"},{"feed":"birminghamaa.org","slug":"a-vision-for-you-6","name":"A Vision for You","day":1,"time":"16:30","end_time":"17:30","types":["D","O"],"state":"AL","postal_code":"35244","city":"Birmingham","address":"741 Volare Dr","latitude":33.3458587,"longitude":-86.7982758,"location":"Keystone Club","region":"Pelham","url":"https://birminghamaa.org/wp/meetings/a-vision-for-you-6/","group":"A Vision for You","timezone":"America/Chicago"},{"feed":"shoalsaa.org","slug":"monday-maintenance-meeting-2","name":"Maintenance Monday","day":1,"time":"17:00","end_time":"18:00","types":["C","D"],"state":"AL","postal_code":"35652","city":"Rogersville","address":"16751 US-72","latitude":34.8223673,"longitude":-87.2847961,"location":"First Cumberland Presbyterian","region":"Rogersville","notes":"Closed discussion. The meeting will be outside, weather permitting.","url":"https://www.shoalsaa.org/meetings/monday-maintenance-meeting-2/","group":"Maintenace Monday Group","timezone":"America/Chicago"},{"feed":"shoalsaa.org","slug":"1730mondayquad-cities","name":"Quad Cities","day":1,"time":"17:30","end_time":"19:30","types":["D","O"],"state":"AL","postal_code":"35661","city":"Muscle Shoals","address":"750 Michigan Ave","latitude":34.748638,"longitude":-87.6628322,"location":"Quad cities Mtg. House","region":"Muscle Shoals","url":"https://www.shoalsaa.org/meetings/1730mondayquad-cities/","group":"Quad Cities Group","timezone":"America/Chicago"},{"feed":"mobileaa.org","slug":"after-five-group","name":"AFTER FIVE GROUP","day":1,"time":"17:30","end_time":"18:30","types":["D","O"],"state":"AL","postal_code":"36604","city":"Mobile","address":"1500 Old Shell Rd","latitude":30.6901426,"longitude":-88.0721077,"location":"St. Mary\u2019s parish building in elementary school parking lot","url":"https://mobileaa.org/meetings/after-five-group/","timezone":"America/Chicago"},{"feed":"aahuntsvilleal.com","slug":"fellowship-8","name":"Fellowship","day":1,"time":"17:30","types":["12x12","C","D"],"state":"AL","postal_code":"35805","city":"Huntsville","address":"2905 Bob Wallace Ave SW c","latitude":34.7107459,"longitude":-86.60481,"location":"2905 Bob Wallace Avenue, Suite C, Huntsville, AL 35805","region":"Huntsville","notes":"Non-Smoking, Non-Vaping, Wheelchair Access","url":"https://aahuntsvilleal.com/meetings/fellowship-8/","group":"Fellowship Group","timezone":"America/Chicago"},{"feed":"easternshoreaa.org","slug":"fifth-tradition","name":"FIFTH TRADITION","day":1,"time":"17:30","types":["C","D"],"state":"AL","postal_code":"36527","city":"Spanish Fort","address":"6690 Spanish Fort Blvd","latitude":30.6690858,"longitude":-87.9071996,"location":"Spanish Fort United Methodist Church","url":"https://easternshoreaa.org/meetings/fifth-tradition/","timezone":"America/Chicago"},{"feed":"birminghamaa.org","slug":"five-points-7","name":"Five Points","day":1,"time":"17:30","types":["B","C"],"state":"AL","postal_code":"35222","city":"Birmingham","address":"3513 7th Ave S","latitude":33.5160603,"longitude":-86.7787415,"location":"JAFI Jefferson Alcoholic Foundation","region":"Birmingham","notes":"In Person","url":"https://birminghamaa.org/wp/meetings/five-points-7/","group":"Five Points","timezone":"America/Chicago"},{"feed":"mobileaa.org","slug":"happy-hour-group","name":"HAPPY HOUR GROUP","day":1,"time":"17:30","end_time":"18:30","types":["D","O","X"],"state":"AL","postal_code":"36606","city":"Mobile","address":"1900 Dauphin St","latitude":30.6867858,"longitude":-88.0861451,"location":"Trinity Episcopal Church","url":"https://mobileaa.org/meetings/happy-hour-group/","timezone":"America/Chicago"},{"feed":"shoalsaa.org","slug":"just-for-today","name":"Just For Today","day":1,"time":"17:30","end_time":"18:30","types":["D"],"state":"AL","postal_code":"35630","city":"Florence","address":"115 Fairground Rd","latitude":34.8375373,"longitude":-87.6862234,"location":"Health Connect","region":"Florence","url":"https://www.shoalsaa.org/meetings/just-for-today/","timezone":"America/Chicago"},{"feed":"birminghamaa.org","slug":"primary-purpose","name":"Primary Purpose","day":1,"time":"17:30","end_time":"18:30","types":["B","O","X","ONL"],"state":"AL","postal_code":"35209","city":"Homewood","address":"850 Oxmoor Rd","latitude":33.4730099,"longitude":-86.8110109,"location":"Edgewood Presbyterian Church","region":"Birmingham","notes":"In Person & Zoom (Hybrid)\n\nZoom ID: 216 614 1489\nPasscode: 737851\n\nHybrid","conference_url":"https://zoom.us/j/2166141489","url":"https://birminghamaa.org/wp/meetings/primary-purpose/","group":"Primary Purpose","timezone":"America/Chicago"},{"feed":"birminghamaa.org","slug":"serenity-now-10","name":"Serenity Now","day":1,"time":"17:30","end_time":"18:30","types":["C","D"],"state":"AL","postal_code":"35209","city":"Homewood","address":"1728 Oxmoor Rd","latitude":33.4761069,"longitude":-86.7953075,"location":"Our Lady of Sorrows (Scout Room)","region":"Homewood","notes":"In Person\nPlease park on top of parking deck in back.","url":"https://birminghamaa.org/wp/meetings/serenity-now-10/","group":"Serenity Now","timezone":"America/Chicago"},{"feed":"easternshoreaa.org","slug":"there-is-hope-in-fairhope-15","name":"There is Hope in Fairhope","day":1,"time":"17:30","types":["C","D","M","EN"],"state":"AL","postal_code":"36532","city":"Fairhope","address":"349 Fairwood Blvd","latitude":30.5298446,"longitude":-87.8982811,"location":"Fairhope Christian Church","url":"https://easternshoreaa.org/meetings/there-is-hope-in-fairhope-15/","timezone":"America/Chicago"},{"feed":"shoalsaa.org","slug":"1800mondayflorence-open-door","name":"Florence Open Door","day":1,"time":"18:00","end_time":"19:00","types":["D","O"],"state":"AL","postal_code":"35630","city":"Florence","address":"526 W College St","latitude":34.796775,"longitude":-87.6815448,"location":"Open Door Mtg Hall","region":"Florence","url":"https://www.shoalsaa.org/meetings/1800mondayflorence-open-door/","group":"Florence Open Door Group","timezone":"America/Chicago"},{"feed":"shoalsaa.org","slug":"1800mondayfourth-dimension","name":"Fourth Dimension","day":1,"time":"18:00","end_time":"19:00","types":["12x12","B","O"],"state":"AL","postal_code":"35630","city":"Florence","address":"121 S Royal Ave","latitude":34.8061301,"longitude":-87.6619699,"location":"4D Meeting Hall","region":"Florence","url":"https://www.shoalsaa.org/meetings/1800mondayfourth-dimension/","group":"Fourth Dimension Group","timezone":"America/Chicago"},{"feed":"shoalsaa.org","slug":"1800mondayhappy-hour-group","name":"Happy Hour Group","day":1,"time":"18:00","end_time":"19:00","types":["12x12","O"],"state":"AL","postal_code":"35645","city":"Killen","address":"201 J C Mauldin Hwy","latitude":34.858228,"longitude":-87.5457277,"location":"Killen United Methodist Church","region":"Killen","url":"https://www.shoalsaa.org/meetings/1800mondayhappy-hour-group/","group":"Happy Hour Group","timezone":"America/Chicago"},{"feed":"aahuntsvilleal.com","slug":"3098","name":"Athens Serenity","day":1,"time":"18:00","end_time":"19:00","types":["D","O"],"state":"AL","postal_code":"35611","city":"Athens","address":"518 S Clinton St","latitude":34.7977091,"longitude":-86.9695748,"location":"518 South Clinton","region":"Athens","notes":"Non-Smoking, Non-Vaping, Wheelchair Access","url":"https://aahuntsvilleal.com/meetings/3098/","group":"Athens Serenity","timezone":"America/Chicago"},{"feed":"centralalaa.org","slug":"braveheart-group-c-d","name":"Braveheart Group [C : D]","day":1,"time":"18:00","end_time":"19:00","types":["C","D"],"state":"AL","postal_code":"36701","city":"Selma","address":"210 Lauderdale St","latitude":32.4089011,"longitude":-87.021409,"location":"St. Paul's Episcopal Church","region":"Selma","url":"https://centralalaa.org/meetings/braveheart-group-c-d","group":"Braveheart Group","timezone":"America/Chicago"},{"feed":"birminghamaa.org","slug":"byob-bring-your-own-book","name":"BYOB (Bring Your Own Book)","day":1,"time":"18:00","end_time":"19:00","types":["12x12","C"],"state":"AL","postal_code":"35216","city":"Vestavia Hills","address":"1912 Canyon Rd","latitude":33.4454004,"longitude":-86.7951668,"location":"Episcopal Church of the Ascension","region":"Vestavia Hills","url":"https://birminghamaa.org/wp/meetings/byob-bring-your-own-book/","timezone":"America/Chicago"},{"feed":"centralalaa.org","slug":"fellowship-group-c-l-bg","name":"Fellowship Group [C : L / Bg]*","day":1,"time":"18:00","end_time":"19:00","types":["C","LIT","BE"],"state":"AL","postal_code":"36117","city":"Montgomery","address":"5 Bell Rd","latitude":32.381004,"longitude":-86.1908098,"location":"Fellowship Group","region":"Montgomery","url":"https://centralalaa.org/meetings/fellowship-group-c-l-bg","group":"Fellowship Group","timezone":"America/Chicago"},{"feed":"easternshoreaa.org","slug":"happy-hour-2","name":"HAPPY HOUR","day":1,"time":"18:00","types":["D","O"],"state":"AL","postal_code":"36526","city":"Daphne","address":"8162 Well Rd","latitude":30.6103804,"longitude":-87.8835682,"location":"Common Ground","url":"https://easternshoreaa.org/meetings/happy-hour-2/","timezone":"America/Chicago"},{"feed":"centralalaa.org","slug":"happy-hour-group-c-d-12","name":"Happy Hour Group [C : D]","day":1,"time":"18:00","end_time":"19:00","types":["C","D"],"state":"AL","postal_code":"36117","city":"Montgomery","address":"3466 Eastdale Cir","latitude":32.3853681,"longitude":-86.2014809,"location":"Happy Hour Group","region":"Montgomery","url":"https://centralalaa.org/meetings/happy-hour-group-c-d-12","group":"Happy Hour Group","timezone":"America/Chicago"},{"feed":"aahuntsvilleal.com","slug":"hillwood-baptist-church-monday-600-pm","name":"Spirit of Sobriety","day":1,"time":"18:00","end_time":"19:00","types":["O"],"state":"AL","postal_code":"35803","city":"Huntsville","address":"300 Kohler Rd SE","latitude":34.6290411,"longitude":-86.5628063,"location":"Hillwood Baptist Church","region":"Huntsville","notes":"NO SMOKING, VAPING, FIRE ARMS, OR CONTROLLED SUBSTANCES ARE ALLOWED ON THE CHURCH PROPERTY","url":"https://aahuntsvilleal.com/meetings/hillwood-baptist-church-monday-600-pm/","timezone":"America/Chicago"},{"feed":"aahuntsvilleal.com","slug":"huntsville-group-5","name":"Huntsville Group","day":1,"time":"18:00","types":["C","AL-AN","D","X"],"state":"AL","postal_code":"35801","city":"Huntsville","address":"1407 Memorial Pkwy NW #9","latitude":34.7489498,"longitude":-86.6000142,"location":"1407 Memorial Pkwy NW, Ste 9","region":"Huntsville","notes":"Non-Smoking, Non-Vaping, Wheelchair Access","url":"https://aahuntsvilleal.com/meetings/huntsville-group-5/","group":"Huntsville Group","timezone":"America/Chicago"},{"feed":"centralalaa.org","slug":"keystone-group","name":"Keystone Group [O : D]","day":1,"time":"18:00","end_time":"19:00","types":["D"],"state":"AL","postal_code":"36093","city":"Wetumpka","address":"3105 Rifle Range Rd","latitude":32.4393586,"longitude":-86.1240313,"location":"Redland Hills Church","region":"Wetumpka","notes":"Meeting Name: Keystone Group\n\nLocation: Redland Hills Church; 3105 Rifle Range Road Wetumpka, AL 36093\n\nMeeting Schedule: Monday evenings, 6pm\n\nType Meeting: Discussion / Open or Closed Meeting","url":"https://centralalaa.org/meetings/keystone-group","timezone":"America/Chicago"},{"feed":"centralalaa.org","slug":"living-sober-group-c-d","name":"Living Sober Group [C : D]","day":1,"time":"18:00","end_time":"19:00","types":["C","D"],"state":"AL","postal_code":"36104","city":"Montgomery","address":"315 Clanton Ave","latitude":32.3595425,"longitude":-86.3037226,"location":"Church of the Ascension","region":"Montgomery","url":"https://centralalaa.org/meetings/living-sober-group-c-d","group":"Living Sober Group","timezone":"America/Chicago"},{"feed":"aahuntsvilleal.com","slug":"madison-hopeful-9","name":"Madison Hopeful","day":1,"time":"18:00","types":["O","D","B"],"state":"AL","postal_code":"35758","city":"Madison","address":"190 Lime Quarry Rd","latitude":34.6756645,"longitude":-86.7498036,"location":"190 Lime Quarry Road Suite 109","region":"Madison","notes":"Non-Smoking, Wheelchair Access","url":"https://aahuntsvilleal.com/meetings/madison-hopeful-9/","group":"Madison Hopeful Group","timezone":"America/Chicago"},{"feed":"aahuntsvilleal.com","slug":"new-meeting-on-winchester","name":"Winchester Road Meeting","day":1,"time":"18:00","end_time":"19:00","types":["D","O"],"state":"AL","postal_code":"35811","city":"Huntsville","address":"1635 Winchester Rd NE","latitude":34.8101539,"longitude":-86.5136292,"location":"River Hills Church","region":"Huntsville","url":"https://aahuntsvilleal.com/meetings/new-meeting-on-winchester/","timezone":"America/Chicago"},{"feed":"centralalaa.org","slug":"primary-purpose-group-o-d-3","name":"Primary Purpose Group [ O : D ]","day":1,"time":"18:00","end_time":"19:00","types":["D","O"],"state":"AL","postal_code":"36054","city":"Millbrook","address":"3170 Park Cir","latitude":32.4767713,"longitude":-86.3631725,"location":"Memorial Center Building","region":"Millbrook","url":"https://centralalaa.org/meetings/primary-purpose-group-o-d-3","group":"Primary Purpose Group","timezone":"America/Chicago"},{"feed":"shoalsaa.org","slug":"sheffield-3","name":"Sheffield","day":1,"time":"18:00","end_time":"19:00","types":["D","O"],"state":"AL","postal_code":"35660","city":"Sheffield","address":"210 E 2nd St","latitude":34.7595958,"longitude":-87.6968995,"location":"Sheffield Mtg House","region":"Sheffield","url":"https://www.shoalsaa.org/meetings/sheffield-3/","group":"Sheffield Group","timezone":"America/Chicago"},{"feed":"birminghamaa.org","slug":"suggestive-only","name":"Dunnavant Valley AA","day":1,"time":"18:00","end_time":"19:00","types":["C","D"],"state":"AL","postal_code":"35094","city":"Leeds","address":"11690 N County Rd 41","latitude":33.4961694,"longitude":-86.5439696,"location":"Dunnavant Community Center","region":"Leeds","notes":"\u201cOur book is meant to be suggestive only. We realize we know only a little.\u201d\n\nA meeting focused on open-mindedness, humility, and shared experience. We gather to support one another on the journey of recovery, remembering that none of us have all the answers. All are welcome.","url":"https://birminghamaa.org/wp/meetings/suggestive-only/","timezone":"America/Chicago"},{"feed":"aahuntsvilleal.com","slug":"431-group-4","name":"431 Group","day":1,"time":"18:30","end_time":"19:30","types":["B","C","D"],"state":"AL","postal_code":"35763","city":"Owens Cross Roads","address":"366 Old Hwy 431","latitude":34.6585941,"longitude":-86.4720493,"location":"Cove Methodist Church","region":"Huntsville","notes":"Non-Smoking","url":"https://aahuntsvilleal.com/meetings/431-group-4/","group":"431 Group","timezone":"America/Chicago"},{"feed":"birminghamaa.org","slug":"crosshaven","name":"Crosshaven","day":1,"time":"18:30","types":["C","D"],"state":"AL","postal_code":"35223","city":"Vestavia Hills","address":"3775 Crosshaven Dr","latitude":33.4685307,"longitude":-86.7307168,"location":"St. Stephens Episcopal Church","region":"Birmingham","notes":"In Person starting 5/31\n\nThis meeting is on the second floor to the right of the stairs at the end of the hall","url":"https://birminghamaa.org/wp/meetings/crosshaven/","group":"Crosshaven","timezone":"America/Chicago"},{"feed":"centralalaa.org","slug":"prattville-downtown-group-o-s","name":"Prattville Downtown Group [O : S]","day":1,"time":"18:30","end_time":"19:30","types":["O","SP"],"state":"AL","postal_code":"36067","city":"Prattville","address":"326 W 5th St","latitude":32.4650183,"longitude":-86.4799495,"location":"Prattville Downtown Group","region":"Prattville","url":"https://centralalaa.org/meetings/prattville-downtown-group-o-s","group":"Prattville Downtown Group","timezone":"America/Chicago"},{"feed":"birminghamaa.org","slug":"riverchase","name":"Riverchase","day":1,"time":"18:30","types":["C","ST"],"state":"AL","postal_code":"35244","city":"Birmingham","address":"1953 Old Montgomery Hwy","latitude":33.3579654,"longitude":-86.807833,"location":"Riverchase United Methodist Church","region":"Birmingham","notes":"In Person","url":"https://birminghamaa.org/wp/meetings/riverchase/","group":"Riverchase","timezone":"America/Chicago"},{"feed":"mobileaa.org","slug":"thomasville-way-of-life-group","name":"Thomasville Way of Life Group","day":1,"time":"18:30","end_time":"19:30","types":["D","O","X"],"state":"AL","postal_code":"36784","city":"Thomasville","address":"137 Adams Ave","latitude":31.9189887,"longitude":-87.7359961,"location":"City Hall enter through police station Follow the signs","url":"https://mobileaa.org/meetings/thomasville-way-of-life-group/","timezone":"America/Chicago"},{"feed":"shoalsaa.org","slug":"1900mondayflorence-h-o-w","name":"Florence H.O.W","day":1,"time":"19:00","end_time":"20:00","types":["C","D"],"state":"AL","postal_code":"35630","city":"Florence","address":"1330 Eauclaire Ave","latitude":34.8241121,"longitude":-87.664097,"location":"Edgemont Methodist Church","region":"Florence","url":"https://www.shoalsaa.org/meetings/1900mondayflorence-h-o-w/","group":"Florence H.O.W. Group","timezone":"America/Chicago"},{"feed":"shoalsaa.org","slug":"1900mondaygrupo-nuevo-amanecer","name":"Grupo Nuevo Amanecer","day":1,"time":"19:00","end_time":"21:00","types":["D","O","S"],"state":"AL","postal_code":"35653","city":"Russellville","address":"110 Tuscaloosa St","latitude":34.5018898,"longitude":-87.7309403,"location":"GNA Meeting Hall","region":"Russellville","notes":"All Meetings are Spanish speaking - Hablamos Espanol Aqui\n\nSpanish Speaking","url":"https://www.shoalsaa.org/meetings/1900mondaygrupo-nuevo-amanecer/","group":"Grupo Nuevo Amanecer","timezone":"America/Chicago"},{"feed":"birminghamaa.org","slug":"adamsville","name":"Adamsville","day":1,"time":"19:00","end_time":"20:00","types":["B","O"],"state":"AL","postal_code":"35214","city":"Birmingham","address":"2349 Forestdale Blvd","latitude":33.580711,"longitude":-86.9153989,"location":"Love City Church","region":"Adamsville","notes":"In Person","url":"https://birminghamaa.org/wp/meetings/adamsville/","group":"Adamsville","timezone":"America/Chicago"},{"feed":"birminghamaa.org","slug":"argo","name":"Argo","day":1,"time":"19:00","types":["D","O","W","ONL"],"state":"AL","city":"Birmingham","latitude":33.5185892,"longitude":-86.8103567,"location":"Zoom","region":"Zoom","notes":"Women's Meeting\n\nZoom ID: 378 280 323\nPasscode: 017820","conference_url":"https://zoom.us/j/378280323","url":"https://birminghamaa.org/wp/meetings/argo/","group":"Argo","timezone":"America/Chicago"},{"feed":"birminghamaa.org","slug":"avondale-4","name":"Avondale","day":1,"time":"19:00","end_time":"20:00","types":["D","O"],"state":"AL","postal_code":"35222","city":"Birmingham","address":"500 40th St S","latitude":33.5205174,"longitude":-86.7745894,"location":"Avondale United Methodist Church","region":"Birmingham","notes":"In Person\n\nMasks required - social distancing will be practiced.","url":"https://birminghamaa.org/wp/meetings/avondale-4/","group":"Avondale","timezone":"America/Chicago"},{"feed":"mobileaa.org","slug":"azalea-city-young-people","name":"GRAVELY AFFECTED","day":1,"time":"19:00","end_time":"20:00","types":["D","O","Y"],"state":"AL","postal_code":"36606","city":"Mobile","address":"3103 Airport Blvd # 160","latitude":30.6753577,"longitude":-88.1161371,"location":"P.E.I.R Center","notes":"Fun meeting based on ALCYPAA format","url":"https://mobileaa.org/meetings/azalea-city-young-people/","timezone":"America/Chicago"},{"feed":"mobileaa.org","slug":"basement-group-8","name":"Basement Group","day":1,"time":"19:00","end_time":"20:00","state":"AL","postal_code":"36695","city":"Mobile","address":"7125 Hitt Rd","latitude":30.6674206,"longitude":-88.208051,"location":"Episcopal Church of The Redeemer","url":"https://mobileaa.org/meetings/basement-group-8/","timezone":"America/Chicago"},{"feed":"birminghamaa.org","slug":"bessemer-5","name":"Bessemer","day":1,"time":"19:00","types":["B","O"],"state":"AL","postal_code":"35020","city":"Bessemer","address":"824 9th St N","latitude":33.3944348,"longitude":-86.9699758,"location":"Bessemer Clubhouse","region":"Bessemer","notes":"In Person","url":"https://birminghamaa.org/wp/meetings/bessemer-5/","group":"Bessemer","timezone":"America/Chicago"},{"feed":"birminghamaa.org","slug":"blount-county-2","name":"Blount County","day":1,"time":"19:00","end_time":"20:00","types":["C","D"],"state":"AL","postal_code":"35121","city":"Oneonta","address":"400 6th St S","latitude":33.943058,"longitude":-86.4636937,"location":"Sanctuary Coffee Shop","region":"Oneonta","notes":"In Person\n\nMeeting at Sanctuary Coffee Shop","url":"https://birminghamaa.org/wp/meetings/blount-county-2/","group":"Blount County","timezone":"America/Chicago"},{"feed":"gulfcoastaa.org","slug":"blue-book","name":"Blue Book","day":1,"time":"19:00","end_time":"20:00","types":["B","C"],"state":"AL","postal_code":"36555","city":"Magnolia Springs","address":"14755 Oak St","latitude":30.4014901,"longitude":-87.7715289,"location":"St. Paul's Episcopal Church","region":"MAGNOLIA SPRINGS","url":"https://gulfcoastaa.org/meetings/blue-book","timezone":"America/Chicago"},{"feed":"birminghamaa.org","slug":"by-the-book","name":"By the Book","day":1,"time":"19:00","types":["D","O"],"state":"AL","postal_code":"35146","city":"Springville","address":"6471 US-11","latitude":33.7756185,"longitude":-86.4711611,"location":"Springville First United Methodist Church","region":"Springville","notes":"In Person","url":"https://birminghamaa.org/wp/meetings/by-the-book/","group":"By the Book","timezone":"America/Chicago"},{"feed":"centralalaa.org","slug":"camellia-city-group-c-d","name":"Camellia City Group [C : D]","day":1,"time":"19:00","end_time":"20:00","types":["C","D"],"state":"AL","postal_code":"36037","city":"Greenville","address":"601 Beeland St","latitude":31.8361329,"longitude":-86.6143977,"location":"Greenville Housing Authority","region":"Greenville","url":"https://centralalaa.org/meetings/camellia-city-group-c-d","group":"Camellia City Group","timezone":"America/Chicago"},{"feed":"centralalaa.org","slug":"camellia-city-group-of-aa","name":"Camellia City Group [C : D]","day":1,"time":"19:00","end_time":"20:00","types":["C","D"],"state":"AL","postal_code":"36037","city":"Greenville","address":"601 Beeland St","latitude":31.8361329,"longitude":-86.6143977,"location":"Greenville Housing Authority","region":"Greenville","url":"https://centralalaa.org/meetings/camellia-city-group-of-aa","timezone":"America/Chicago"},{"feed":"birminghamaa.org","slug":"center-point-group","name":"Center Point Group","day":1,"time":"19:00","end_time":"20:00","types":["C","D"],"state":"AL","postal_code":"35126","city":"Pinson","address":"4507 Bud Holmes Rd","latitude":33.6929025,"longitude":-86.6773454,"location":"Pinson Methodist Church","region":"Pinson","url":"https://birminghamaa.org/wp/meetings/center-point-group/","group":"Center Point","timezone":"America/Chicago"},{"feed":"mobileaa.org","slug":"chickasaw-5th-tradition-group","name":"CHICKASAW 5th TRADITION GROUP","day":1,"time":"19:00","end_time":"20:00","types":["B","O"],"state":"AL","postal_code":"36611","city":"Chickasaw","address":"300 Grant St","latitude":30.7656371,"longitude":-88.077194,"location":"St. Michaels Episcopal Church","url":"https://mobileaa.org/meetings/chickasaw-5th-tradition-group/","timezone":"America/Chicago"},{"feed":"centralalaa.org","slug":"clanton-group-o-d","name":"Clanton Group [O : D]","day":1,"time":"19:00","end_time":"20:00","types":["D","O"],"state":"AL","postal_code":"35045","city":"Clanton","address":"1111 Lay Dam Rd","latitude":32.8579841,"longitude":-86.6226454,"location":"Clanton Church of Christ","region":"Clanton","url":"https://centralalaa.org/meetings/clanton-group-o-d","group":"Clanton Group","timezone":"America/Chicago"},{"feed":"mobileaa.org","slug":"cottage-hill-womens-group","name":"COTTAGE HILL WOMENS GROUP","day":1,"time":"19:00","end_time":"20:00","types":["D","O","W"],"state":"AL","postal_code":"36609","city":"Mobile","address":"4202 Cottage Hill Rd","latitude":30.6512104,"longitude":-88.1521033,"location":"Cottage Hill Presbyterian Church","url":"https://mobileaa.org/meetings/cottage-hill-womens-group/","timezone":"America/Chicago"},{"feed":"shoalsaa.org","slug":"cross-brand-449","name":"Cross Brand 449","day":1,"time":"19:00","end_time":"20:00","types":["12x12","O"],"state":"AL","postal_code":"35645","city":"Killen","address":"5255 Co Rd 33","latitude":34.8573112,"longitude":-87.4354634,"location":"Cross Brand Cowboy Church","region":"Killen","url":"https://www.shoalsaa.org/meetings/cross-brand-449/","group":"Cross Brand 449 Group","timezone":"America/Chicago"},{"feed":"aahuntsvilleal.com","slug":"fellowship-9","name":"Fellowship","day":1,"time":"19:00","end_time":"20:00","types":["12x12","C","D"],"state":"AL","postal_code":"35805","city":"Huntsville","address":"2905 Bob Wallace Ave SW c","latitude":34.7107459,"longitude":-86.60481,"location":"2905 Bob Wallace Avenue, Suite C, Huntsville, AL 35805","region":"Huntsville","notes":"Non-Smoking, Wheelchair Access","url":"https://aahuntsvilleal.com/meetings/fellowship-9/","group":"Fellowship Group","timezone":"America/Chicago"},{"feed":"mobileaa.org","slug":"grand-bay-aa-group","name":"GRAND BAY AA GROUP","day":1,"time":"19:00","end_time":"20:00","types":["D","X"],"state":"AL","postal_code":"36541","city":"Grand Bay","address":"11610 US-90","latitude":30.4863773,"longitude":-88.317205,"location":"The Senior Center","url":"https://mobileaa.org/meetings/grand-bay-aa-group/","timezone":"America/Chicago"},{"feed":"birminghamaa.org","slug":"grupo-nuevo-amanecer","name":"Grupo Nuevo Amanecer","day":1,"time":"19:00","end_time":"21:00","types":["D","O","S"],"state":"AL","postal_code":"35653","city":"Russellville","address":"110 Tuscaloosa St","latitude":34.5018898,"longitude":-87.7309403,"location":"GNA Meeting Hall","region":"Out of Area","notes":"In Person","url":"https://birminghamaa.org/wp/meetings/grupo-nuevo-amanecer/","group":"Grupo Nuevo Amanecer","timezone":"America/Chicago"},{"feed":"gulfcoastaa.org","slug":"gulf-shores","name":"Gulf Shores","day":1,"time":"19:00","end_time":"20:00","types":["D","O"],"state":"AL","postal_code":"36542","city":"Gulf Shores","address":"2324 E 2nd St","latitude":30.2765767,"longitude":-87.6825943,"location":"Our Lady of the Gulf Catholic Church","region":"GULF SHORES","url":"https://gulfcoastaa.org/meetings/gulf-shores","timezone":"America/Chicago"},{"feed":"mobileaa.org","slug":"hillcrest-group","name":"HILLCREST GROUP (Candlelight Meeting)","day":1,"time":"19:00","end_time":"20:00","types":["D","O","X"],"state":"AL","postal_code":"36695","city":"Mobile","address":"2320 Schillinger Rd","latitude":30.6428936,"longitude":-88.225153,"location":"Providence Presbyterian","notes":"Candlelight Meeting","url":"https://mobileaa.org/meetings/hillcrest-group/","timezone":"America/Chicago"},{"feed":"birminghamaa.org","slug":"hueytown-9","name":"Hueytown","day":1,"time":"19:00","end_time":"20:00","types":["D","O"],"state":"AL","postal_code":"35023","city":"Hueytown","address":"110 Sunset Dr","latitude":33.4517756,"longitude":-86.9975756,"location":"Hueytown United Methodist Church","region":"Hueytown","notes":"In Person","url":"https://birminghamaa.org/wp/meetings/hueytown-9/","group":"Hueytown","timezone":"America/Chicago"},{"feed":"birminghamaa.org","slug":"lakeview","name":"Lakeview","day":1,"time":"19:00","types":["C","D","X"],"state":"AL","postal_code":"35205","city":"Birmingham","address":"3100 Highland Ave","latitude":33.5084481,"longitude":-86.7799017,"location":"Independent Presbyterian Church","region":"Birmingham","notes":"Parking on Highland & lot across the street.\nEnter from Highland Ave side.","url":"https://birminghamaa.org/wp/meetings/lakeview/","group":"Lakeview","timezone":"America/Chicago"},{"feed":"birminghamaa.org","slug":"leeds-2","name":"Leeds","day":1,"time":"19:00","types":["D","O"],"state":"AL","postal_code":"35094","city":"Leeds","address":"8220 Parkway Dr","latitude":33.5427613,"longitude":-86.539529,"location":"Leeds Group (Next to Ryan's Automotive - 1st & 3rd Monday - Traditions Study)","region":"Leeds","notes":"In Person","url":"https://birminghamaa.org/wp/meetings/leeds-2/","group":"Leeds","timezone":"America/Chicago"},{"feed":"gulfcoastaa.org","slug":"lillian-primary-purpose-group-2","name":"By The Book","day":1,"time":"19:00","end_time":"20:00","types":["LIT","O"],"state":"AL","postal_code":"36549","city":"Lillian","address":"34421 W Barclay Ave","latitude":30.4149631,"longitude":-87.4400999,"location":"First Baptist Church of Lillian","region":"LILLIAN","url":"https://gulfcoastaa.org/meetings/lillian-primary-purpose-group-2","timezone":"America/Chicago"},{"feed":"birminghamaa.org","slug":"logan-martin-pell-city","name":"Logan Martin/Pell City","day":1,"time":"19:00","end_time":"20:00","types":["D","O","X"],"state":"AL","postal_code":"35125","city":"Pell City","address":"2200 3rd Ave N","latitude":33.5897197,"longitude":-86.2835011,"location":"First United Methodist Church","region":"Pell City","notes":"In Person","url":"https://birminghamaa.org/wp/meetings/logan-martin-pell-city/","group":"Logan Martin/Pell City","timezone":"America/Chicago"},{"feed":"gulfcoastaa.org","slug":"mi-unica-solucion-4","name":"Mi Unica Solucion","day":1,"time":"19:00","end_time":"21:00","types":["S"],"state":"AL","postal_code":"36580","city":"Summerdale","address":"801 AL-59","latitude":30.4752498,"longitude":-87.704263,"location":"Sweet Magnolia Lot 6","region":"SUMMERDALE","url":"https://gulfcoastaa.org/meetings/mi-unica-solucion-4","timezone":"America/Chicago"},{"feed":"birminghamaa.org","slug":"monday-night-live","name":"Monday Night Live","day":1,"time":"19:00","types":["B","O","X","ONL"],"state":"AL","city":"Birmingham","latitude":33.5185892,"longitude":-86.8103567,"location":"Zoom","region":"Zoom","notes":"Zoom ID: 405 308 098","conference_url":"https://zoom.us/j/405308098","url":"https://birminghamaa.org/wp/meetings/monday-night-live/","group":"Monday Night Live","timezone":"America/Chicago"},{"feed":"birminghamaa.org","slug":"new-hope-2","name":"New Hope","day":1,"time":"19:00","end_time":"20:00","types":["C","D"],"state":"AL","postal_code":"35242","city":"Birmingham","address":"4887 Valleydale Rd","latitude":33.3960433,"longitude":-86.7181765,"location":"Shepherd of the Hills Lutheran Church","region":"Birmingham","notes":"In Person","url":"https://birminghamaa.org/wp/meetings/new-hope-2/","group":"New Hope","timezone":"America/Chicago"},