[{"feed":"coloradospringsaa.org","slug":"pre-dawn-meeting-7","name":"Pre-Dawn Group","day":0,"time":"06:00","end_time":"07:00","types":["D","O","X"],"state":"CO","postal_code":"80905","city":"Colorado Springs","address":"1769 S 8th St Building P","latitude":38.8062259,"longitude":-104.8397844,"location":"Clean Slate Meeting Place","region":"Colo Springs","url":"https://www.coloradospringsaa.org/meetings/pre-dawn-meeting-7/","group":"Pre-Dawn Group","timezone":"America/Denver"},{"feed":"daccaa.org","slug":"ru-nutz-2-0-online-3","name":"RU Nutz 2.0","day":0,"time":"06:00","end_time":"07:00","types":["O","SP","ONL"],"state":"CO","postal_code":"80210","city":"Denver","latitude":39.6751269,"longitude":-104.9680914,"location":"Denver, CO","region":"Denver","notes":"ID: 894 9087 3824\nPass: 529 636","conference_url":"https://us06web.zoom.us/j/89490873824?pwd=emlLSG5Sa3B0dXQ0RHlKRm43NDRzUT09","url":"https://daccaa.org/meetings/ru-nutz-2-0-online-3/","group":"RU Nutz 2.0","timezone":"America/Denver"},{"feed":"daccaa.org","slug":"397-915","name":"Sunrise Serenity","day":0,"time":"06:30","end_time":"07:30","types":["O","X","ONL"],"state":"CO","postal_code":"80227","city":"Lakewood","address":"3355 S Wadsworth Blvd H125","latitude":39.6543786,"longitude":-105.0823309,"location":"Club","region":"Lakewood","notes":"Join us on Zoom: ID#893 7268 4607\nPassword: 7Xj9RX","conference_url":"https://us02web.zoom.us/j/89372684607","url":"https://daccaa.org/meetings/397-915/","group":"Sunrise Serenity","timezone":"America/Denver"},{"feed":"daccaa.org","slug":"881-2324","name":"No Mental Defense","day":0,"time":"06:30","end_time":"07:30","types":["O","X"],"state":"CO","postal_code":"80215","city":"Lakewood","address":"10210 W 26th Ave","latitude":39.7542815,"longitude":-105.1127165,"location":"Building","region":"Lakewood","url":"https://daccaa.org/meetings/881-2324/","group":"No Mental Defense","timezone":"America/Denver"},{"feed":"daccaa.org","slug":"892-2345","name":"Keeping It Simple","day":0,"time":"06:30","end_time":"07:30","types":["O","X"],"state":"CO","postal_code":"80121","city":"Centennial","address":"90 E Orchard Rd","latitude":39.6092249,"longitude":-104.9868097,"location":"Club","region":"Centennial","url":"https://daccaa.org/meetings/892-2345/","group":"Keeping It Simple","timezone":"America/Denver"},{"feed":"daccaa.org","slug":"cr-early-risers","name":"CR Early Risers","day":0,"time":"06:30","end_time":"07:30","types":["O","EN"],"state":"CO","postal_code":"80104","city":"Castle Rock","address":"404 Jerry St","latitude":39.37361,"longitude":-104.8611199,"location":"Club","region":"Castle Rock","url":"https://daccaa.org/meetings/cr-early-risers/","group":"CR Early Risers","timezone":"America/Denver"},{"feed":"nocoaa.org","slug":"early-birds-0-0630","name":"Early Birds","day":0,"time":"06:30","types":["O"],"state":"CO","postal_code":"80631","city":"Garden City","address":"2608 7th Ave","latitude":40.3953243,"longitude":-104.6895936,"location":"South Club","timezone":"America/Denver"},{"feed":"daccaa.org","slug":"592-1527","name":"Upon Awakening","day":0,"time":"06:45","end_time":"07:45","types":["B","D","O","ST"],"state":"CO","postal_code":"80126","city":"Highlands Ranch","address":"8391 Burnley Ct","latitude":39.5609787,"longitude":-104.9627746,"location":"Church","region":"Highlands Ranch","url":"https://daccaa.org/meetings/592-1527/","group":"Upon Awakening","timezone":"America/Denver"},{"feed":"daccaa.org","slug":"crack-of-dawn-in-person-online-phone","name":"Crack of Dawn","day":0,"time":"06:45","end_time":"07:45","types":["ONL"],"state":"CO","postal_code":"80121","city":"Centennial","address":"90 E Orchard Rd","latitude":39.6092249,"longitude":-104.9868097,"location":"Club","region":"Centennial","notes":"Join on Zoom\nID: 503970381\nPassword: dragon","conference_url":"https://zoom.us/j/503970381","url":"https://daccaa.org/meetings/crack-of-dawn-in-person-online-phone/","group":"Crack of Dawn","timezone":"America/Denver"},{"feed":"daccaa.org","slug":"cup-of-gratitude-8","name":"Cup of Gratitude","day":0,"time":"06:45","end_time":"07:45","types":["O","ONL"],"state":"CO","postal_code":"80126","city":"Highlands Ranch","latitude":39.5511448,"longitude":-104.9505671,"region":"Highlands Ranch","conference_url":"https://zoom.us/j/125969625","url":"https://daccaa.org/meetings/cup-of-gratitude-8/","group":"Cup of Gratitude","timezone":"America/Denver"},{"feed":"daccaa.org","slug":"p-p-workshop-online","name":"P.P. Workshop","day":0,"time":"06:45","end_time":"07:45","types":["O","ONL","TC"],"state":"CO","postal_code":"80112","city":"Centennial","address":"8545 E Dry Creek Rd","latitude":39.5808168,"longitude":-104.8899198,"location":"Church (Bsmnt)","region":"Centennial","notes":"Sunday morning Online only\n\nID: 482 000 897","conference_url":"https://zoom.us/j/482000897","url":"https://daccaa.org/meetings/p-p-workshop-online/","group":"P.P. Workshop","timezone":"America/Denver"},{"feed":"daccaa.org","slug":"plan-b-2","name":"Platte Canyon Sunrise","day":0,"time":"06:45","end_time":"07:45","types":["D","M","O","X"],"state":"CO","postal_code":"80128","city":"Littleton","address":"7964 S Depew St","latitude":39.572816,"longitude":-105.056501,"location":"Club","region":"Littleton","url":"https://daccaa.org/meetings/plan-b-2/","group":"Platte Canyon Sunrise","timezone":"America/Denver"},{"feed":"daccaa.org","slug":"30-104","name":"Attitude Adjustment","day":0,"time":"07:00","end_time":"08:00","types":["O","EN"],"state":"CO","postal_code":"80206","city":"Denver","address":"1311 York St","latitude":39.7369585,"longitude":-104.9599915,"location":"Club","region":"Denver","url":"https://daccaa.org/meetings/30-104/","group":"Attitude Adjustment","timezone":"America/Denver"},{"feed":"daccaa.org","slug":"613-2298","name":"Morning Reflection","day":0,"time":"07:00","end_time":"08:00","types":["O","X","ONL"],"state":"CO","postal_code":"80212","city":"Wheat Ridge","address":"5455 W 38th Ave Unit M","latitude":39.7698371,"longitude":-105.0560611,"location":"Club","region":"Wheat Ridge","notes":"Join online at Zoom:\nZoom ID: 987037845\n\nPassword: 858098","conference_url":"https://zoom.us/j/987037845","url":"https://daccaa.org/meetings/613-2298/","group":"Morning Reflection","timezone":"America/Denver"},{"feed":"nocoaa.org","slug":"7-am-freedom-0-0700","name":"7 AM Freedom","day":0,"time":"07:00","types":["C","D","X"],"state":"CO","postal_code":"80525","city":"Fort Collins","address":"301 E Drake Rd","latitude":40.5519897,"longitude":-105.0734885,"location":"United Methodist Church","timezone":"America/Denver"},{"feed":"daccaa.org","slug":"degenerates-online-2","name":"Degenerates","day":0,"time":"07:00","end_time":"08:00","types":["O","ONL"],"state":"CO","postal_code":"80004","city":"Arvada","latitude":39.8163023,"longitude":-105.1200482,"location":"Arvada, CO","region":"Arvada","notes":"Zoom Meeting ID: 85147019078\nPass: 527251","conference_url":"https://zoom.us/j/85147019078?pwd=YyWT0wYtnUft7ssrlV2fhp56zHYiRK","url":"https://daccaa.org/meetings/degenerates-online-2/","group":"Degenerates","timezone":"America/Denver"},{"feed":"puebloaa.org","slug":"early-birds-2","name":"Joyful Journey","day":0,"time":"07:00","types":["O","D"],"state":"CO","postal_code":"81005","city":"Pueblo","address":"23 Starling Dr","latitude":38.2465023,"longitude":-104.6710352,"location":"Our Lady of the Meadows Church","url":"https://www.puebloaa.org/meetings/early-birds-2/","timezone":"America/Denver"},{"feed":"nocoaa.org","slug":"friends-of-bill-w-0-0700","name":"Friends of Bill W","day":0,"time":"07:00","types":["D","O","ONL"],"state":"CO","city":"Fort Collins","latitude":40.5852602,"longitude":-105.084423,"location":"Fort Collins","timezone":"America/Denver"},{"feed":"daccaa.org","slug":"online-attitude-adjustment-7","name":"Online Attitude Adjustment","day":0,"time":"07:00","end_time":"08:00","types":["O","EN","ONL"],"state":"CO","city":"Denver","latitude":39.7392358,"longitude":-104.990251,"region":"Denver","notes":"ONLINE\nJoin Us On ZOOM: ID# 770 690 9417\nPassword: 1311","conference_url":"https://zoom.us/j/7706909417","url":"https://daccaa.org/meetings/online-attitude-adjustment-7/","group":"Online Attitude Adjustment","timezone":"America/Denver"},{"feed":"puebloaa.org","slug":"sunlight-of-the-spirit-2","name":"Sunlight of the Spirit","day":0,"time":"07:00","types":["O","D"],"state":"CO","postal_code":"81001","city":"Pueblo","address":"1332 E 20th St","latitude":38.2858339,"longitude":-104.588879,"location":"Great Escape","url":"https://www.puebloaa.org/meetings/sunlight-of-the-spirit-2/","timezone":"America/Denver"},{"feed":"coloradospringsaa.org","slug":"walk-the-talk-8","name":"Walk the Talk Discussion in Person and online","day":0,"time":"07:00","end_time":"08:00","types":["D","O","X","ONL"],"state":"CO","postal_code":"80918","city":"Colorado Springs","address":"2334 Vickers Dr","latitude":38.9160564,"longitude":-104.7839606,"location":"Walk the Talk","region":"Colo Springs","notes":"Meeting ID: 754 495 153\nPasscode: 03537299\nPark on Tuckerman Street","conference_url":"https://zoom.us/j/754495153#success","url":"https://www.coloradospringsaa.org/meetings/walk-the-talk-8/","group":"Walk the Talk Group","timezone":"America/Denver"},{"feed":"daccaa.org","slug":"133-347","name":"Into Action","day":0,"time":"07:30","end_time":"08:30","types":["O","X","ONL"],"state":"CO","postal_code":"80013","city":"Aurora","latitude":39.6563415,"longitude":-104.7637619,"region":"Aurora","notes":"Join on Zoom:\n\nID: 814 0428 6604\n\nPassword: 686901","conference_url":"https://us06web.zoom.us/j/81404286604?pwd=7ENbpeppgwld9e8TLXEiwAgZkOq4Gt.1","url":"https://daccaa.org/meetings/133-347/","group":"Into Action","timezone":"America/Denver"},{"feed":"daccaa.org","slug":"161-1378","name":"Fourth Dimension","day":0,"time":"07:30","end_time":"08:30","types":["C","X"],"state":"CO","postal_code":"80234","city":"Northglenn","address":"11674 Huron St Suite 400","latitude":39.9085309,"longitude":-104.9958878,"region":"Northglenn","url":"https://daccaa.org/meetings/161-1378/","group":"Fourth Dimension","timezone":"America/Denver"},{"feed":"daccaa.org","slug":"259-582","name":"Morning After","day":0,"time":"07:30","end_time":"08:30","types":["O","ONL"],"state":"CO","postal_code":"80030","city":"Westminster","address":"3489 W 72nd Ave","latitude":39.8277685,"longitude":-105.0317243,"location":"Park Center Bldg, (Rm 204)","region":"Westminster","notes":"JOIN ZOOM ONLINE:\nMeeting ID# 916338735\n\nMeeting online and in-person","conference_url":"https://zoom.us/j/916338735","url":"https://daccaa.org/meetings/259-582/","group":"Morning After","timezone":"America/Denver"},{"feed":"daccaa.org","slug":"563-1374","name":"Spiritual Awakening","day":0,"time":"07:30","end_time":"08:30","types":["O","X","ONL"],"state":"CO","postal_code":"80227","city":"Lakewood","address":"3355 S Wadsworth Blvd H125","latitude":39.6543786,"longitude":-105.0823309,"location":"Club","region":"Lakewood","notes":"Join Via Zoom:\n\nMeeting ID: 243 103 605\n\nPassword: 222065","conference_url":"https://zoom.us/j/243103605","url":"https://daccaa.org/meetings/563-1374/","group":"Spiritual Awakening","timezone":"America/Denver"},{"feed":"daccaa.org","slug":"834-2162","name":"Grupo El Alba","day":0,"time":"07:30","end_time":"10:00","types":["O","S"],"state":"CO","postal_code":"80011","city":"Aurora","address":"776 Peoria St","latitude":39.7286337,"longitude":-104.8466616,"location":"776 Peoria St.","region":"Aurora","notes":"Junta de Estudio - Study","url":"https://daccaa.org/meetings/834-2162/","group":"Grupo El Alba","timezone":"America/Denver"},{"feed":"daccaa.org","slug":"early-bird-7","name":"Early Bird","day":0,"time":"07:30","end_time":"08:30","types":["O","X"],"state":"CO","postal_code":"80013","city":"Aurora","address":"16732 E Iliff Ave","latitude":39.6725148,"longitude":-104.7941925,"location":"Club (Shop Ctr)","region":"Aurora","url":"https://daccaa.org/meetings/early-bird-7/","group":"Early Bird","timezone":"America/Denver"},{"feed":"nocoaa.org","slug":"greeley-group-2-0-0730","name":"Greeley Group 2","day":0,"time":"07:30","types":["O","MED"],"state":"CO","postal_code":"80631","city":"Greeley","address":"801 20th Ave","latitude":40.4248107,"longitude":-104.7106351,"location":"801 20th Ave","timezone":"America/Denver"},{"feed":"daccaa.org","slug":"keep-coming-back-online-online-13","name":"Keep Coming Back Online","day":0,"time":"07:30","end_time":"08:30","types":["D","O","ONL"],"state":"CO","postal_code":"80226","city":"Denver","latitude":39.7101457,"longitude":-105.0849687,"location":"Denver, CO 80226, USA","region":"Denver","notes":"Join via Zoom\n\nID: 266 641 7631\n\nPassword: Q4QsUi","conference_url":"https://us02web.zoom.us/j/2666417631?pwd=OTAvaUh0OVQ4OG42SCtTMWwr","url":"https://daccaa.org/meetings/keep-coming-back-online-online-13/","group":"Keep Coming Back Online","timezone":"America/Denver"},{"feed":"daccaa.org","slug":"1023-2640","name":"The Basics","day":0,"time":"08:00","end_time":"09:00","types":["D","O","X"],"state":"CO","postal_code":"80206","city":"Denver","address":"620 Elizabeth St","latitude":39.7260899,"longitude":-104.9563171,"location":"Church","region":"Denver","url":"https://daccaa.org/meetings/1023-2640/","group":"The Basics","timezone":"America/Denver"},{"feed":"daccaa.org","slug":"128-336","name":"Drunks 'R Us","day":0,"time":"08:00","end_time":"09:00","types":["BE","O","X"],"state":"CO","postal_code":"80121","city":"Centennial","address":"90 E Orchard Rd","latitude":39.6092249,"longitude":-104.9868097,"location":"Club","region":"Centennial","url":"https://daccaa.org/meetings/128-336/","group":"Drunks 'R Us","timezone":"America/Denver"},{"feed":"daccaa.org","slug":"290-700","name":"Olde Town Group","day":0,"time":"08:00","end_time":"09:00","types":["O","X"],"state":"CO","postal_code":"80004","city":"Arvada","address":"5927 Miller St","latitude":39.8039755,"longitude":-105.1148906,"location":"Church","region":"Arvada","url":"https://daccaa.org/meetings/290-700/","group":"Old Town Group","timezone":"America/Denver"},{"feed":"daccaa.org","slug":"483-1112","name":"Broomfield Sun. Morning","day":0,"time":"08:00","end_time":"09:00","types":["O","X","ONL"],"state":"CO","postal_code":"80020","city":"Broomfield","address":"640 Main St","latitude":39.9256825,"longitude":-105.0703316,"location":"Brunner House (Yellow Hs)","region":"Broomfield","notes":"Join us online via Zoom: 734 119 044","conference_url":"https://zoom.us/j/734119044","url":"https://daccaa.org/meetings/483-1112/","group":"Broomfield Sun. Morning","timezone":"America/Denver"},{"feed":"daccaa.org","slug":"491-1137","name":"Dawn Patrol","day":0,"time":"08:00","end_time":"09:00","types":["O","X","ONL"],"state":"CO","postal_code":"80210","city":"Denver","address":"1865 S Pearl St","latitude":39.6827576,"longitude":-104.9806654,"location":"All Walks of Life Hall","region":"Denver","notes":"Join online via Zoom:\nMeeting ID: 825 4476 8271\n\nPasscode: Acti0n","conference_url":"https://us02web.zoom.us/j/82544768271?pwd=YXhITERaMkZ5ZkQvQmFTNklVU25pUT09","url":"https://daccaa.org/meetings/491-1137/","group":"Dawn Patrol","timezone":"America/Denver"},{"feed":"nocoaa.org","slug":"539-group-3-0-0800","name":"539 Group","day":0,"time":"08:00","types":["C","D"],"state":"CO","postal_code":"80537","city":"Loveland","address":"102 E 3rd St","latitude":40.3943412,"longitude":-105.0758327,"location":"Unity Club","timezone":"America/Denver"},{"feed":"daccaa.org","slug":"649-1610","name":"Babble On","day":0,"time":"08:00","end_time":"09:00","types":["O","X","ONL"],"state":"CO","postal_code":"80128","city":"Littleton","address":"7964 S Depew St","latitude":39.572816,"longitude":-105.056501,"location":"Club","region":"Littleton","notes":"Join Via Zoom:\nMeeting ID: 430 325 8539\nPassword: 3030","conference_url":"https://zoom.us/j/4303258539","url":"https://daccaa.org/meetings/649-1610/","group":"Babble On","timezone":"America/Denver"},{"feed":"daccaa.org","slug":"885-2771","name":"Daily Reflections","day":0,"time":"08:00","end_time":"09:00","types":["O"],"state":"CO","postal_code":"80112","city":"Englewood","address":"8484 S Valley Hwy","latitude":39.56071,"longitude":-104.8681551,"location":"Club","region":"Englewood","url":"https://daccaa.org/meetings/885-2771/","group":"Daily Reflections","timezone":"America/Denver"},{"feed":"daccaa.org","slug":"early-risers","name":"Early Risers","day":0,"time":"08:00","end_time":"09:00","types":["O"],"state":"CO","postal_code":"80215","city":"Lakewood","address":"Parking lot, 608 Garrison St a","latitude":39.7262325,"longitude":-105.0996756,"location":"Restaurant","region":"Lakewood","url":"https://daccaa.org/meetings/early-risers/","group":"Early Risers","timezone":"America/Denver"},{"feed":"daccaa.org","slug":"ordinize","name":"Ordinize","day":0,"time":"08:00","end_time":"09:00","types":["POL"],"state":"CO","postal_code":"80219","city":"Denver","address":"2525 W Evans Ave","latitude":39.6792744,"longitude":-105.0170958,"region":"Denver","url":"https://daccaa.org/meetings/ordinize/","group":"Ordinize","timezone":"America/Denver"},{"feed":"daccaa.org","slug":"rule-62-6","name":"Rule 62","day":0,"time":"08:00","end_time":"09:00","types":["O"],"state":"CO","postal_code":"80104","city":"Castle Rock","address":"404 Jerry St","latitude":39.37361,"longitude":-104.8611199,"location":"Club","region":"Castle Rock","url":"https://daccaa.org/meetings/rule-62-6/","group":"Rule 62","timezone":"America/Denver"},{"feed":"coaadistrict14.org","slug":"sometimes-slowly","name":"Sometimes Slowly","day":0,"time":"08:00","types":["D","O","ONL"],"state":"CO","postal_code":"81623","city":"Carbondale","address":"981 Cowen Dr","latitude":39.4124967,"longitude":-107.2210661,"location":"The Meeting Place","url":"https://coaadistrict14.org/meetings/sometimes-slowly/","timezone":"America/Denver"},{"feed":"coloradospringsaa.org","slug":"the-way-christ-centered","name":"THE WAY","day":0,"time":"08:00","end_time":"09:00","types":["O"],"state":"CO","postal_code":"80907","city":"Colorado Springs","address":"3024 N El Paso St","latitude":38.8757834,"longitude":-104.8131109,"location":"Freedom Hall","region":"Colo Springs","url":"https://www.coloradospringsaa.org/meetings/the-way-christ-centered/","timezone":"America/Denver"},{"feed":"coloradospringsaa.org","slug":"turning-point-11th-step-in-person-meeting","name":"Turning Point 11th Step in-person Meeting","day":0,"time":"08:00","end_time":"09:15","types":["O","X"],"state":"CO","postal_code":"80819","city":"Green Mountain Falls","address":"10585 Ute Pass Ave","latitude":38.9347049,"longitude":-105.0163387,"location":"Church in the Wildwood","region":"Teller County","notes":"Enter through front door and proceed left and go downstairs.","url":"https://www.coloradospringsaa.org/meetings/turning-point-11th-step-in-person-meeting/","group":"Turning Point","timezone":"America/Denver"},{"feed":"nocoaa.org","slug":"back-porch-friends-of-bill-8-0-0830","name":"Back Porch Friends of Bill","day":0,"time":"08:30","types":["D","O","ONL"],"state":"CO","city":"Loveland","latitude":40.395451,"longitude":-105.0745837,"location":"Online","timezone":"America/Denver"},{"feed":"coaadistrict14.org","slug":"eagle-fairgrounds","name":"Eagle Fairgrounds","day":0,"time":"08:30","types":["B","O","ONL"],"state":"CO","postal_code":"81631","city":"Eagle","address":"426 Fairgrounds Rd","latitude":39.6547605,"longitude":-106.834394,"location":"Eagle County Fair &amp; Rodeo","url":"https://coaadistrict14.org/meetings/eagle-fairgrounds/","timezone":"America/Denver"},{"feed":"nocoaa.org","slug":"loveland-group-0-0830","name":"Loveland AA Group","day":0,"time":"08:30","types":["D","O","X"],"state":"CO","postal_code":"80538","city":"Loveland","address":"1 Aspen Dr","latitude":40.4241359,"longitude":-105.0954641,"location":"Park View Gardens Club House","timezone":"America/Denver"},{"feed":"nocoaa.org","slug":"loveland-group-2-0-0830","name":"Loveland AA Group","day":0,"time":"08:30","types":["D","O","ONL"],"state":"CO","city":"Loveland","latitude":40.395451,"longitude":-105.0745837,"location":"Online","timezone":"America/Denver"},{"feed":"daccaa.org","slug":"nov-50","name":"A New Day","day":0,"time":"08:30","end_time":"09:30","types":["C","D","BE"],"state":"CO","postal_code":"80005","city":"Arvada","address":"8250 W 80th Ave #12","latitude":39.8407048,"longitude":-105.0891033,"location":"Club","region":"Arvada","url":"https://daccaa.org/meetings/nov-50/","group":"A New Day","timezone":"America/Denver"},{"feed":"coaadistrict14.org","slug":"primary-purpose-group","name":"Primary Purpose Group","day":0,"time":"08:30","types":["C","D","X"],"state":"CO","postal_code":"81632","city":"Edwards","address":"25 Mill Loft St","latitude":39.6432678,"longitude":-106.5796308,"location":"Eagle Valley Child Care Association- Miller Ranch","url":"https://coaadistrict14.org/meetings/primary-purpose-group/","timezone":"America/Denver"},{"feed":"coloradospringsaa.org","slug":"turning-point-zoom-newcomer-meeting","name":"Turning Point online 11th Step in-person and Zoom Meeting","day":0,"time":"08:30","end_time":"09:45","types":["BE","O","ONL"],"state":"CO","postal_code":"80819","city":"Green Mountain Falls","address":"10585 Ute Pass Ave","latitude":38.9347049,"longitude":-105.0163387,"location":"Church in the Wildwood","region":"Teller County","notes":"Meeting ID: 790 110 7372\nPasscode: 941 657","conference_url":"https://zoom.us/j/7901107372","url":"https://www.coloradospringsaa.org/meetings/turning-point-zoom-newcomer-meeting/","group":"Turning Point","timezone":"America/Denver"},{"feed":"daccaa.org","slug":"590-1477","name":"Power Hour","day":0,"time":"09:00","end_time":"10:00","types":["O","X"],"state":"CO","postal_code":"80103","city":"Byers","address":"194 S Mc Donnell St","latitude":39.7086263,"longitude":-104.2255047,"location":"Church","region":"Byers","url":"https://daccaa.org/meetings/590-1477/","group":"Power Hour","timezone":"America/Denver"},{"feed":"nocoaa.org","slug":"big-book-group-0-0900","name":"Big Book Group","day":0,"time":"09:00","types":["BE","O"],"state":"CO","postal_code":"80538","city":"Loveland","address":"2028 Blue Mesa Ct","latitude":40.4137983,"longitude":-105.0544536,"location":"2028 Blue Mesa Ct.","timezone":"America/Denver"},{"feed":"daccaa.org","slug":"come-as-you-are-7","name":"Come As You Are","day":0,"time":"09:00","end_time":"10:00","types":["O","ONL"],"state":"CO","postal_code":"80011","city":"Aurora","latitude":39.7542465,"longitude":-104.7871004,"region":"Aurora","notes":"Meeting ID: 883 5807 5769\nPass: CAYA-AA","conference_url":"https://zoom.us/j/88358075769","url":"https://daccaa.org/meetings/come-as-you-are-7/","group":"Come As You Are","timezone":"America/Denver"},{"feed":"coloradospringsaa.org","slug":"easy-does-it-30","name":"Easy Does It Open Discussion","day":0,"time":"09:00","types":["D","O","X"],"state":"CO","postal_code":"80910","city":"Colorado Springs","address":"3760 Astrozon Blvd","latitude":38.7962551,"longitude":-104.7600493,"location":"Easy Does It Group","region":"Colo Springs","url":"https://www.coloradospringsaa.org/meetings/easy-does-it-30/","group":"Easy Does It Group","timezone":"America/Denver"},{"feed":"daccaa.org","slug":"grupo-primera-tradicion","name":"Grupo Primera Tradicion","day":0,"time":"09:00","end_time":"10:30","types":["O","S"],"state":"CO","postal_code":"80022","city":"Commerce City","address":"6150 E 72nd Ave","latitude":39.827026,"longitude":-104.9171901,"location":"Commerce City, CO 80022","region":"Commerce City","url":"https://daccaa.org/meetings/grupo-primera-tradicion/","group":"Grupo Primera Tradicion","timezone":"America/Denver"},{"feed":"daccaa.org","slug":"jun-54","name":"231 Buckley","day":0,"time":"09:00","end_time":"10:00","types":["O","X"],"state":"CO","postal_code":"80011","city":"Aurora","address":"15210 E 6th Ave","latitude":39.7246914,"longitude":-104.8123117,"location":"Club , Unit 1","region":"Aurora","url":"https://daccaa.org/meetings/jun-54/","group":"231 Buckley","timezone":"America/Denver"},{"feed":"nocoaa.org","slug":"last-house-on-the-block-0-0900","name":"Last House on the Block","day":0,"time":"09:00","types":["D","O"],"state":"CO","postal_code":"80524","city":"Fort Collins","address":"143 W Mountain Ave","latitude":40.5868358,"longitude":-105.0782333,"location":"Rio Grande","timezone":"America/Denver"},{"feed":"coaadistrict14.org","slug":"living-sober","name":"Living Sober","day":0,"time":"09:00","types":["O","ST","X"],"state":"CO","postal_code":"81611","city":"Aspen","address":"232 W Main St","latitude":39.192114,"longitude":-106.8248241,"location":"Annabelle Inn","url":"https://coaadistrict14.org/meetings/living-sober/","timezone":"America/Denver"},{"feed":"daccaa.org","slug":"primera-tradicion-7","name":"Primera Tradici\u00f3n","day":0,"time":"09:00","end_time":"10:30","types":["O","S","SP","ST"],"state":"CO","postal_code":"80022","city":"Commerce City","address":"6105 E 72nd Ave","latitude":39.8276237,"longitude":-104.9170898,"region":"Commerce City","url":"https://daccaa.org/meetings/primera-tradicion-7/","group":"Primera Tradici\u00f3n","timezone":"America/Denver"},{"feed":"daccaa.org","slug":"the-breakfast-club-2","name":"Breakfast Club","day":0,"time":"09:00","end_time":"10:00","state":"CO","postal_code":"80113","city":"Englewood","address":"3737 S Broadway","latitude":39.6488995,"longitude":-104.988051,"location":"Club","region":"Englewood","url":"https://daccaa.org/meetings/the-breakfast-club-2/","group":"Breakfast Club","timezone":"America/Denver"},{"feed":"nocoaa.org","slug":"three-frogs-on-a-log-0-0900","name":"Three Frogs On A Log","day":0,"time":"09:00","types":["ST"],"state":"CO","postal_code":"80524","city":"Fort Collins","address":"1317 Webster Ave","latitude":40.5882181,"longitude":-105.0524045,"location":"Fort Recovery","timezone":"America/Denver"},{"feed":"coloradospringsaa.org","slug":"ute-pass-group","name":"Ute pass breakfast group","day":0,"time":"09:00","types":["D","O","X"],"state":"CO","postal_code":"80809","city":"Cascade","address":"10040 Ute Pass Ave","latitude":38.9288503,"longitude":-105.0089382,"location":"Red Cloud Building","region":"Teller County","notes":"Last Sunday of each month is a Tradition Meeting.","url":"https://www.coloradospringsaa.org/meetings/ute-pass-group/","timezone":"America/Denver"},{"feed":"daccaa.org","slug":"virtually-sober-online-phone","name":"Virtually Sober","day":0,"time":"09:00","end_time":"10:00","types":["D","O","ONL"],"state":"CO","postal_code":"80224","city":"Denver","latitude":39.6928764,"longitude":-104.9096846,"region":"Denver","notes":"Join via Zoom: 832 4306 3955\nPass: VS11","conference_url":"https://zoom.us/j/83243063955","url":"https://daccaa.org/meetings/virtually-sober-online-phone/","group":"Virtually Sober","timezone":"America/Denver"},{"feed":"coloradospringsaa.org","slug":"walk-the-talk-back-to-basics-limited-to-10-folks","name":"Walk the Talk Back to Basics In Person","day":0,"time":"09:00","end_time":"10:00","types":["D","O","X"],"state":"CO","postal_code":"80918","city":"Colorado Springs","address":"2334 Vickers Dr","latitude":38.9160564,"longitude":-104.7839606,"location":"Walk the Talk","region":"Colo Springs","notes":"Park on Tuckerman Street","url":"https://www.coloradospringsaa.org/meetings/walk-the-talk-back-to-basics-limited-to-10-folks/","group":"Walk the Talk Group","timezone":"America/Denver"},{"feed":"daccaa.org","slug":"96-1855","name":"Crossroads","day":0,"time":"09:15","end_time":"10:15","types":["D","O","X"],"state":"CO","postal_code":"80014","city":"Aurora","address":"2888 S Heather Gardens Way","latitude":39.6632742,"longitude":-104.8313255,"location":"Clubhouse","region":"Aurora","url":"https://daccaa.org/meetings/96-1855/","group":"Crossroads","timezone":"America/Denver"},{"feed":"daccaa.org","slug":"crossroads-step-study-online","name":"Crossroads Step Study","day":0,"time":"09:15","end_time":"10:15","types":["ST","ONL","TC"],"state":"CO","postal_code":"80014","city":"Aurora","address":"2888 S Heather Gardens Way","latitude":39.6632742,"longitude":-104.8313255,"location":"Clubhouse","region":"Aurora","notes":"Zoom ID #815 6084 6930\nPassword: 315756","conference_url":"https://zoom.us/j/81560846930","url":"https://daccaa.org/meetings/crossroads-step-study-online/","group":"Crossroads Step Study","timezone":"America/Denver"},{"feed":"daccaa.org","slug":"25-72","name":"Arid Group","day":0,"time":"09:30","end_time":"10:30","types":["C","ST","X"],"state":"CO","postal_code":"80214","city":"Lakewood","address":"1050 Wadsworth Blvd","latitude":39.7336347,"longitude":-105.0811095,"location":"Club","region":"Lakewood","url":"https://daccaa.org/meetings/25-72/","group":"Arid Group","timezone":"America/Denver"},{"feed":"daccaa.org","slug":"387-907","name":"9:30 Sunday Sobriety","day":0,"time":"09:30","end_time":"10:30","types":["B","O"],"state":"CO","postal_code":"80206","city":"Denver","address":"1311 York St","latitude":39.7369585,"longitude":-104.9599915,"location":"Club","region":"Denver","url":"https://daccaa.org/meetings/387-907/","group":"9:30 Sunday Sobriety","timezone":"America/Denver"},{"feed":"nocoaa.org","slug":"fort-collins-group-0-0930","name":"Fort Collins Group","day":0,"time":"09:30","types":["B","D","O","SP","X","EN","ONL"],"state":"CO","postal_code":"80525","city":"Fort Collins","address":"2040 Nancy Gray Ave","latitude":40.5584942,"longitude":-105.0404906,"location":"Seventh Day Adventist Church","timezone":"America/Denver"},{"feed":"coloradospringsaa.org","slug":"serenity-riders-group","name":"Serenity Riders Group in-Person","day":0,"time":"09:30","types":["D","O"],"state":"CO","postal_code":"80904","city":"Colorado Springs","address":"2422 Busch Ave","latitude":38.8346108,"longitude":-104.8680927,"location":"International Dance Club","region":"Colo Springs","url":"https://www.coloradospringsaa.org/meetings/serenity-riders-group/","group":"Serenity Riders Group","timezone":"America/Denver"},{"feed":"daccaa.org","slug":"sunday-sobriety-online","name":"Sunday Sobriety Online","day":0,"time":"09:30","end_time":"10:30","types":["O","ONL"],"state":"CO","postal_code":"80030","city":"Westminster","latitude":39.8300502,"longitude":-105.0352855,"region":"Denver","notes":"Join us on Zoom ~ ID: 637 092 3293\nPassword ~ 6Vzm6d","conference_url":"https://zoom.us/j/6370923293?pwd+d2RITFRpV2tQTFFFelhEN0xnWHplQT09","url":"https://daccaa.org/meetings/sunday-sobriety-online/","group":"Sunday Sobriety Online","timezone":"America/Denver"},{"feed":"nocoaa.org","slug":"union-colony-group-3-0-0945","name":"Union Colony Group","day":0,"time":"09:45","types":["O"],"state":"CO","postal_code":"80631","city":"Greeley","address":"2101 16th St","latitude":40.4146891,"longitude":-104.7122882,"location":"First Congregational Church","timezone":"America/Denver"},{"feed":"daccaa.org","slug":"104-280","name":"Group 1","day":0,"time":"10:00","end_time":"11:00","types":["O","X"],"state":"CO","postal_code":"80227","city":"Lakewood","address":"3355 S Wadsworth Blvd H125","latitude":39.6543786,"longitude":-105.0823309,"location":"Club","region":"Lakewood","url":"https://daccaa.org/meetings/104-280/","group":"Group 1","timezone":"America/Denver"},{"feed":"daccaa.org","slug":"139-367","name":"Grupo El Principio","day":0,"time":"10:00","end_time":"11:30","types":["O","S"],"state":"CO","postal_code":"80219","city":"Denver","address":"2420 S Federal Blvd","latitude":39.6727382,"longitude":-105.0241226,"location":"Denver, CO 80219","region":"Denver","url":"https://daccaa.org/meetings/139-367/","group":"Grupo El Principio","timezone":"America/Denver"},{"feed":"daccaa.org","slug":"161-2241","name":"Fourth Dimension","day":0,"time":"10:00","end_time":"11:00","types":["C","X"],"state":"CO","postal_code":"80234","city":"Northglenn","address":"11674 Huron St Suite 400","latitude":39.9085309,"longitude":-104.9958878,"region":"Northglenn","url":"https://daccaa.org/meetings/161-2241/","group":"Fourth Dimension","timezone":"America/Denver"},{"feed":"daccaa.org","slug":"266-594","name":"Mountain View","day":0,"time":"10:00","end_time":"11:00","types":["O","X"],"state":"CO","postal_code":"80260","city":"Thornton","address":"8801 Fox Dr Suite 200","latitude":39.8570768,"longitude":-104.9946097,"region":"Thornton","url":"https://daccaa.org/meetings/266-594/","group":"Mountain View","timezone":"America/Denver"},{"feed":"daccaa.org","slug":"385-905","name":"Sunday Morning","day":0,"time":"10:00","end_time":"11:00","types":["O","X"],"state":"CO","postal_code":"80212","city":"Wheat Ridge","address":"5455 W 38th Ave Unit M","latitude":39.7698371,"longitude":-105.0560611,"location":"Club","region":"Wheat Ridge","url":"https://daccaa.org/meetings/385-905/","group":"Sunday Morning","timezone":"America/Denver"},{"feed":"daccaa.org","slug":"65-182","name":"Brighton #1","day":0,"time":"10:00","end_time":"11:00","types":["O","X"],"state":"CO","postal_code":"80601","city":"Brighton","address":"147 2nd Pl","latitude":39.9843642,"longitude":-104.8207249,"location":"147 S. 2nd Place","region":"Brighton","url":"https://daccaa.org/meetings/65-182/","group":"Brighton #1","timezone":"America/Denver"},{"feed":"daccaa.org","slug":"718-2368","name":"Grupo Camino A La Sobriedad","day":0,"time":"10:00","end_time":"11:30","types":["O","S"],"state":"CO","postal_code":"80010","city":"Aurora","address":"1400 Joliet St","latitude":39.7384366,"longitude":-104.8609395,"location":"1400 Joliet St.","region":"Aurora","url":"https://daccaa.org/meetings/718-2368/","group":"Grupo Camino A La Sobriedad","timezone":"America/Denver"},{"feed":"daccaa.org","slug":"931-2435","name":"On the Rocks","day":0,"time":"10:00","end_time":"11:00","types":["D","O"],"state":"CO","postal_code":"80465","city":"Morrison","address":"Red Rocks Park and Amphitheatre, 18300 W Alameda Pkwy","latitude":39.6655381,"longitude":-105.2052116,"location":"Red Rocks Park","region":"Morrison","url":"https://daccaa.org/meetings/931-2435/","group":"On the Rocks","timezone":"America/Denver"},{"feed":"coaadistrict14.org","slug":"burning-mountain-action-group","name":"Burning Mountain Action Group","day":0,"time":"10:00","types":["D","O"],"state":"CO","postal_code":"81647","city":"New Castle","address":"423 W Main St","latitude":39.5712222,"longitude":-107.5347517,"location":"New Castle Recreation Department","url":"https://coaadistrict14.org/meetings/burning-mountain-action-group/","timezone":"America/Denver"},{"feed":"puebloaa.org","slug":"grateful-rebels","name":"Grateful Rebels","day":0,"time":"10:00","types":["O","D"],"state":"CO","postal_code":"81082","city":"Trinidad","address":"120 W Kansas Ave","latitude":37.1760318,"longitude":-104.5098531,"location":"Trinidad Alano Club","url":"https://www.puebloaa.org/meetings/grateful-rebels/","timezone":"America/Denver"},{"feed":"coloradospringsaa.org","slug":"guffy-meeting","name":"Guffy Meeting","day":0,"time":"10:00","end_time":"11:00","types":["D","O","X"],"state":"CO","postal_code":"80820","city":"Guffey","address":"1625 Co Rd 102","latitude":38.7534631,"longitude":-105.5215141,"location":"Guffy Community Center","region":"Teller County","url":"https://www.coloradospringsaa.org/meetings/guffy-meeting/","timezone":"America/Denver"},{"feed":"nocoaa.org","slug":"johnstown-womens-meeting-0-1000","name":"Johnstown Women's Meeting","day":0,"time":"10:00","types":["C","D","W","ONL"],"state":"CO","city":"Johnstown","latitude":40.3369272,"longitude":-104.9121967,"location":"Online","timezone":"America/Denver"},{"feed":"daccaa.org","slug":"sober-on-sundays-online","name":"Sober on Sundays","day":0,"time":"10:00","end_time":"11:00","types":["O","ONL"],"state":"CO","postal_code":"80010","city":"Aurora","latitude":39.7393313,"longitude":-104.8629746,"region":"Aurora","notes":"Join Via Zoom:\nMeeting ID: 927 421 3433\nPasscode: 747744","conference_url":"https://zoom.us/j/9274213433","url":"https://daccaa.org/meetings/sober-on-sundays-online/","group":"Sober on Sundays","timezone":"America/Denver"},{"feed":"coloradospringsaa.org","slug":"sunday-morning-speakers-group","name":"Sunday Morning Speakers in-person Meeting","day":0,"time":"10:00","end_time":"11:00","types":["D","O","SP","X"],"state":"CO","postal_code":"80905","city":"Colorado Springs","address":"1769 S 8th St Building P","latitude":38.8062259,"longitude":-104.8397844,"location":"Clean Slate Meeting Place","region":"Colo Springs","url":"https://www.coloradospringsaa.org/meetings/sunday-morning-speakers-group/","timezone":"America/Denver"},{"feed":"daccaa.org","slug":"52-1873","name":"Bonanza","day":0,"time":"10:30","end_time":"11:30","types":["O","ONL"],"state":"CO","postal_code":"80210","city":"Denver","latitude":39.6751269,"longitude":-104.9680914,"location":"Denver, CO","region":"Denver","notes":"JOIN ONLINE:\nhttps://zoom.us/j/320920201?pwd=UFJ4ZTVtbmUyaks3MmxZOGw2SjRYZz09","conference_url":"https://zoom.us/j/320920201?pwd=UFJ4ZTVtbmUyaks3MmxZOGw2SjRYZz09","url":"https://daccaa.org/meetings/52-1873/","group":"Bonanza","timezone":"America/Denver"},{"feed":"coloradospringsaa.org","slug":"security-eye-opener","name":"Security Eye Opener in- Person Meeting","day":0,"time":"10:30","end_time":"11:30","types":["D","O"],"state":"CO","postal_code":"80909","city":"Colorado Springs","address":"1830 N Academy Blvd Suite A","latitude":38.858334,"longitude":-104.7581762,"location":"Fraternal Order of the Eagles","region":"Colo Springs","notes":"Breakfast served prior to the meeting.","url":"https://www.coloradospringsaa.org/meetings/security-eye-opener/","group":"Security Eye Opener","timezone":"America/Denver"},{"feed":"daccaa.org","slug":"150-389","name":"Conscious Contact","day":0,"time":"11:00","end_time":"12:00","types":["O"],"state":"CO","postal_code":"80010","city":"Aurora","address":"10242 E 16th Ave","latitude":39.7418343,"longitude":-104.8686986,"location":"Club","region":"Aurora","url":"https://daccaa.org/meetings/150-389/","group":"Conscious Contact","timezone":"America/Denver"},{"feed":"daccaa.org","slug":"194-475","name":"Happy Way","day":0,"time":"11:00","end_time":"12:00","types":["O"],"state":"CO","postal_code":"80113","city":"Englewood","address":"4300 S Lincoln St","latitude":39.6382498,"longitude":-104.9862098,"location":"Church","region":"Englewood","url":"https://daccaa.org/meetings/194-475/","group":"Happy Way","timezone":"America/Denver"},{"feed":"daccaa.org","slug":"409-933","name":"Three for All","day":0,"time":"11:00","end_time":"12:00","types":["O","X"],"state":"CO","postal_code":"80433","city":"Conifer","address":"12795 US Hwy 285","latitude":39.4876588,"longitude":-105.3607574,"location":"Club","region":"Conifer","url":"https://daccaa.org/meetings/409-933/","group":"Three for All","timezone":"America/Denver"},{"feed":"daccaa.org","slug":"450-1013","name":"York # 1","day":0,"time":"11:00","end_time":"12:00","types":["O"],"state":"CO","postal_code":"80206","city":"Denver","address":"1311 York St","latitude":39.7369585,"longitude":-104.9599915,"location":"Club","region":"Denver","url":"https://daccaa.org/meetings/450-1013/","group":"York # 1","timezone":"America/Denver"},{"feed":"daccaa.org","slug":"896-2464","name":"Sunday 11am","day":0,"time":"11:00","end_time":"12:00","types":["O"],"state":"CO","postal_code":"80134","city":"Parker","address":"19310 Stroh Rd","latitude":39.4777931,"longitude":-104.7651293,"location":"Fire Station","region":"Parker","url":"https://daccaa.org/meetings/896-2464/","group":"Sunday 11am","timezone":"America/Denver"},{"feed":"puebloaa.org","slug":"canon-city-brown-baggers","name":"Canon City Brown Baggers","day":0,"time":"11:00","types":["O","D"],"state":"CO","postal_code":"81212","city":"Ca&ntilde;on City","address":"715 Elm Ave","latitude":38.4250659,"longitude":-105.234154,"location":"Canon City Alano Club","url":"https://www.puebloaa.org/meetings/canon-city-brown-baggers/","timezone":"America/Denver"},{"feed":"coloradospringsaa.org","slug":"walk-the-talk-spiritual-meeting-limited-to-10-folks","name":"Walk the Talk Spiritual Meeting in Person","day":0,"time":"11:00","end_time":"12:00","types":["C","X"],"state":"CO","postal_code":"80918","city":"Colorado Springs","address":"2334 Vickers Dr","latitude":38.9160564,"longitude":-104.7839606,"location":"Walk the Talk","region":"Colo Springs","notes":"Park on Tuckerman Street","url":"https://www.coloradospringsaa.org/meetings/walk-the-talk-spiritual-meeting-limited-to-10-folks/","group":"Walk the Talk Group","timezone":"America/Denver"},{"feed":"nocoaa.org","slug":"greeley-group-2-2-0-1130","name":"Greeley Group 2","day":0,"time":"11:30","types":["O"],"state":"CO","postal_code":"80631","city":"Greeley","address":"801 20th Ave","latitude":40.4248107,"longitude":-104.7106351,"location":"801 20th Ave","timezone":"America/Denver"},{"feed":"daccaa.org","slug":"grupo-un-nuevo-dia-8","name":"Grupo Un Nuevo Dia","day":0,"time":"11:30","end_time":"13:00","types":["O","S"],"state":"CO","postal_code":"80215","city":"Lakewood","address":"1510 Glen Ayr Dr","latitude":39.7410857,"longitude":-105.0955877,"location":"Lakewood, CO 80226","region":"Lakewood","url":"https://daccaa.org/meetings/grupo-un-nuevo-dia-8/","group":"Grupo Un Nuevo Dia","timezone":"America/Denver"},{"feed":"daccaa.org","slug":"1022-2665","name":"A Better Way","day":0,"time":"12:00","end_time":"13:00","types":["O","X","ONL"],"state":"CO","postal_code":"80126","city":"Highlands Ranch","address":"9203 S University Blvd","latitude":39.5474217,"longitude":-104.950339,"location":"Church","region":"Highlands Ranch","notes":"JOIN ONLINE:\n\nMeeting ID:946 964 491\n\nPassword: ABW1234","conference_url":"https://zoom.us/j/946964491","url":"https://daccaa.org/meetings/1022-2665/","group":"A Better Way","timezone":"America/Denver"},{"feed":"daccaa.org","slug":"1048-2689","name":"Noon Workshop","day":0,"time":"12:00","end_time":"13:00","types":["O","ONL"],"state":"CO","postal_code":"80112","city":"Englewood","address":"8484 S Valley Hwy","latitude":39.56071,"longitude":-104.8681551,"location":"Club","region":"Englewood","notes":"ID: 89004240812","conference_url":"https://zoom.us/j/89004240812","url":"https://daccaa.org/meetings/1048-2689/","group":"Noon Workshop","timezone":"America/Denver"},{"feed":"daccaa.org","slug":"11-jun","name":"231 Buckley","day":0,"time":"12:00","end_time":"13:00","types":["O","X"],"state":"CO","postal_code":"80011","city":"Aurora","address":"15210 E 6th Ave","latitude":39.7246914,"longitude":-104.8123117,"location":"Club , Unit 1","region":"Aurora","url":"https://daccaa.org/meetings/11-jun/","group":"231 Buckley","timezone":"America/Denver"},{"feed":"daccaa.org","slug":"137-351","name":"Noon Beginners","day":0,"time":"12:00","end_time":"13:00","types":["BE","O"],"state":"CO","postal_code":"80226","city":"Lakewood","address":"10576 W Alameda Ave STE 2","latitude":39.7104243,"longitude":-105.1164208,"location":"Club","region":"Lakewood","url":"https://daccaa.org/meetings/137-351/","group":"Noon Beginners","timezone":"America/Denver"},{"feed":"daccaa.org","slug":"161-417","name":"Fourth Dimension","day":0,"time":"12:00","end_time":"13:00","types":["C","X"],"state":"CO","postal_code":"80234","city":"Northglenn","address":"11674 Huron St Suite 400","latitude":39.9085309,"longitude":-104.9958878,"region":"Northglenn","url":"https://daccaa.org/meetings/161-417/","group":"Fourth Dimension","timezone":"America/Denver"},{"feed":"daccaa.org","slug":"18-60","name":"WR Wayfarers","day":0,"time":"12:00","end_time":"13:00","types":["O","X"],"state":"CO","postal_code":"80212","city":"Wheat Ridge","address":"5455 W 38th Ave Unit M","latitude":39.7698371,"longitude":-105.0560611,"location":"Club","region":"Wheat Ridge","url":"https://daccaa.org/meetings/18-60/","group":"WR Wayfarers","timezone":"America/Denver"},{"feed":"daccaa.org","slug":"191-460","name":"Happy Hour Sunday","day":0,"time":"12:00","end_time":"13:00","types":["O"],"state":"CO","postal_code":"80121","city":"Centennial","address":"6400 S University Blvd","latitude":39.6019006,"longitude":-104.9582794,"location":"Church","region":"Centennial","url":"https://daccaa.org/meetings/191-460/","group":"Happy Hour Sunday","timezone":"America/Denver"},{"feed":"daccaa.org","slug":"232-552","name":"Little Red House","day":0,"time":"12:00","end_time":"13:00","types":["O"],"state":"CO","postal_code":"80022","city":"Commerce City","address":"7275 Monaco St","latitude":39.8287405,"longitude":-104.9123848,"location":"Little Red House","region":"Commerce City","url":"https://daccaa.org/meetings/232-552/","group":"Little Red House","timezone":"America/Denver"},{"feed":"daccaa.org","slug":"25-1790","name":"Arid Group","day":0,"time":"12:00","end_time":"13:00","types":["O","X"],"state":"CO","postal_code":"80214","city":"Lakewood","address":"1050 Wadsworth Blvd","latitude":39.7336347,"longitude":-105.0811095,"location":"Club","region":"Lakewood","url":"https://daccaa.org/meetings/25-1790/","group":"Arid Group","timezone":"America/Denver"},{"feed":"daccaa.org","slug":"266-615","name":"Mountain View","day":0,"time":"12:00","end_time":"13:00","types":["O","X"],"state":"CO","postal_code":"80260","city":"Thornton","address":"8801 Fox Dr Suite 200","latitude":39.8570768,"longitude":-104.9946097,"region":"Thornton","url":"https://daccaa.org/meetings/266-615/","group":"Mountain View","timezone":"America/Denver"},{"feed":"daccaa.org","slug":"384-904","name":"Happy Hour Beginners","day":0,"time":"12:00","end_time":"13:00","types":["BE","O","X"],"state":"CO","postal_code":"80121","city":"Centennial","address":"6400 S University Blvd","latitude":39.6019006,"longitude":-104.9582794,"location":"Church","region":"Centennial","url":"https://daccaa.org/meetings/384-904/","group":"Happy Hour Beginners","timezone":"America/Denver"},{"feed":"daccaa.org","slug":"431-955","name":"Vie-Tality","day":0,"time":"12:00","end_time":"13:00","types":["O","ONL"],"state":"CO","postal_code":"80030","city":"Westminster","address":"7267 Lowell Blvd","latitude":39.8284815,"longitude":-105.034948,"location":"(upstairs)","region":"Westminster","notes":"JOIN VIA ZOOM at Noon and 8:30 pm meetings.\nMeeting ID: 572 587 9228\nPassword: 505568\nMeeting online","conference_url":"https://zoom.us/j/5725879228","url":"https://daccaa.org/meetings/431-955/","group":"Vie-Tality","timezone":"America/Denver"},{"feed":"daccaa.org","slug":"50-147","name":"Bill's Brownbaggers","day":0,"time":"12:00","end_time":"13:00","types":["O","X"],"state":"CO","postal_code":"80005","city":"Arvada","address":"8250 W 80th Ave #12","latitude":39.8407048,"longitude":-105.0891033,"location":"Club","region":"Arvada","url":"https://daccaa.org/meetings/50-147/","group":"Bill's Brownbaggers","timezone":"America/Denver"},{"feed":"nocoaa.org","slug":"539-group-2-0-1200","name":"539 Group","day":0,"time":"12:00","types":["D","O"],"state":"CO","postal_code":"80537","city":"Loveland","address":"102 E 3rd St","latitude":40.3943412,"longitude":-105.0758327,"location":"Unity Club","timezone":"America/Denver"},{"feed":"daccaa.org","slug":"574-1827","name":"Steppin Sisters","day":0,"time":"12:00","end_time":"13:00","types":["O","X","W","ONL"],"state":"CO","postal_code":"80210","city":"Denver","latitude":39.6751269,"longitude":-104.9680914,"location":"Denver, CO","region":"Denver","notes":"Join us on Zoom: 400 355 617\nPassword: 747837","conference_url":"https://zoom.us/j/400355617","url":"https://daccaa.org/meetings/574-1827/","group":"Steppin Sisters","timezone":"America/Denver"},{"feed":"daccaa.org","slug":"69-1234","name":"Buckeye Easy Does It","day":0,"time":"12:00","end_time":"13:00","types":["O","X"],"state":"CO","postal_code":"80013","city":"Aurora","address":"16732 E Iliff Ave","latitude":39.6725148,"longitude":-104.7941925,"location":"Club (Shop Ctr)","region":"Aurora","url":"https://daccaa.org/meetings/69-1234/","group":"Buckeye Easy Does It","timezone":"America/Denver"},{"feed":"daccaa.org","slug":"799-2447","name":"Newner Meeting","day":0,"time":"12:00","end_time":"13:00","types":["BE","O","X","ONL"],"state":"CO","postal_code":"80227","city":"Lakewood","address":"3355 S Wadsworth Blvd H125","latitude":39.6543786,"longitude":-105.0823309,"location":"Club","region":"Lakewood","notes":"Meeting ID: 810 6034 6134","conference_url":"https://zoom.us/j/81060346134","url":"https://daccaa.org/meetings/799-2447/","group":"Newner Meeting","timezone":"America/Denver"},{"feed":"daccaa.org","slug":"awakened-women","name":"AWOL Awakened Women","day":0,"time":"12:00","end_time":"13:00","types":["D","O","W"],"state":"CO","postal_code":"80210","city":"Denver","address":"1865 S Pearl St","latitude":39.6827576,"longitude":-104.9806654,"location":"All Walks of Life Hall","region":"Denver","url":"https://daccaa.org/meetings/awakened-women/","group":"AWOL Awakened Women","timezone":"America/Denver"},{"feed":"nocoaa.org","slug":"daily-noon-zoom-0-1200","name":"Daily Noon Zoom","day":0,"time":"12:00","types":["O","ONL"],"state":"CO","city":"Fort Collins","latitude":40.5852602,"longitude":-105.084423,"location":"Fort Collins","timezone":"America/Denver"},{"feed":"coloradospringsaa.org","slug":"easy-does-it-31","name":"Easy Does It Open Discussion","day":0,"time":"12:00","types":["D","O","X"],"state":"CO","postal_code":"80910","city":"Colorado Springs","address":"3760 Astrozon Blvd","latitude":38.7962551,"longitude":-104.7600493,"location":"Easy Does It Group","region":"Colo Springs","url":"https://www.coloradospringsaa.org/meetings/easy-does-it-31/","group":"Easy Does It Group","timezone":"America/Denver"},{"feed":"nocoaa.org","slug":"fall-river-group-0-1200","name":"AA Fall River Group","day":0,"time":"12:00","types":["ABSI","O","ONL"],"state":"CO","postal_code":"80517","city":"Estes Park","address":"453 W Elkhorn Ave","latitude":40.3767902,"longitude":-105.5299843,"location":"453 West Elkhorn","timezone":"America/Denver"},{"feed":"daccaa.org","slug":"gift-of-desperation-7","name":"Gift of Desperation","day":0,"time":"12:00","end_time":"13:00","types":["O"],"state":"CO","postal_code":"80113","city":"Englewood","address":"3737 S Broadway","latitude":39.6488995,"longitude":-104.988051,"location":"Club","region":"Englewood","url":"https://daccaa.org/meetings/gift-of-desperation-7/","group":"Gift of Desperation","timezone":"America/Denver"},{"feed":"puebloaa.org","slug":"great-escape","name":"Great Escape","day":0,"time":"12:00","types":["O","D"],"state":"CO","postal_code":"81001","city":"Pueblo","address":"1332 E 20th St","latitude":38.2858339,"longitude":-104.588879,"location":"Great Escape","url":"https://www.puebloaa.org/meetings/great-escape/","timezone":"America/Denver"},{"feed":"daccaa.org","slug":"not-so-high-noon-online-5","name":"Not So High Noon","day":0,"time":"12:00","end_time":"13:00","types":["O","ONL"],"state":"CO","postal_code":"80206","city":"Denver","latitude":39.7271021,"longitude":-104.9564084,"region":"Denver","notes":"JOIN ON ZOOM:\nMeeting ID: 503 974-5467\nPass: 568311","conference_url":"https://us02web.zoom.us/j/5039745467?pwd=S0lFKzVqSy9IOHQyNkJVTWpzL1Fpdz09","url":"https://daccaa.org/meetings/not-so-high-noon-online-5/","group":"Not So High Noon","timezone":"America/Denver"},{"feed":"coloradospringsaa.org","slug":"primary-purpose-noon-discussion-at-freedom-hall","name":"Primary Purpose Noon Discussion at Freedom Hall","day":0,"time":"12:00","end_time":"13:00","types":["D","O"],"state":"CO","postal_code":"80907","city":"Colorado Springs","address":"3024 N El Paso St","latitude":38.8757834,"longitude":-104.8131109,"location":"Freedom Hall","region":"Colo Springs","url":"https://www.coloradospringsaa.org/meetings/primary-purpose-noon-discussion-at-freedom-hall/","group":"Primary Purpose","timezone":"America/Denver"},{"feed":"puebloaa.org","slug":"seekers-group-womens-meeting","name":"Seekers New Beginnings Group Women&#039;s Meeting","day":0,"time":"12:00","types":["D","W"],"state":"CO","postal_code":"81052","city":"Lamar","address":"404 S 9th St","latitude":38.0853985,"longitude":-102.6258649,"location":"Seekers Clubhouse","url":"https://www.puebloaa.org/meetings/seekers-group-womens-meeting/","timezone":"America/Denver"},{"feed":"puebloaa.org","slug":"serenity","name":"Serenity","day":0,"time":"12:00","types":["O","D"],"state":"CO","postal_code":"81004","city":"Pueblo","address":"2506 Lake Ave","latitude":38.2255541,"longitude":-104.624847,"location":"3 Point Club","url":"https://www.puebloaa.org/meetings/serenity/","timezone":"America/Denver"},{"feed":"coaadistrict14.org","slug":"st-george-episcopal-church-sundays-at-1200-pm","name":"St. George Episcopal Church Sundays at 12:00 PM","day":0,"time":"12:00","types":["O","EN"],"state":"CO","postal_code":"80461","city":"Leadville","address":"200 W 4th St","latitude":39.2467334,"longitude":-106.2937508,"location":"St. George Episcopal Church","url":"https://coaadistrict14.org/meetings/st-george-episcopal-church-sundays-at-1200-pm/","timezone":"America/Denver"},{"feed":"coloradospringsaa.org","slug":"stepping-stones","name":"Stepping Stones In-Person Meeting","day":0,"time":"12:00","types":["O","ST","TR","X"],"state":"CO","postal_code":"80905","city":"Colorado Springs","address":"1769 S 8th St Building P","latitude":38.8062259,"longitude":-104.8397844,"location":"Clean Slate Meeting Place","region":"Colo Springs","url":"https://www.coloradospringsaa.org/meetings/stepping-stones/","group":"Clean Slate","timezone":"America/Denver"},{"feed":"coloradospringsaa.org","slug":"the-1212-meeting-7","name":"As the spirit move ya","day":0,"time":"12:00","types":["D","O"],"state":"CO","postal_code":"80819","city":"Green Mountain Falls","address":"10400 Ute Pass Ave","latitude":38.933069,"longitude":-105.0128463,"location":"Red Cloud Group","region":"Teller County","url":"https://www.coloradospringsaa.org/meetings/the-1212-meeting-7/","group":"Red Cloud","timezone":"America/Denver"},{"feed":"daccaa.org","slug":"198-479","name":"High Noon","day":0,"time":"12:30","end_time":"13:30","types":["O"],"state":"CO","postal_code":"80206","city":"Denver","address":"1311 York St","latitude":39.7369585,"longitude":-104.9599915,"location":"Club","region":"Denver","url":"https://daccaa.org/meetings/198-479/","group":"High Noon","timezone":"America/Denver"},{"feed":"daccaa.org","slug":"233-1037","name":"Live and Let Live","day":0,"time":"12:30","end_time":"13:30","types":["LGBTQ","O","ONL"],"state":"CO","city":"Denver","latitude":39.7392358,"longitude":-104.990251,"region":"Denver","notes":"Join Via Zoom\nMeeting ID: 794 360 2660\nPassword: 2i3w96","conference_url":"https://zoom.us/j/7943602660","url":"https://daccaa.org/meetings/233-1037/","group":"Live and Let Live","timezone":"America/Denver"},{"feed":"puebloaa.org","slug":"11th-step-meditation-meeting","name":"11th Step Meditation Meeting","day":0,"time":"13:00","types":["MED","O"],"state":"CO","postal_code":"81082","city":"Trinidad","address":"120 W Kansas Ave","latitude":37.1760318,"longitude":-104.5098531,"location":"Trinidad Alano Club","url":"https://www.puebloaa.org/meetings/11th-step-meditation-meeting/","timezone":"America/Denver"},{"feed":"coaadistrict14.org","slug":"brown-baggers","name":"Brown Baggers","day":0,"time":"13:00","types":["O"],"state":"CO","postal_code":"81601","city":"Glenwood Springs","address":"824 Cooper Ave","latitude":39.545811,"longitude":-107.3233989,"location":"First United Methodist Church","url":"https://coaadistrict14.org/meetings/brown-baggers/","timezone":"America/Denver"},{"feed":"coloradospringsaa.org","slug":"downtown-living-sober","name":"Downtown Club Living Sober","day":0,"time":"13:00","types":["C","LS"],"state":"CO","postal_code":"80903","city":"Colorado Springs","address":"210 N Corona St","latitude":38.8370368,"longitude":-104.8165064,"location":"Downtown Club","region":"Colo Springs","url":"https://www.coloradospringsaa.org/meetings/downtown-living-sober/","group":"Downtown Club","timezone":"America/Denver"},{"feed":"nocoaa.org","slug":"high-noon-group-7-0-1300","name":"High Noon Group","day":0,"time":"13:00","types":["EN"],"state":"CO","postal_code":"80631","city":"Garden City","address":"2608 7th Ave","latitude":40.3953243,"longitude":-104.6895936,"location":"South Club","timezone":"America/Denver"},{"feed":"coloradospringsaa.org","slug":"walk-the-talk-beginner-meeting-limited-to-10-folks","name":"Walk the Talk Newcomer's Meeting","day":0,"time":"13:00","end_time":"14:00","types":["BE","O","X"],"state":"CO","postal_code":"80918","city":"Colorado Springs","address":"2334 Vickers Dr","latitude":38.9160564,"longitude":-104.7839606,"location":"Walk the Talk","region":"Colo Springs","notes":"Park on Tuckerman Street","url":"https://www.coloradospringsaa.org/meetings/walk-the-talk-beginner-meeting-limited-to-10-folks/","group":"Walk the Talk Group","timezone":"America/Denver"},{"feed":"daccaa.org","slug":"1072-2736","name":"Sunday Reprieve","day":0,"time":"14:00","end_time":"15:00","types":["O","X"],"state":"CO","postal_code":"80210","city":"Denver","address":"1865 S Pearl St","latitude":39.6827576,"longitude":-104.9806654,"location":"All Walks of Life Hall","region":"Denver","url":"https://daccaa.org/meetings/1072-2736/","group":"Sunday Reprieve","timezone":"America/Denver"},{"feed":"puebloaa.org","slug":"discussion-meeting-2","name":"Grateful Not Dead Group","day":0,"time":"14:00","types":["D","O"],"state":"CO","postal_code":"81101","city":"Alamosa","address":"2005 Mullins Ave","latitude":37.4739733,"longitude":-105.8853177,"location":"1st United Methodist Church","url":"https://www.puebloaa.org/meetings/discussion-meeting-2/","timezone":"America/Denver"},{"feed":"daccaa.org","slug":"jun-46","name":"231 Buckley","day":0,"time":"14:00","end_time":"15:00","types":["BE","O","X"],"state":"CO","postal_code":"80011","city":"Aurora","address":"15210 E 6th Ave","latitude":39.7246914,"longitude":-104.8123117,"location":"Club , Unit 1","region":"Aurora","url":"https://daccaa.org/meetings/jun-46/","group":"231 Buckley","timezone":"America/Denver"},{"feed":"puebloaa.org","slug":"sought-to-improve","name":"Sought to Improve","day":0,"time":"14:00","types":["O","D"],"state":"CO","postal_code":"81054","city":"Las Animas","address":"30999 Co Rd 15","latitude":38.0848809,"longitude":-103.1428104,"location":"Building 401","url":"https://www.puebloaa.org/meetings/sought-to-improve/","timezone":"America/Denver"},{"feed":"daccaa.org","slug":"3pm-arid-7","name":"3pm Arid","day":0,"time":"15:00","end_time":"16:00","types":["O"],"state":"CO","postal_code":"80214","city":"Lakewood","address":"1050 Wadsworth Blvd","latitude":39.7336347,"longitude":-105.0811095,"location":"Club","region":"Lakewood","url":"https://daccaa.org/meetings/3pm-arid-7/","group":"3pm Arid","timezone":"America/Denver"},{"feed":"daccaa.org","slug":"afternoon-reprieve-2","name":"Afternoon Reprieve","day":0,"time":"15:00","end_time":"16:00","types":["D","SP"],"state":"CO","postal_code":"80227","city":"Lakewood","address":"3355 S Wadsworth Blvd H125","latitude":39.6543786,"longitude":-105.0823309,"location":"Club","region":"Lakewood","url":"https://daccaa.org/meetings/afternoon-reprieve-2/","group":"Afternoon Reprieve","timezone":"America/Denver"},{"feed":"daccaa.org","slug":"aug-32","name":"3 PM How It Works","day":0,"time":"15:00","end_time":"16:00","types":["BE","O"],"state":"CO","postal_code":"80206","city":"Denver","address":"1311 York St","latitude":39.7369585,"longitude":-104.9599915,"location":"Club","region":"Denver","url":"https://daccaa.org/meetings/aug-32/","group":"3 PM How It Works","timezone":"America/Denver"},{"feed":"nocoaa.org","slug":"back-porch-mens-meeting-0-1530","name":"Back Porch Men's Meeting","day":0,"time":"15:30","types":["D","M","O","ONL"],"state":"CO","city":"Loveland","latitude":40.395451,"longitude":-105.0745837,"location":"Online","timezone":"America/Denver"},{"feed":"nocoaa.org","slug":"sugar-rush-0-1530","name":"Sugar Rush","day":0,"time":"15:30","types":["D","O"],"state":"CO","postal_code":"80524","city":"Fort Collins","address":"1317 Webster Ave","latitude":40.5882181,"longitude":-105.0524045,"location":"Fort Recovery","timezone":"America/Denver"},{"feed":"coloradospringsaa.org","slug":"easy-does-it-32","name":"Easy Does It Open Discussion","day":0,"time":"16:00","types":["D","O","X"],"state":"CO","postal_code":"80910","city":"Colorado Springs","address":"3760 Astrozon Blvd","latitude":38.7962551,"longitude":-104.7600493,"location":"Easy Does It Group","region":"Colo Springs","url":"https://www.coloradospringsaa.org/meetings/easy-does-it-32/","group":"Easy Does It Group","timezone":"America/Denver"},{"feed":"coloradospringsaa.org","slug":"natural-high","name":"Natural High","day":0,"time":"16:00","end_time":"17:00","types":["D","O"],"state":"CO","postal_code":"80813","city":"Cripple Creek","address":"367 E Carr Ave","latitude":38.7479926,"longitude":-105.1745939,"location":"St. Andrews Episcopal Church","region":"Teller County","url":"https://www.coloradospringsaa.org/meetings/natural-high/","timezone":"America/Denver"},{"feed":"daccaa.org","slug":"sisters-of-sobriety","name":"Sisters of Sobriety","day":0,"time":"16:00","end_time":"17:00","types":["O","W"],"state":"CO","postal_code":"80227","city":"Lakewood","address":"3355 S Wadsworth Blvd H125","latitude":39.6543786,"longitude":-105.0823309,"location":"Club","region":"Lakewood","url":"https://daccaa.org/meetings/sisters-of-sobriety/","group":"Sisters of Sobriety","timezone":"America/Denver"},{"feed":"daccaa.org","slug":"25-2772","name":"Arid Group","day":0,"time":"16:30","end_time":"17:30","types":["O","X","W"],"state":"CO","postal_code":"80214","city":"Lakewood","address":"1050 Wadsworth Blvd","latitude":39.7336347,"longitude":-105.0811095,"location":"Club","region":"Lakewood","url":"https://daccaa.org/meetings/25-2772/","group":"Arid Group","timezone":"America/Denver"},{"feed":"coloradospringsaa.org","slug":"broadmoor-12x12-step-study","name":"Broadmoor 12x12 Step Study","day":0,"time":"16:30","types":["C","AL-AN","ST"],"state":"CO","postal_code":"80906","city":"Colorado Springs","address":"315 Lake Ave","latitude":38.7943971,"longitude":-104.8325652,"location":"Broadmoor Community Church","region":"Colo Springs","notes":"Conference Room, lower level, east double glass doors\n\n12 Steps &amp; 12 Traditions","url":"https://www.coloradospringsaa.org/meetings/broadmoor-12x12-step-study/","timezone":"America/Denver"},{"feed":"daccaa.org","slug":"easier-softer-way","name":"Easier Softer Way","day":0,"time":"17:00","end_time":"18:00","types":["O","X"],"state":"CO","postal_code":"80237","city":"Denver","address":"3599 S Ivanhoe St","latitude":39.6504546,"longitude":-104.9221716,"location":"Synagogue","region":"Denver","url":"https://daccaa.org/meetings/easier-softer-way/","group":"Easier Softer Way","timezone":"America/Denver"},{"feed":"coloradospringsaa.org","slug":"grace-primary-purpose-group","name":"Grace Primary Purpose Group","day":0,"time":"17:00","end_time":"18:00","types":["O","X"],"state":"CO","postal_code":"80903","city":"Colorado Springs","address":"317 E Kiowa St","latitude":38.8350171,"longitude":-104.8195809,"location":"First Baptist Church (Downstairs and to the left)","region":"Colo Springs","url":"https://www.coloradospringsaa.org/meetings/grace-primary-purpose-group/","timezone":"America/Denver"},{"feed":"puebloaa.org","slug":"open-discussion-4","name":"Open Discussion","day":0,"time":"17:00","types":["D","O"],"state":"CO","postal_code":"81040","city":"Gardner","address":"24850 CO-69","latitude":37.7825909,"longitude":-105.158304,"location":"Gardner La Clinica","url":"https://www.puebloaa.org/meetings/open-discussion-4/","timezone":"America/Denver"},{"feed":"daccaa.org","slug":"the-message-that-transcends","name":"The Message that TRANScends","day":0,"time":"17:00","end_time":"18:00","types":["B","NB","T","ONL"],"state":"CO","postal_code":"80209","city":"Denver","address":"809 S Washington St","latitude":39.7018092,"longitude":-104.9795665,"location":"Washington Community Center","region":"Denver","notes":"Join Via Zoom\nMeeting ID: 177684005","conference_url":"https://zoom.us/j/177684005","url":"https://daccaa.org/meetings/the-message-that-transcends/","group":"The Message that TRANScends","timezone":"America/Denver"},{"feed":"coloradospringsaa.org","slug":"walk-the-talk-daily-reflections-limited-to-10-folks-2","name":"Walk the Talk Daily Reflections in Person","day":0,"time":"17:00","end_time":"18:00","types":["DR","O","X"],"state":"CO","postal_code":"80918","city":"Colorado Springs","address":"2334 Vickers Dr","latitude":38.9160564,"longitude":-104.7839606,"location":"Walk the Talk","region":"Colo Springs","notes":"Park on Tuckerman Street","url":"https://www.coloradospringsaa.org/meetings/walk-the-talk-daily-reflections-limited-to-10-folks-2/","group":"Walk the Talk Group","timezone":"America/Denver"},{"feed":"nocoaa.org","slug":"women-seeking-sobriety-0-1700","name":"Women Seeking Sobriety","day":0,"time":"17:00","types":["H","O","SP","X","W"],"state":"CO","postal_code":"80634","city":"Greeley","address":"3800 W 20th St","latitude":40.4060646,"longitude":-104.7413182,"location":"Trinity Episcopal Church","timezone":"America/Denver"},{"feed":"daccaa.org","slug":"105-318","name":"Day By Day","day":0,"time":"17:30","end_time":"18:30","types":["D","BE","O","X"],"state":"CO","postal_code":"80210","city":"Denver","address":"1955 E Arizona Ave","latitude":39.6950903,"longitude":-104.9643491,"location":"Church","region":"Denver","url":"https://daccaa.org/meetings/105-318/","group":"Day By Day","timezone":"America/Denver"},{"feed":"daccaa.org","slug":"1062-2718","name":"Twisted Sistas","day":0,"time":"17:30","end_time":"18:30","types":["O","W"],"state":"CO","postal_code":"80030","city":"Westminster","address":"3489 W 72nd Ave #204","latitude":39.8277737,"longitude":-105.0317272,"region":"Westminster","url":"https://daccaa.org/meetings/1062-2718/","group":"Twisted Sistas","timezone":"America/Denver"},{"feed":"daccaa.org","slug":"266-595","name":"Mountain View","day":0,"time":"17:30","end_time":"18:30","types":["O","X"],"state":"CO","postal_code":"80260","city":"Thornton","address":"8801 Fox Dr Suite 200","latitude":39.8570768,"longitude":-104.9946097,"region":"Thornton","url":"https://daccaa.org/meetings/266-595/","group":"Mountain View","timezone":"America/Denver"},{"feed":"daccaa.org","slug":"431-957","name":"Vie-Tality","day":0,"time":"17:30","end_time":"18:30","types":["O"],"state":"CO","postal_code":"80030","city":"Westminster","address":"7267 Lowell Blvd","latitude":39.8284815,"longitude":-105.034948,"location":"(upstairs)","region":"Westminster","url":"https://daccaa.org/meetings/431-957/","group":"Vie-Tality","timezone":"America/Denver"},{"feed":"daccaa.org","slug":"530-to-freedom-online-7","name":"5:30 to Freedom","day":0,"time":"17:30","end_time":"18:30","types":["D","O","ONL"],"state":"CO","postal_code":"80127","city":"Denver","latitude":39.5350229,"longitude":-105.1492869,"region":"Littleton","notes":"Join Online: 609 377 6070\n\nPass: Daat2020","conference_url":"https://zoom.us/j/6093776070","url":"https://daccaa.org/meetings/530-to-freedom-online-7/","group":"5:30 to Freedom","timezone":"America/Denver"},{"feed":"nocoaa.org","slug":"539-group-0-1730","name":"539 Group","day":0,"time":"17:30","types":["D","O"],"state":"CO","postal_code":"80537","city":"Loveland","address":"102 E 3rd St","latitude":40.3943412,"longitude":-105.0758327,"location":"Unity Club","timezone":"America/Denver"},{"feed":"daccaa.org","slug":"629-1671","name":"Always Hope","day":0,"time":"17:30","end_time":"18:30","types":["O","X"],"state":"CO","postal_code":"80227","city":"Lakewood","address":"3355 S Wadsworth Blvd H125","latitude":39.6543786,"longitude":-105.0823309,"location":"Club","region":"Lakewood","url":"https://daccaa.org/meetings/629-1671/","group":"Always Hope","timezone":"America/Denver"},{"feed":"daccaa.org","slug":"867-2282","name":"V.S.E.","day":0,"time":"17:30","end_time":"18:30","types":["O"],"state":"CO","postal_code":"80439","city":"Evergreen","address":"3757 Ponderosa Dr","latitude":39.6471832,"longitude":-105.3383199,"location":"Church","region":"Evergreen","url":"https://daccaa.org/meetings/867-2282/","group":"V.S.E.","timezone":"America/Denver"},{"feed":"nocoaa.org","slug":"back-porch-friends-of-bill-7-0-1730","name":"Back Porch Friends of Bill","day":0,"time":"17:30","types":["D","O","ONL"],"state":"CO","city":"Loveland","latitude":40.395451,"longitude":-105.0745837,"location":"Online","timezone":"America/Denver"},{"feed":"coloradospringsaa.org","slug":"clean-slate-big-book-study","name":"Clean Slate Big Book Study In-Person Meeting","day":0,"time":"17:30","types":["B","O","X"],"state":"CO","postal_code":"80905","city":"Colorado Springs","address":"1769 S 8th St Building P","latitude":38.8062259,"longitude":-104.8397844,"location":"Clean Slate Meeting Place","region":"Colo Springs","url":"https://www.coloradospringsaa.org/meetings/clean-slate-big-book-study/","group":"Clean Slate","timezone":"America/Denver"},{"feed":"nocoaa.org","slug":"loveland-group-3-0-1730","name":"Loveland AA Group","day":0,"time":"17:30","types":["H","C","D","X"],"state":"CO","postal_code":"80538","city":"Loveland","address":"1 Aspen Dr","latitude":40.4241359,"longitude":-105.0954641,"location":"Park View Gardens Club House","timezone":"America/Denver"},{"feed":"daccaa.org","slug":"we-agnostics","name":"We Agnostics","day":0,"time":"17:30","end_time":"18:30","types":["D","O","X"],"state":"CO","postal_code":"80222","city":"Denver","address":"4101 E Hampden Ave","latitude":39.6535276,"longitude":-104.9394785,"location":"Church","region":"Denver","url":"https://daccaa.org/meetings/we-agnostics/","group":"We Agnostics","timezone":"America/Denver"},{"feed":"puebloaa.org","slug":"young-peoples","name":"No Matter What","day":0,"time":"17:30","types":["D","O"],"state":"CO","postal_code":"81003","city":"Pueblo","address":"420 W 18th St","latitude":38.2832608,"longitude":-104.6121097,"location":"Ascension Episcopal Church","url":"https://www.puebloaa.org/meetings/young-peoples/","timezone":"America/Denver"},{"feed":"daccaa.org","slug":"358-2104","name":"5:45 Happy Hour","day":0,"time":"17:45","end_time":"18:45","types":["O"],"state":"CO","postal_code":"80206","city":"Denver","address":"1311 York St","latitude":39.7369585,"longitude":-104.9599915,"location":"Club","region":"Denver","url":"https://daccaa.org/meetings/358-2104/","group":"5:45 Happy Hour","timezone":"America/Denver"},{"feed":"daccaa.org","slug":"394-913","name":"Women's Real Deal","day":0,"time":"17:45","end_time":"18:45","types":["C","W"],"state":"CO","postal_code":"80206","city":"Denver","address":"1311 York St","latitude":39.7369585,"longitude":-104.9599915,"location":"Club","region":"Denver","url":"https://daccaa.org/meetings/394-913/","group":"Women's Real Deal","timezone":"America/Denver"},{"feed":"daccaa.org","slug":"by-the-grace-of-god-in-person-online-phone-6","name":"By the Grace of God","day":0,"time":"17:45","end_time":"18:45","types":["O"],"state":"CO","postal_code":"80013","city":"Aurora","address":"16732 E Iliff Ave","latitude":39.6725148,"longitude":-104.7941925,"location":"Club (Shop Ctr)","region":"Aurora","url":"https://daccaa.org/meetings/by-the-grace-of-god-in-person-online-phone-6/","group":"By the Grace of God","timezone":"America/Denver"},{"feed":"daccaa.org","slug":"friends-fellowship-7","name":"Friends & Fellowship","day":0,"time":"17:45","end_time":"18:45","types":["D","O","ONL"],"state":"CO","city":"Englewood","latitude":39.6477653,"longitude":-104.9877597,"region":"Englewood","notes":"ZOOM ID: 876 4237 0836\nPassword: 919883\nDial in: +1 669 900 9128","conference_url":"https://us02web.zoom.us/j/87642370836?pwd=WE93WU9RTmkrODRKQXppTkFRMUZndz09","url":"https://daccaa.org/meetings/friends-fellowship-7/","group":"Friends & Fellowship","timezone":"America/Denver"},{"feed":"daccaa.org","slug":"1008-2609","name":"Sunday Serenity","day":0,"time":"18:00","end_time":"19:00","types":["O","ST"],"state":"CO","postal_code":"80138","city":"Parker","address":"7051 Parker Hills Ct","latitude":39.5261817,"longitude":-104.7549492,"location":"Church - Lower Level Long Room","region":"Parker","url":"https://daccaa.org/meetings/1008-2609/","group":"Sunday Serenity","timezone":"America/Denver"},{"feed":"daccaa.org","slug":"159-402","name":"Foundation of Willingness","day":0,"time":"18:00","end_time":"19:00","types":["C"],"state":"CO","postal_code":"80211","city":"Denver","address":"3120 Irving St","latitude":39.7612148,"longitude":-105.0295784,"location":"Church","region":"Denver","url":"https://daccaa.org/meetings/159-402/","group":"Foundation of Willingness","timezone":"America/Denver"},{"feed":"daccaa.org","slug":"172-1669","name":"Gilpin County H.A.L.T.","day":0,"time":"18:00","end_time":"19:00","types":["D","O"],"state":"CO","postal_code":"80427","city":"Central City","address":"226 E 1st High St","latitude":39.8011869,"longitude":-105.5113307,"location":"Church","region":"Central City","url":"https://daccaa.org/meetings/172-1669/","group":"Gilpin County H.A.L.T.","timezone":"America/Denver"},{"feed":"daccaa.org","slug":"175-1896","name":"Golden #1","day":0,"time":"18:00","end_time":"00:00","types":["B","O"],"state":"CO","postal_code":"80401","city":"Golden","address":"1500 Ford St","latitude":39.7536543,"longitude":-105.217071,"location":"Church","region":"Golden","url":"https://daccaa.org/meetings/175-1896/","group":"Golden #1","timezone":"America/Denver"},{"feed":"daccaa.org","slug":"18-jun","name":"231 Buckley","day":0,"time":"18:00","end_time":"19:00","types":["O","X"],"state":"CO","postal_code":"80011","city":"Aurora","address":"15210 E 6th Ave","latitude":39.7246914,"longitude":-104.8123117,"location":"Club , Unit 1","region":"Aurora","url":"https://daccaa.org/meetings/18-jun/","group":"231 Buckley","timezone":"America/Denver"},{"feed":"coloradospringsaa.org","slug":"2020-vision-for-you-big-book-discussion-zoom-meeting","name":"2020 Vision For You Big Book Discussion online Meeting","day":0,"time":"18:00","end_time":"19:00","types":["B","O","ONL"],"state":"CO","city":"Colorado Springs","latitude":38.8338816,"longitude":-104.8213634,"location":"Colorado Springs, CO, USA","region":"Colo Springs","notes":"Meeting ID: 722 4007 5563\nPasscode: 386123","conference_url":"https://us02web.zoom.us/j/72240075563#success","url":"https://www.coloradospringsaa.org/meetings/2020-vision-for-you-big-book-discussion-zoom-meeting/","timezone":"America/Denver"},{"feed":"daccaa.org","slug":"230-533","name":"Lilley Gulch","day":0,"time":"18:00","end_time":"19:00","types":["BE","O","X"],"state":"CO","postal_code":"80128","city":"Littleton","address":"7964 S Depew St","latitude":39.572816,"longitude":-105.056501,"location":"Club","region":"Littleton","url":"https://daccaa.org/meetings/230-533/","group":"Lilley Gulch","timezone":"America/Denver"},{"feed":"daccaa.org","slug":"232-538","name":"Little Red House","day":0,"time":"18:00","end_time":"19:00","types":["O"],"state":"CO","postal_code":"80022","city":"Commerce City","address":"7275 Monaco St","latitude":39.8287405,"longitude":-104.9123848,"location":"Little Red House","region":"Commerce City","url":"https://daccaa.org/meetings/232-538/","group":"Little Red House","timezone":"America/Denver"},{"feed":"daccaa.org","slug":"25-1047","name":"Arid Group","day":0,"time":"18:00","end_time":"19:00","types":["CAN","O","X"],"state":"CO","postal_code":"80214","city":"Lakewood","address":"1050 Wadsworth Blvd","latitude":39.7336347,"longitude":-105.0811095,"location":"Club","region":"Lakewood","url":"https://daccaa.org/meetings/25-1047/","group":"Arid Group","timezone":"America/Denver"},{"feed":"daccaa.org","slug":"574-1402","name":"AWOL 6 pm","day":0,"time":"18:00","end_time":"19:00","types":["O","X"],"state":"CO","postal_code":"80210","city":"Denver","address":"1865 S Pearl St","latitude":39.6827576,"longitude":-104.9806654,"location":"All Walks of Life Hall","region":"Denver","url":"https://daccaa.org/meetings/574-1402/","group":"AWOL 6 pm","timezone":"America/Denver"},{"feed":"daccaa.org","slug":"854-2222","name":"Sunday Night Ticket","day":0,"time":"18:00","end_time":"19:00","types":["O","X"],"state":"CO","postal_code":"80210","city":"Denver","address":"2180 S University Blvd","latitude":39.676904,"longitude":-104.958462,"location":"Church","region":"Denver","url":"https://daccaa.org/meetings/854-2222/","group":"Sunday Night Ticket","timezone":"America/Denver"},{"feed":"coloradospringsaa.org","slug":"comcor-mens-meeting","name":"Comcor Men's Meeting (check w/supervisor when entering)","day":0,"time":"18:00","end_time":"19:00","types":["C","M"],"state":"CO","postal_code":"80907","city":"Colorado Springs","address":"3615 Roberts Rd","latitude":38.8835934,"longitude":-104.8176591,"location":"ComCor","region":"Colo Springs","notes":"Closed men's meeting - in cafeteria\nCheck in w/supervisor when entering.","url":"https://www.coloradospringsaa.org/meetings/comcor-mens-meeting/","timezone":"America/Denver"},{"feed":"coloradospringsaa.org","slug":"evening-open-discussion-meeting-4","name":"12\u00d712","day":0,"time":"18:00","types":["D","O"],"state":"CO","postal_code":"80819","city":"Green Mountain Falls","address":"10400 Ute Pass Ave","latitude":38.933069,"longitude":-105.0128463,"location":"Red Cloud Group","region":"Teller County","url":"https://www.coloradospringsaa.org/meetings/evening-open-discussion-meeting-4/","group":"Red Cloud","timezone":"America/Denver"},{"feed":"puebloaa.org","slug":"great-escape-womens-meeting","name":"Great Escape Women&#039;s Meeting","day":0,"time":"18:00","types":["D","O","W"],"state":"CO","postal_code":"81001","city":"Pueblo","address":"1332 E 20th St","latitude":38.2858339,"longitude":-104.588879,"location":"Great Escape","url":"https://www.puebloaa.org/meetings/great-escape-womens-meeting/","timezone":"America/Denver"},{"feed":"puebloaa.org","slug":"hugnuts","name":"Hugnuts","day":0,"time":"18:00","types":["D","O"],"state":"CO","postal_code":"81055","city":"La Veta","address":"416 S Main St","latitude":37.5062591,"longitude":-105.0094225,"location":"United Methodist Church","url":"https://www.puebloaa.org/meetings/hugnuts/","timezone":"America/Denver"},{"feed":"daccaa.org","slug":"lucky-women-online","name":"Lucky Women","day":0,"time":"18:00","end_time":"19:00","types":["W","EN","ONL"],"state":"CO","city":"Denver","latitude":39.7392358,"longitude":-104.990251,"region":"Denver","notes":"Join us online at Zoom~ID#: 886 776 8699\nPasscode: Lucky25","conference_url":"https://us05web.zoom.us/j/8867768699?pwd=DtgGVv67glygq5fxkCxf7bdbQ0a6Hz.1","url":"https://daccaa.org/meetings/lucky-women-online/","group":"Lucky Women","timezone":"America/Denver"},{"feed":"coloradospringsaa.org","slug":"old-north-end-in-person-meetings","name":"Old North End in-Person Meetings","day":0,"time":"18:00","end_time":"19:00","types":["B","C","ST","TR"],"state":"CO","postal_code":"80907","city":"Colorado Springs","address":"1515 N Cascade Ave","latitude":38.8553893,"longitude":-104.8235282,"location":"First Lutheran Church","region":"Colo Springs","notes":"12 Steps &amp; 12 Traditions","url":"https://www.coloradospringsaa.org/meetings/old-north-end-in-person-meetings/","timezone":"America/Denver"},{"feed":"coloradospringsaa.org","slug":"sunday-6-p-m-open-meeting","name":"Sunday 6 p.m. Open Meeting","day":0,"time":"18:00","end_time":"19:00","types":["D","O"],"state":"CO","postal_code":"80907","city":"Colorado Springs","address":"3024 N El Paso St","latitude":38.8757834,"longitude":-104.8131109,"location":"Freedom Hall","region":"Colo Springs","url":"https://www.coloradospringsaa.org/meetings/sunday-6-p-m-open-meeting/","timezone":"America/Denver"},{"feed":"coloradospringsaa.org","slug":"sunday-night-zoom-meeting","name":"Sunday Night Zoom Meeting","day":0,"time":"18:00","end_time":"19:00","types":["D","O","ONL"],"state":"CO","postal_code":"80918","city":"Colorado Springs","latitude":38.9043608,"longitude":-104.7637619,"location":"Colorado Springs, CO 80918","region":"Colo Springs","notes":"Meeting ID: 599 576 6411\nPasscode: sunday","conference_url":"https://zoom.us/j/5995766411?from=join#success","url":"https://www.coloradospringsaa.org/meetings/sunday-night-zoom-meeting/","timezone":"America/Denver"},{"feed":"daccaa.org","slug":"the-answers-are-in-the-book","name":"The Answers Are In The Book","day":0,"time":"18:00","end_time":"19:00","types":["B","O","EN"],"state":"CO","postal_code":"80030","city":"Westminster","address":"3440 W 71st Pl","latitude":39.8257779,"longitude":-105.0322836,"location":"Facility","region":"Westminster","url":"https://daccaa.org/meetings/the-answers-are-in-the-book/","group":"The Answers Are In The Book","timezone":"America/Denver"},{"feed":"coloradospringsaa.org","slug":"the-little-log-church-group-3","name":"The Little Log Cabin Group","day":0,"time":"18:00","end_time":"19:00","types":["D","O"],"state":"CO","postal_code":"80133","city":"Palmer Lake","address":"133 High St","latitude":39.1220389,"longitude":-104.9190374,"location":"Little Log Cabin","region":"Palmer Lake","url":"https://www.coloradospringsaa.org/meetings/the-little-log-church-group-3/","group":"The Little Log Cabin Group","timezone":"America/Denver"},{"feed":"nocoaa.org","slug":"your-life-group-8-0-1800","name":"Your Life Group","day":0,"time":"18:00","types":["D","O","X"],"state":"CO","postal_code":"80701","city":"Fort Morgan","address":"117 E Bijou Ave","latitude":40.2530828,"longitude":-103.8006613,"location":"United Methodist Church","timezone":"America/Denver"},{"feed":"daccaa.org","slug":"66-195","name":"Bring Your Big Book","day":0,"time":"18:30","end_time":"19:30","types":["B","O","X"],"state":"CO","postal_code":"80212","city":"Wheat Ridge","address":"5455 W 38th Ave Unit M","latitude":39.7698371,"longitude":-105.0560611,"location":"Club","region":"Wheat Ridge","url":"https://daccaa.org/meetings/66-195/","group":"Bring Your Big Book","timezone":"America/Denver"},{"feed":"puebloaa.org","slug":"canon-city-brown-baggers-12-x-12","name":"Canon City Brown Baggers 12 and 12","day":0,"time":"18:30","types":["12x12","LIT","O"],"state":"CO","postal_code":"81212","city":"Ca&ntilde;on City","address":"715 Elm Ave","latitude":38.4250659,"longitude":-105.234154,"location":"Canon City Alano Club","url":"https://www.puebloaa.org/meetings/canon-city-brown-baggers-12-x-12/","timezone":"America/Denver"},{"feed":"daccaa.org","slug":"step-by-step","name":"Step By Step","day":0,"time":"18:30","end_time":"19:30","types":["C","ST"],"state":"CO","postal_code":"80209","city":"Denver","address":"3690 E Cherry Creek S Dr","latitude":39.7096064,"longitude":-104.9472471,"location":"Church","region":"Denver","url":"https://daccaa.org/meetings/step-by-step/","group":"Step by Step","timezone":"America/Denver"},{"feed":"coloradospringsaa.org","slug":"the-way-christ-centered-2","name":"THE WAY (Christ Centered)","day":0,"time":"18:30","end_time":"19:30","state":"CO","postal_code":"80903","city":"Colorado Springs","address":"5 W Las Vegas St","latitude":38.818273,"longitude":-104.8266049,"location":"Springs Rescue Mission","region":"Colo Springs","url":"https://www.coloradospringsaa.org/meetings/the-way-christ-centered-2/","timezone":"America/Denver"},{"feed":"daccaa.org","slug":"161-405","name":"Fourth Dimension","day":0,"time":"19:00","end_time":"20:00","types":["C","X"],"state":"CO","postal_code":"80234","city":"Northglenn","address":"11674 Huron St Suite 400","latitude":39.9085309,"longitude":-104.9958878,"region":"Northglenn","url":"https://daccaa.org/meetings/161-405/","group":"Fourth Dimension","timezone":"America/Denver"},{"feed":"daccaa.org","slug":"194-467","name":"Happy Way","day":0,"time":"19:00","end_time":"20:00","types":["C"],"state":"CO","postal_code":"80113","city":"Englewood","address":"4300 S Lincoln St","latitude":39.6382498,"longitude":-104.9862098,"location":"Church","region":"Englewood","url":"https://daccaa.org/meetings/194-467/","group":"Happy Way","timezone":"America/Denver"},{"feed":"daccaa.org","slug":"201-1108","name":"Grupo Honestidad","day":0,"time":"19:00","end_time":"20:30","types":["O","S"],"state":"CO","postal_code":"80216","city":"Denver","address":"2320 E 46th Ave","latitude":39.779733,"longitude":-104.9585479,"location":"Denver, CO 80216","region":"Denver","url":"https://daccaa.org/meetings/201-1108/","group":"Grupo Honestidad","timezone":"America/Denver"},{"feed":"daccaa.org","slug":"24-69","name":"Any Lengths","day":0,"time":"19:00","end_time":"20:00","types":["O","X"],"state":"CO","postal_code":"80127","city":"Littleton","address":"10304 W Belleview Ave","latitude":39.6237741,"longitude":-105.1142468,"location":"Church","region":"Littleton","notes":"In person Tues, Wed, Thurs, & Sun.\nWednesdays ONLY, also join Via Zoom :\nMeeting ID: 846 876 5140\nPassword: serenity","url":"https://daccaa.org/meetings/24-69/","group":"Any Lengths","timezone":"America/Denver"},{"feed":"daccaa.org","slug":"250-573","name":"Midtown on the Park","day":0,"time":"19:00","end_time":"20:00","types":["LGBTQ","O"],"state":"CO","postal_code":"80218","city":"Denver","address":"980 N Clarkson St","latitude":39.7316995,"longitude":-104.9773209,"location":"Church","region":"Denver","url":"https://daccaa.org/meetings/250-573/","group":"Midtown on the Park","timezone":"America/Denver"},{"feed":"daccaa.org","slug":"363-881","name":"Sobriety First","day":0,"time":"19:00","end_time":"20:00","types":["O"],"state":"CO","postal_code":"80104","city":"Castle Rock","address":"615 Fourth St","latitude":39.3736891,"longitude":-104.8560879,"location":"Church","region":"Castle Rock","url":"https://daccaa.org/meetings/363-881/","group":"Sobriety First","timezone":"America/Denver"},{"feed":"daccaa.org","slug":"383-903","name":"Sun. Night Table Mtg","day":0,"time":"19:00","end_time":"20:00","types":["O","X"],"state":"CO","postal_code":"80433","city":"Conifer","address":"12795 US Hwy 285","latitude":39.4876588,"longitude":-105.3607574,"location":"Club","region":"Conifer","url":"https://daccaa.org/meetings/383-903/","group":"Sun. Night Table Mtg","timezone":"America/Denver"},{"feed":"daccaa.org","slug":"392-912","name":"Sunday Nighters","day":0,"time":"19:00","end_time":"20:00","types":["O","X"],"state":"CO","postal_code":"80121","city":"Centennial","address":"90 E Orchard Rd","latitude":39.6092249,"longitude":-104.9868097,"location":"Club","region":"Centennial","url":"https://daccaa.org/meetings/392-912/","group":"Sunday Nighters","timezone":"America/Denver"},{"feed":"daccaa.org","slug":"498-1195","name":"Sunday Men's","day":0,"time":"19:00","end_time":"20:00","types":["C","M","X"],"state":"CO","postal_code":"80013","city":"Aurora","address":"16732 E Iliff Ave","latitude":39.6725148,"longitude":-104.7941925,"location":"Club (Shop Ctr)","region":"Aurora","url":"https://daccaa.org/meetings/498-1195/","group":"Sunday Men's","timezone":"America/Denver"},{"feed":"daccaa.org","slug":"79-1565","name":"Sunday Night Promises","day":0,"time":"19:00","end_time":"20:00","types":["O","SP","X","ONL"],"state":"CO","postal_code":"80209","city":"Denver","latitude":39.7069307,"longitude":-104.9564084,"region":"Denver","notes":"Meeting ID: 862 7743 0557\nPassword: 121935","conference_url":"https://us02web.zoom.us/j/86277430557?pwd=ZmQ1U1NUQlQ3SkVyMFg5MkJRSk5UZz09","url":"https://daccaa.org/meetings/79-1565/","group":"Sunday Night Promises","timezone":"America/Denver"},{"feed":"daccaa.org","slug":"985-2541","name":"Sunday's Hope","day":0,"time":"19:00","end_time":"20:00","types":["D","O","X"],"state":"CO","postal_code":"80030","city":"Westminster","address":"3489 W 72nd Ave Rm 204","latitude":39.8277685,"longitude":-105.0317243,"location":"3489 W. 72nd Ave. (Rm 204)","region":"Westminster","url":"https://daccaa.org/meetings/985-2541/","group":"Sunday's Hope","timezone":"America/Denver"},{"feed":"daccaa.org","slug":"b2b","name":"B2B","day":0,"time":"19:00","end_time":"20:00","types":["BE","O","ST","ONL"],"state":"CO","postal_code":"80010","city":"Aurora","address":"10242 E 16th Ave","latitude":39.7418343,"longitude":-104.8686986,"location":"Club","region":"Aurora","notes":"Meeting ID: 6378444399\nPass: 548448","conference_url":"https://us02web.zoom.us/j/6378444399?pwd=Q0J6K2pvN2NMTEdZYXhrQk5hS2pwQT09","url":"https://daccaa.org/meetings/b2b/","group":"B2B","timezone":"America/Denver"},{"feed":"coloradospringsaa.org","slug":"downtown-club-open-discussion","name":"Downtown Club Open Discussion","day":0,"time":"19:00","end_time":"20:00","types":["D","O"],"state":"CO","postal_code":"80903","city":"Colorado Springs","address":"210 N Corona St","latitude":38.8370368,"longitude":-104.8165064,"location":"Downtown Club","region":"Colo Springs","url":"https://www.coloradospringsaa.org/meetings/downtown-club-open-discussion/","group":"Downtown Club","timezone":"America/Denver"},{"feed":"coloradospringsaa.org","slug":"easy-does-it-33","name":"Easy Does It Open Discussion","day":0,"time":"19:00","types":["D","O","X"],"state":"CO","postal_code":"80910","city":"Colorado Springs","address":"3760 Astrozon Blvd","latitude":38.7962551,"longitude":-104.7600493,"location":"Easy Does It Group","region":"Colo Springs","url":"https://www.coloradospringsaa.org/meetings/easy-does-it-33/","group":"Easy Does It Group","timezone":"America/Denver"},{"feed":"nocoaa.org","slug":"eaton-crow-group-0-1900","name":"Eaton Crow Group","day":0,"time":"19:00","types":["O"],"state":"CO","postal_code":"80615","city":"Eaton","address":"303 Maple Ave","latitude":40.5289969,"longitude":-104.7140425,"location":"Eaton Methodist Church/Fellowship","timezone":"America/Denver"},{"feed":"coaadistrict14.org","slug":"godless-heathens-2","name":"Godless Heathens","day":0,"time":"19:00","types":["D","O","ONL","TC"],"state":"CO","postal_code":"81623","city":"Carbondale","address":"981 Cowen Dr","latitude":39.4124967,"longitude":-107.2210661,"location":"The Meeting Place","url":"https://coaadistrict14.org/meetings/godless-heathens-2/","timezone":"America/Denver"},{"feed":"nocoaa.org","slug":"godless-heathens-aa-7-0-1900","name":"Godless Heathens AA","day":0,"time":"19:00","types":["O","A","EN","ONL"],"state":"CO","city":"Fort Collins","latitude":40.5852602,"longitude":-105.084423,"location":"Fort Collins","timezone":"America/Denver"},{"feed":"nocoaa.org","slug":"grupo-de-las-tinieblas-ala-luz-0-1900","name":"Grupo De Las Tinieblas ala Luz","day":0,"time":"19:00","types":["O","S"],"state":"CO","postal_code":"80631","city":"Greeley","address":"928 13th St","latitude":40.4181917,"longitude":-104.694143,"location":"928 13th St","timezone":"America/Denver"},{"feed":"daccaa.org","slug":"grupo-renovacon","name":"Grupo Renovacon","day":0,"time":"19:00","end_time":"21:00","types":["O","S"],"state":"CO","postal_code":"80219","city":"Denver","address":"3458 W 1st Ave","latitude":39.7180257,"longitude":-105.0330463,"location":"Denver, CO 80219","region":"Denver","url":"https://daccaa.org/meetings/grupo-renovacon/","group":"Grupo Renovacion","timezone":"America/Denver"},{"feed":"daccaa.org","slug":"into-the-triad-7","name":"Into The Triad","day":0,"time":"19:00","end_time":"20:00","types":["BE","O","ONL"],"state":"CO","city":"Arvada","latitude":39.8027644,"longitude":-105.0874842,"location":"Arvada, CO","region":"Arvada","conference_url":"https://us02web.zoom.us/j/9959012824","url":"https://daccaa.org/meetings/into-the-triad-7/","group":"Into The Triad","timezone":"America/Denver"},{"feed":"coaadistrict14.org","slug":"keys-to-the-kingdom","name":"Keys to the Kingdom","day":0,"time":"19:00","types":["D","O"],"state":"CO","postal_code":"81623","city":"Carbondale","address":"110 Snowmass Dr","latitude":39.3960181,"longitude":-107.2055998,"location":"The Orchard","url":"https://coaadistrict14.org/meetings/keys-to-the-kingdom/","timezone":"America/Denver"},{"feed":"daccaa.org","slug":"musicians-in-recovery","name":"Musicians In Recovery","day":0,"time":"19:00","end_time":"20:00","types":["O","ONL"],"state":"CO","postal_code":"80209","city":"Denver","address":"790 S Corona St","latitude":39.7022925,"longitude":-104.9742987,"location":"Church","region":"Denver","notes":"ID: 830 5650 0284\nPassword: mir2020","conference_url":"https://us02web.zoom.us/j/83056500284","url":"https://daccaa.org/meetings/musicians-in-recovery/","group":"Musicians In Recovery","timezone":"America/Denver"},{"feed":"coloradospringsaa.org","slug":"spiritual-nachos-online-only","name":"Spiritual Nachos - Online Only","day":0,"time":"19:00","end_time":"20:00","types":["ONL"],"state":"CO","postal_code":"80905","city":"Colorado Springs","latitude":38.8163486,"longitude":-104.8512993,"location":"Colorado Springs, CO","region":"Colo Springs","notes":"Zoom ID: 261 471 312 PW: Goredwings","conference_url":"https://zoom.us/j/261471312?from=join#success","url":"https://www.coloradospringsaa.org/meetings/spiritual-nachos-online-only/","group":"Spiritual Nachos","timezone":"America/Denver"},{"feed":"nocoaa.org","slug":"sterling-a-a-group-0-1900","name":"Sterling A.A. Group","day":0,"time":"19:00","types":["O"],"state":"CO","postal_code":"80751","city":"Sterling","address":"1325 N 7th St","latitude":40.6389355,"longitude":-103.2096583,"location":"1325 N. 7th St","timezone":"America/Denver"},{"feed":"coloradospringsaa.org","slug":"walk-the-talk-living-sober-limited-to-10-folks","name":"Walk the Talk 12x12 Open","day":0,"time":"19:00","end_time":"20:00","types":["D","LIT","O","ST","X","EN"],"state":"CO","postal_code":"80918","city":"Colorado Springs","address":"2334 Vickers Dr","latitude":38.9160564,"longitude":-104.7839606,"location":"Walk the Talk","region":"Colo Springs","notes":"Park on Tuckerman Street\n\n12 Steps & 12 Traditions","url":"https://www.coloradospringsaa.org/meetings/walk-the-talk-living-sober-limited-to-10-folks/","group":"Walk the Talk Group","timezone":"America/Denver"},{"feed":"daccaa.org","slug":"881-2667","name":"No Mental Defense","day":0,"time":"19:15","end_time":"20:15","types":["O","X"],"state":"CO","postal_code":"80215","city":"Lakewood","address":"10210 W 26th Ave","latitude":39.7542815,"longitude":-105.1127165,"location":"Building","region":"Lakewood","url":"https://daccaa.org/meetings/881-2667/","group":"No Mental Defense","timezone":"America/Denver"},{"feed":"daccaa.org","slug":"139-1954","name":"Grupo El Principio","day":0,"time":"19:30","end_time":"21:00","types":["O","S"],"state":"CO","postal_code":"80219","city":"Denver","address":"2420 S Federal Blvd","latitude":39.6727382,"longitude":-105.0241226,"location":"Denver, CO 80219","region":"Denver","url":"https://daccaa.org/meetings/139-1954/","group":"Grupo El Principio","timezone":"America/Denver"},{"feed":"daccaa.org","slug":"390-910","name":"Sunday Night Live","day":0,"time":"19:30","end_time":"20:30","types":["D","O","X"],"state":"CO","postal_code":"80004","city":"Arvada","address":"5927 Miller St","latitude":39.8039755,"longitude":-105.1148906,"location":"Church","region":"Arvada","url":"https://daccaa.org/meetings/390-910/","group":"Sunday Night Live","timezone":"America/Denver"},{"feed":"daccaa.org","slug":"432-989","name":"Vive y Deja Vivir","day":0,"time":"19:30","end_time":"21:00","types":["O","S"],"state":"CO","postal_code":"80010","city":"Aurora","address":"9057 E Colfax Ave Unit E","latitude":39.7402149,"longitude":-104.8827955,"location":"9057 E. Colfax Ave. Unit E","region":"Aurora","url":"https://daccaa.org/meetings/432-989/","group":"Vive y Deja Vivir","timezone":"America/Denver"},{"feed":"daccaa.org","slug":"518-1275","name":"I've Had Enough","day":0,"time":"19:30","end_time":"20:30","types":["CAN","O","X"],"state":"CO","postal_code":"80020","city":"Broomfield","address":"12099 Lowell Blvd","latitude":39.9167903,"longitude":-105.0350771,"location":"Church","region":"Broomfield","url":"https://daccaa.org/meetings/518-1275/","group":"I've Had Enough","timezone":"America/Denver"},{"feed":"daccaa.org","slug":"65-183","name":"Brighton #1","day":0,"time":"19:30","end_time":"20:30","types":["O","X"],"state":"CO","postal_code":"80601","city":"Brighton","address":"147 2nd Pl","latitude":39.9843642,"longitude":-104.8207249,"location":"147 S. 2nd Place","region":"Brighton","url":"https://daccaa.org/meetings/65-183/","group":"Brighton #1","timezone":"America/Denver"},{"feed":"daccaa.org","slug":"780-2027","name":"Grupo Los Buenos Veteranos","day":0,"time":"19:30","end_time":"21:00","types":["O","S"],"state":"CO","postal_code":"80014","city":"Aurora","address":"11000 E Yale Ave #80","latitude":39.6669399,"longitude":-104.860146,"location":"Aurora, CO 80014","region":"Aurora","url":"https://daccaa.org/meetings/780-2027/","group":"Grupo Los Buenos Veteranos","timezone":"America/Denver"},{"feed":"daccaa.org","slug":"828-2158","name":"Giving it Back","day":0,"time":"19:30","end_time":"20:30","types":["O","SP","X"],"state":"CO","postal_code":"80129","city":"Littleton","address":"8997 S Broadway","latitude":39.5544072,"longitude":-104.9912503,"location":"Church","region":"Highlands Ranch","url":"https://daccaa.org/meetings/828-2158/","group":"Giving it Back","timezone":"America/Denver"},{"feed":"nocoaa.org","slug":"friends-of-bill-w-2-0-1930","name":"Friends of Bill W.","day":0,"time":"19:30","types":["B","H","CAN","BE","O","SP","X"],"state":"CO","postal_code":"80521","city":"Fort Collins","address":"1200 S Taft Hill Rd","latitude":40.5705247,"longitude":-105.1146579,"location":"Shepard of The Hills Lutheran Church","timezone":"America/Denver"},{"feed":"nocoaa.org","slug":"loveland-group-4-0-1930","name":"Loveland AA Group","day":0,"time":"19:30","types":["D","BE","O","X"],"state":"CO","postal_code":"80538","city":"Loveland","address":"1 Aspen Dr","latitude":40.4241359,"longitude":-105.0954641,"location":"Park View Gardens Club House","timezone":"America/Denver"},{"feed":"nocoaa.org","slug":"primer-legado-3-0-1930","name":"Primer Legado","day":0,"time":"19:30","types":["S"],"state":"CO","postal_code":"80537","city":"Loveland","address":"102 E 3rd St","latitude":40.3943412,"longitude":-105.0758327,"location":"Unity Club","timezone":"America/Denver"},{"feed":"daccaa.org","slug":"s-o-b-e-r-3","name":"S.O.B.E.R.","day":0,"time":"19:30","end_time":"20:30","types":["O"],"state":"CO","postal_code":"80226","city":"Lakewood","address":"10576 W Alameda Ave","latitude":39.7104047,"longitude":-105.1163551,"location":"Club","region":"Lakewood","url":"https://daccaa.org/meetings/s-o-b-e-r-3/","group":"S.O.B.E.R.","timezone":"America/Denver"},{"feed":"daccaa.org","slug":"100-alibis","name":"No Drinkin', No Thinkin'","day":0,"time":"20:00","end_time":"21:00","types":["O"],"state":"CO","postal_code":"80206","city":"Denver","address":"1311 York St","latitude":39.7369585,"longitude":-104.9599915,"location":"Club","region":"Denver","url":"https://daccaa.org/meetings/100-alibis/","group":"No Drinkin', No Thinkin'","timezone":"America/Denver"},{"feed":"daccaa.org","slug":"184-447","name":"Guardian","day":0,"time":"20:00","end_time":"21:00","types":["D","BE","O","ST","X"],"state":"CO","postal_code":"80210","city":"Denver","address":"1400 S University Blvd","latitude":39.6909224,"longitude":-104.9588727,"location":"Church (Rear SE Door)","region":"Denver","url":"https://daccaa.org/meetings/184-447/","group":"Guardian","timezone":"America/Denver"},{"feed":"daccaa.org","slug":"510-2581","name":"Oasis Group","day":0,"time":"20:00","end_time":"21:00","types":["O","X"],"state":"CO","postal_code":"80227","city":"Lakewood","address":"3355 S Wadsworth Blvd H125","latitude":39.6543786,"longitude":-105.0823309,"location":"Club","region":"Lakewood","url":"https://daccaa.org/meetings/510-2581/","group":"Oasis Group","timezone":"America/Denver"},