[{"feed":"aaftwayne.org","slug":"upon-awakening-zoom","name":"Upon Awakening Zoom","day":0,"time":"06:00","end_time":"07:00","types":["GR","ONL"],"state":"IN","city":"Fort Wayne","latitude":41.079273,"longitude":-85.1393513,"location":"ONLINE-FORT WAYNE","region":"Fort Wayne","notes":"Grapevine, Language of The Heart","conference_url":"https://zoom.us/j/4955309233","url":"https://www.aafortwayne.org/meetings/upon-awakening-zoom/","timezone":"America/New_York"},{"feed":"aaftwayne.org","slug":"albion-pilot-house","name":"Albion Pilot House","day":0,"time":"07:00","end_time":"08:00","types":["C"],"state":"IN","postal_code":"46701","city":"Albion","address":"1126 E Main St","latitude":41.3955719,"longitude":-85.4073869,"location":"Pilot House","region":"Kendallville","url":"https://www.aafortwayne.org/meetings/albion-pilot-house/","timezone":"America/New_York"},{"feed":"southwesternindianaaa.org","slug":"c-l-upstairs","name":"Colombia and Linwood (upstairs)","day":0,"time":"07:00","end_time":"08:00","types":["B","O"],"state":"IN","postal_code":"47711","city":"Evansville","address":"761 E Columbia St","latitude":37.9845113,"longitude":-87.553166,"location":"Colombia and Linwood","region":"South Western Indiana","url":"https://southwesternindianaaa.org/meetings/c-l-upstairs/","group":"Colombia and Linwood","timezone":"America/Chicago"},{"feed":"indyaa.org","slug":"sunday-7-am-mens-dialogue-group","name":"Sunday 7 AM Men's Dialogue Group","day":0,"time":"07:00","types":["C","D"],"state":"IN","postal_code":"46205","city":"Indianapolis","address":"4627 Carvel Ave","latitude":39.8408575,"longitude":-86.1388834,"location":"Carvel Club","region":"INDPLS-North","notes":"No Smoking, Men's, Wheelchair Accessible","url":"https://indyaa.org/meetings/sunday-7-am-mens-dialogue-group/","timezone":"America/Indiana/Indianapolis"},{"feed":"indyaa.org","slug":"sunday-at-seven","name":"Sunday at Seven","day":0,"time":"07:00","types":["C","D"],"state":"IN","postal_code":"46205","city":"Indianapolis","address":"4627 Carvel Ave","latitude":39.8408575,"longitude":-86.1388834,"location":"Carvel Club","region":"INDPLS-North","notes":"No Smoking, Wheelchair Accessible","url":"https://indyaa.org/meetings/sunday-at-seven/","timezone":"America/Indiana/Indianapolis"},{"feed":"indyaa.org","slug":"we-are-not-saints-north-6","name":"We Are Not Saints (North)","day":0,"time":"07:00","end_time":"07:45","types":["D","O"],"state":"IN","postal_code":"46032","city":"Carmel","address":"14598 Oak Ridge Rd","latitude":39.9990286,"longitude":-86.1481687,"location":"Our Lady of Mount Carmel Church","region":"N-Carmel","url":"https://indyaa.org/meetings/we-are-not-saints-north-6/","timezone":"America/Indiana/Indianapolis"},{"feed":"indyaa.org","slug":"winners-circle-6","name":"Winners Circle","day":0,"time":"07:00","types":["D","O"],"state":"IN","postal_code":"46060","city":"Noblesville","address":"16065 Prosperity Dr","latitude":40.022401,"longitude":-85.999253,"location":"Suburban North Club","region":"N-Noblesville","notes":"No Smoking, Wheelchair Accessible","url":"https://indyaa.org/meetings/winners-circle-6/","timezone":"America/Indiana/Indianapolis"},{"feed":"aaftwayne.org","slug":"early-bird-grapevine-zoom-meeting","name":"Early Bird Grapevine Zoom Meeting","day":0,"time":"07:30","end_time":"08:30","types":["C","DB","GR","ONL"],"state":"IN","city":"Fort Wayne","latitude":41.079273,"longitude":-85.1393513,"location":"ONLINE-FORT WAYNE","region":"Fort Wayne","conference_url":"https://zoom.us/j/84497066312","url":"https://www.aafortwayne.org/meetings/early-bird-grapevine-zoom-meeting/","timezone":"America/New_York"},{"feed":"aaftwayne.org","slug":"earlybird-grapevine-meeting","name":"EARLYBIRD GRAPEVINE MEETING","day":0,"time":"07:30","types":["C","GR","X"],"state":"IN","postal_code":"46807","city":"Fort Wayne","address":"5310 Old Mill Rd","latitude":41.0348071,"longitude":-85.1512177,"location":"UNITARIAN CHURCH","region":"Fort Wayne","url":"https://www.aafortwayne.org/meetings/earlybird-grapevine-meeting/","group":"177259 (22) (65)","timezone":"America/New_York"},{"feed":"southwesternindianaaa.org","slug":"c-l-11","name":"Colombia and Linwood","day":0,"time":"08:00","end_time":"09:00","types":["B","O","X"],"state":"IN","postal_code":"47711","city":"Evansville","address":"761 E Columbia St","latitude":37.9845113,"longitude":-87.553166,"location":"Colombia and Linwood","region":"South Western Indiana","url":"https://southwesternindianaaa.org/meetings/c-l-11/","group":"Colombia and Linwood","timezone":"America/Chicago"},{"feed":"aaftwayne.org","slug":"lagrange-closed-no-slips","name":"Sunday Morning Solutions Group","day":0,"time":"08:00","types":["C","D"],"state":"IN","postal_code":"46761","city":"LaGrange","address":"880 N 075 E","latitude":41.6541738,"longitude":-85.4126477,"location":"Meridian Sun Lodge","region":"Lagrange","notes":"No Slips","url":"https://www.aafortwayne.org/meetings/lagrange-closed-no-slips/","timezone":"America/New_York"},{"feed":"aaftwayne.org","slug":"step-house-speaker-meeting","name":"step house speaker meeting","day":0,"time":"08:00","end_time":"09:00","types":["O","SP"],"state":"IN","postal_code":"46802","city":"Fort Wayne","address":"1317 W Washington Blvd","latitude":41.074366,"longitude":-85.1559718,"location":"13 Step House","region":"Fort Wayne","url":"https://www.aafortwayne.org/meetings/step-house-speaker-meeting/","timezone":"America/New_York"},{"feed":"indyaa.org","slug":"veterans-recovery-through-the-ranks","name":"Veterans Recovery Through the Ranks","day":0,"time":"08:00","end_time":"09:00","types":["C","D"],"state":"IN","postal_code":"46060","city":"Noblesville","address":"16065 Prosperity Dr","latitude":40.022401,"longitude":-85.999253,"location":"Suburban North Club","region":"N-Noblesville","notes":"No Smoking, Wheelchair accessible","url":"https://indyaa.org/meetings/veterans-recovery-through-the-ranks/","timezone":"America/Indiana/Indianapolis"},{"feed":"indyaa.org","slug":"northwest-earlybird","name":"Northwest Earlybird","day":0,"time":"08:15","end_time":"09:15","types":["D","O","SP"],"state":"IN","postal_code":"46231","city":"Indianapolis","address":"118 S Girls School Rd","latitude":39.7633309,"longitude":-86.2896778,"location":"Paragon Family Restaurant (Rockville Plaza)","region":"INDPLS-West","notes":"*Breakfast: 7:45-8:15 AM* Last Sunday of the month, Al-Anon participation. No Smoking","url":"https://indyaa.org/meetings/northwest-earlybird/","timezone":"America/Indiana/Indianapolis"},{"feed":"indyaa.org","slug":"11th-step-meditation-mtg","name":"11th Step Meditation Mtg","day":0,"time":"08:30","end_time":"09:30","types":["O"],"state":"IN","postal_code":"46060","city":"Noblesville","address":"16065 Prosperity Dr","latitude":40.022401,"longitude":-85.999253,"location":"Suburban North Club","region":"N-Noblesville","url":"https://indyaa.org/meetings/11th-step-meditation-mtg/","timezone":"America/Indiana/Indianapolis"},{"feed":"indyaa.org","slug":"got-home-group","name":"Got Home Group?","day":0,"time":"09:00","types":["C","D"],"state":"IN","postal_code":"46205","city":"Indianapolis","address":"4627 Carvel Ave","latitude":39.8408575,"longitude":-86.1388834,"location":"Carvel Club","region":"INDPLS-North","notes":"Name change was \"Sunday at 9AM Group\"\"\"nnNo Smoking, Wheelchair Accessible","url":"https://indyaa.org/meetings/got-home-group/","timezone":"America/Indiana/Indianapolis"},{"feed":"southwesternindianaaa.org","slug":"grapevine","name":"Grapevine","day":0,"time":"09:00","end_time":"10:00","types":["O","D"],"state":"IN","postal_code":"47546","city":"Jasper","address":"424 W 7th St","latitude":38.3922926,"longitude":-86.9367208,"location":"Brosmer House","region":"Jasper","url":"https://southwesternindianaaa.org/meetings/grapevine/","timezone":"America/Chicago"},{"feed":"indyaa.org","slug":"sunday-mens-breakfast","name":"Sunday Men's Breakfast","day":0,"time":"09:00","end_time":"10:00","types":["D","O"],"state":"IN","postal_code":"46202","city":"Indianapolis","address":"201 Shelby St","latitude":39.7635595,"longitude":-86.1390844,"location":"Progress House","region":"INDPLS-Midtown","notes":"Breakfast 7:30 AM to 8:30 AMnnNo Smoking, Men's","url":"https://indyaa.org/meetings/sunday-mens-breakfast/","group":"The Gary B. Group","timezone":"America/Indiana/Indianapolis"},{"feed":"aaftwayne.org","slug":"sunday-morning-aa","name":"Sunday Morning AA","day":0,"time":"09:00","end_time":"10:00","types":["D","TC","O","ONL"],"state":"IN","postal_code":"46815","city":"Fort Wayne","address":"2118 Inwood Dr","latitude":41.0962348,"longitude":-85.0867508,"location":"Intergroup Office","region":"Fort Wayne","notes":"Zoom Meeting Only","conference_url":"https://zoom.us/j/539083211","url":"https://www.aafortwayne.org/meetings/sunday-morning-aa/","timezone":"America/New_York"},{"feed":"aaftwayne.org","slug":"daily-reflections-group","name":"DAILY REFLECTIONS GROUP","day":0,"time":"09:30","types":["D","O","X"],"state":"IN","postal_code":"46808","city":"Fort Wayne","address":"1118 Spring St","latitude":41.0889893,"longitude":-85.1567874,"location":"Club Oassis","region":"Fort Wayne","url":"https://www.aafortwayne.org/meetings/daily-reflections-group/","group":"112322 (22) (67)","timezone":"America/New_York"},{"feed":"southwesternindianaaa.org","slug":"sun-morning-gratitude-osiii","name":"Sun Morning Gratitude","day":0,"time":"09:30","end_time":"10:30","types":["O","X"],"state":"IN","postal_code":"47713","city":"Evansville","address":"770 E Walnut St","latitude":37.9740792,"longitude":-87.5530664,"location":"Old Stone 3 (OSIII)","region":"South Western Indiana","url":"https://southwesternindianaaa.org/meetings/sun-morning-gratitude-osiii/","group":"Old Stone 3 (OSIII)","timezone":"America/Chicago"},{"feed":"indyaa.org","slug":"sunday-morning-breakfast","name":"Sunday Morning Breakfast","day":0,"time":"09:30","end_time":"10:30","types":["O","SP"],"state":"IN","postal_code":"46256","city":"Indianapolis","address":"8102 Clearvista Pkwy","latitude":39.9032673,"longitude":-86.0408188,"location":"Fairbanks Hospital","region":"INDPLS-North","notes":"Room 219, Wheelchair accessible","url":"https://indyaa.org/meetings/sunday-morning-breakfast/","timezone":"America/Indiana/Indianapolis"},{"feed":"southwesternindianaaa.org","slug":"big-book-comes-alive-osiii","name":"Big Book Comes Alive","day":0,"time":"10:00","end_time":"11:00","types":["O","X"],"state":"IN","postal_code":"47713","city":"Evansville","address":"770 E Walnut St","latitude":37.9740792,"longitude":-87.5530664,"location":"Old Stone 3 (OSIII)","region":"South Western Indiana","url":"https://southwesternindianaaa.org/meetings/big-book-comes-alive-osiii/","group":"Old Stone 3 (OSIII)","timezone":"America/Chicago"},{"feed":"southwesternindianaaa.org","slug":"c-l-10","name":"Colombia and Linwood","day":0,"time":"10:00","end_time":"11:00","types":["O","X"],"state":"IN","postal_code":"47711","city":"Evansville","address":"761 E Columbia St","latitude":37.9845113,"longitude":-87.553166,"location":"Colombia and Linwood","region":"South Western Indiana","url":"https://southwesternindianaaa.org/meetings/c-l-10/","group":"Colombia and Linwood","timezone":"America/Chicago"},{"feed":"southwesternindianaaa.org","slug":"newburgh-aa","name":"Newburgh AA","day":0,"time":"10:00","end_time":"11:00","types":["D","O"],"state":"IN","postal_code":"47630","city":"Newburgh","address":"310 Filmore St","latitude":37.947492,"longitude":-87.4068252,"location":"Kiwanis Bldg","region":"South Western Indiana","url":"https://southwesternindianaaa.org/meetings/newburgh-aa/","group":"Newburgh AA","timezone":"America/Chicago"},{"feed":"aaftwayne.org","slug":"parkview-hospital-huntington","name":"PARKVIEW HOSPITAL HUNTINGTON","day":0,"time":"10:00","types":["O","X"],"state":"IN","postal_code":"46750","city":"Huntington","address":"2001 Stults Rd","latitude":40.9047842,"longitude":-85.4879768,"location":"Parkview Hospital Huntington","region":"Huntington","url":"https://www.aafortwayne.org/meetings/parkview-hospital-huntington/","timezone":"America/New_York"},{"feed":"aaftwayne.org","slug":"serenity-house","name":"SERENITY HOUSE","day":0,"time":"10:00","types":["D","O"],"state":"IN","postal_code":"46706","city":"Auburn","address":"2278 Co Rd 50","latitude":41.3423287,"longitude":-85.0834251,"location":"Serenity House #2","region":"Auburn","url":"https://www.aafortwayne.org/meetings/serenity-house/","timezone":"America/New_York"},{"feed":"indyaa.org","slug":"h-m-s-meeting","name":"Hitting Monday Sober Group","day":0,"time":"10:30","types":["C","D"],"state":"IN","postal_code":"46214","city":"Indianapolis","address":"6450 W 10th St","latitude":39.7798828,"longitude":-86.2745023,"location":"Westside Club","region":"INDPLS-West","notes":"No Smoking","url":"https://indyaa.org/meetings/h-m-s-meeting/","timezone":"America/Indiana/Indianapolis"},{"feed":"louisvilleaa.org","slug":"horse-shoe-group","name":"Horse Shoe Group","day":0,"time":"10:30","types":["D","O","X"],"state":"IN","postal_code":"47150","city":"New Albany","address":"506 Pearl St","latitude":38.2874547,"longitude":-85.8234052,"location":"Floyd County Token Club","region":"Floyd County IN","url":"https://loukyaa.org/meetings/horse-shoe-group/","group":"Horse Shoe Group","timezone":"America/Kentucky/Louisville"},{"feed":"indyaa.org","slug":"sunday-morning-after","name":"Sunday Morning After","day":0,"time":"10:30","types":["D","O"],"state":"IN","postal_code":"46225","city":"Indianapolis","address":"259 E Raymond St","latitude":39.736959,"longitude":-86.1520044,"location":"Southside Fellowship Center","region":"INDPLS-South","notes":"No Smoking, Wheelchair Accessible","url":"https://indyaa.org/meetings/sunday-morning-after/","timezone":"America/Indiana/Indianapolis"},{"feed":"indyaa.org","slug":"11am-closed-discussion-group","name":"Solutions","day":0,"time":"11:00","types":["D","O"],"state":"IN","postal_code":"46060","city":"Noblesville","address":"16065 Prosperity Dr","latitude":40.022401,"longitude":-85.999253,"location":"Suburban North Club","region":"N-Noblesville","notes":"No Smoking, Wheelchair Accessible","url":"https://indyaa.org/meetings/11am-closed-discussion-group/","timezone":"America/Indiana/Indianapolis"},{"feed":"indyaa.org","slug":"eastside-sunday-morning","name":"Eastside Sunday Morning","day":0,"time":"11:00","types":["O","SP"],"state":"IN","postal_code":"46219","city":"Indianapolis","address":"441 S Ritter Ave","latitude":39.7615058,"longitude":-86.0730576,"location":"Club East","region":"INDPLS-East","notes":"No Smoking, Wheelchair Accessible","url":"https://indyaa.org/meetings/eastside-sunday-morning/","timezone":"America/Indiana/Indianapolis"},{"feed":"indyaa.org","slug":"franklin-serenity-group-2","name":"Franklin Serenity Group","day":0,"time":"11:00","types":["C","D","LIT"],"state":"IN","postal_code":"46131","city":"Franklin","address":"550 E Jefferson St 2nd Floor","latitude":39.4811637,"longitude":-86.0484194,"location":"Alva Neal Building","region":"S-Franklin","notes":"Literature Meeting. No Smoking. Group does not sign attendance sheets","url":"https://indyaa.org/meetings/franklin-serenity-group-2/","timezone":"America/Indiana/Indianapolis"},{"feed":"indyaa.org","slug":"get-sober-or-die","name":"Get Sober or Die","day":0,"time":"11:00","types":["C","D"],"state":"IN","postal_code":"46227","city":"Indianapolis","address":"3333 Thompson Rd","latitude":39.6937887,"longitude":-86.1068236,"location":"Shirley Brothers Mortuary","region":"INDPLS-South","notes":"No Smoking","url":"https://indyaa.org/meetings/get-sober-or-die/","timezone":"America/Indiana/Indianapolis"},{"feed":"indyaa.org","slug":"sunday-beginners-group","name":"Sunday Beginners Group","day":0,"time":"11:00","types":["D","O"],"state":"IN","postal_code":"46060","city":"Noblesville","address":"16065 Prosperity Dr","latitude":40.022401,"longitude":-85.999253,"location":"Suburban North Club","region":"N-Noblesville","notes":"No Smoking, Wheelchair Accessible","url":"https://indyaa.org/meetings/sunday-beginners-group/","timezone":"America/Indiana/Indianapolis"},{"feed":"southwesternindianaaa.org","slug":"sunday-morning-rescue","name":"Sunday Morning Rescue","day":0,"time":"11:00","end_time":"12:00","types":["B","M"],"state":"IN","postal_code":"47630","city":"Newburgh","address":"10800 Lincoln Ave","latitude":37.9712249,"longitude":-87.4472646,"location":"Crossroads Christian Church","region":"South Western Indiana","notes":"Room 203 upstairs\nWheelchair accessible with elevator","url":"https://southwesternindianaaa.org/meetings/sunday-morning-rescue/","timezone":"America/Chicago"},{"feed":"southwesternindianaaa.org","slug":"root-and-branch","name":"Root and Branch","day":0,"time":"11:30","end_time":"12:30","types":["D","O"],"state":"IN","postal_code":"47710","city":"Evansville","address":"1516 N Main St","latitude":37.9919295,"longitude":-87.56394,"location":"Dream Center","region":"South Western Indiana","url":"https://southwesternindianaaa.org/meetings/root-and-branch/","timezone":"America/Chicago"},{"feed":"indyaa.org","slug":"broad-ripple-park-nooner-6","name":"Broad Ripple Park Nooner","day":0,"time":"12:00","end_time":"13:00","types":["D","O"],"state":"IN","postal_code":"46220","city":"Indianapolis","address":"6185 Guilford Ave","latitude":39.8680593,"longitude":-86.1426487,"location":"St. Lukes United Methodist Church - Midtown (Broad Ripple)","region":"INDPLS-North","notes":"Church is South of 62nd St across from the old Kroger on GuilfordnIn the event the meeting will be back at the park, a sign will be posted at the church. For questions, contact the Intergroup office.","url":"https://indyaa.org/meetings/broad-ripple-park-nooner-6/","timezone":"America/Indiana/Indianapolis"},{"feed":"aaftwayne.org","slug":"club-recovery","name":"CLUB RECOVERY","day":0,"time":"12:00","types":["C"],"state":"IN","postal_code":"46755","city":"Kendallville","address":"1110 Dowling St","latitude":41.4461637,"longitude":-85.2485626,"location":"Club Recovery","region":"Kendallville","url":"https://www.aafortwayne.org/meetings/club-recovery/","timezone":"America/New_York"},{"feed":"indyaa.org","slug":"friends-of-bill-w-2","name":"Friends of Bill W","day":0,"time":"12:00","end_time":"13:00","types":["O","SP","ONL"],"state":"IN","postal_code":"46260","city":"Indianapolis","address":"1801 W 86th St","latitude":39.9104868,"longitude":-86.1922597,"location":"St. Vincent Ascension Simulation Center","region":"INDPLS-North","conference_url":"https://us02web.zoom.us/j/93024724224?pwd=blNJMzRNZ29XMDZXeHUrZWV1WUxkUT09","url":"https://indyaa.org/meetings/friends-of-bill-w-2/","timezone":"America/Indiana/Indianapolis"},{"feed":"indyaa.org","slug":"sunday-brunch-bunch","name":"Sunday Brunch Bunch","day":0,"time":"12:00","types":["O","SP"],"state":"IN","postal_code":"46205","city":"Indianapolis","address":"4627 Carvel Ave","latitude":39.8408575,"longitude":-86.1388834,"location":"Carvel Club","region":"INDPLS-North","notes":"No Smoking, Wheelchair Accessible","url":"https://indyaa.org/meetings/sunday-brunch-bunch/","timezone":"America/Indiana/Indianapolis"},{"feed":"louisvilleaa.org","slug":"tee-pee-group","name":"Tee Pee Group","day":0,"time":"12:00","end_time":"13:00","types":["O","SP"],"state":"IN","postal_code":"47129","city":"Clarksville","address":"202 Homestead Ave","latitude":38.2853802,"longitude":-85.754133,"location":"The Recovery Complex","region":"Clark County, IN","url":"https://loukyaa.org/meetings/tee-pee-group/","group":"Tee Pee Group","timezone":"America/Kentucky/Louisville"},{"feed":"indyaa.org","slug":"more-about-alcoholism","name":"More About Alcoholism","day":0,"time":"13:00","types":["D","O"],"state":"IN","postal_code":"46140","city":"Greenfield","address":"226 Cherry St","latitude":39.7884871,"longitude":-85.7527653,"location":"Greenfield Way Out Club","region":"E-Greenfield","notes":"No Smoking, Wheelchair Accessible","url":"https://indyaa.org/meetings/more-about-alcoholism/","timezone":"America/Indiana/Indianapolis"},{"feed":"indyaa.org","slug":"shelbyville-living-sober-group","name":"Shelbyville Living Sober Group","day":0,"time":"13:30","types":["D","O"],"state":"IN","postal_code":"46176","city":"Shelbyville","address":"62 3rd St","latitude":39.5149896,"longitude":-85.7759954,"location":"Dry Dock Club","region":"S-Shelbyville","notes":"No Smoking, Wheelchair Accessible","url":"https://indyaa.org/meetings/shelbyville-living-sober-group/","timezone":"America/Indiana/Indianapolis"},{"feed":"indyaa.org","slug":"we-agnostics","name":"We Agnostics (Sunday)","day":0,"time":"13:30","types":["C","D"],"state":"IN","postal_code":"46205","city":"Indianapolis","address":"4627 Carvel Ave","latitude":39.8408575,"longitude":-86.1388834,"location":"Carvel Club","region":"INDPLS-North","notes":"No Smoking, Wheelchair Accessible","url":"https://indyaa.org/meetings/we-agnostics/","timezone":"America/Indiana/Indianapolis"},{"feed":"southwesternindianaaa.org","slug":"daylight-sobriety","name":"Daylight Sobriety","day":0,"time":"14:00","end_time":"15:00","types":["D","O","X"],"state":"IN","postal_code":"47725","city":"Evansville","address":"5301 Daylight Dr","latitude":38.0901263,"longitude":-87.48539,"location":"St. John the Evangelist Catholic Church","region":"South Western Indiana","url":"https://southwesternindianaaa.org/meetings/daylight-sobriety/","group":"Daylight Sobriety","timezone":"America/Chicago"},{"feed":"aaftwayne.org","slug":"grapenuts-grapevine-discussion","name":"GRAPENUTS GRAPEVINE DISCUSSION","day":0,"time":"14:00","types":["O","D","X"],"state":"IN","postal_code":"46808","city":"Fort Wayne","address":"1118 Spring St","latitude":41.0889893,"longitude":-85.1567874,"location":"Club Oassis","region":"Fort Wayne","url":"https://www.aafortwayne.org/meetings/grapenuts-grapevine-discussion/","group":"609350 (22) (67)","timezone":"America/New_York"},{"feed":"indyaa.org","slug":"stuck-on-sobriety","name":"Stuck on Sobriety","day":0,"time":"14:00","types":["C","D"],"state":"IN","postal_code":"46219","city":"Indianapolis","address":"441 S Ritter Ave","latitude":39.7615058,"longitude":-86.0730576,"location":"Club East","region":"INDPLS-East","notes":"No Smoking, Wheelchair Accessible","url":"https://indyaa.org/meetings/stuck-on-sobriety/","timezone":"America/Indiana/Indianapolis"},{"feed":"southwesternindianaaa.org","slug":"challengers-osiii","name":"Challengers @OSIII","day":0,"time":"14:30","end_time":"15:30","types":["B","O","X"],"state":"IN","postal_code":"47713","city":"Evansville","address":"770 E Walnut St","latitude":37.9740792,"longitude":-87.5530664,"location":"Old Stone 3 (OSIII)","region":"South Western Indiana","url":"https://southwesternindianaaa.org/meetings/challengers-osiii/","group":"Old Stone 3 (OSIII)","timezone":"America/Chicago"},{"feed":"aaftwayne.org","slug":"just-for-today-5","name":"Just For Today","day":0,"time":"15:00","end_time":"16:00","types":["D","O","ONL"],"state":"IN","city":"Fort Wayne","latitude":41.079273,"longitude":-85.1393513,"location":"ONLINE-FORT WAYNE","region":"Fort Wayne","notes":"Zoom Meeting Only","conference_url":"https://zoom.us/j/5094889363","url":"https://www.aafortwayne.org/meetings/just-for-today-5/","timezone":"America/New_York"},{"feed":"indyaa.org","slug":"sunday-afternoon-sobriety-group","name":"Sunday Afternoon Sobriety Group","day":0,"time":"15:30","types":["D","O"],"state":"IN","postal_code":"46219","city":"Indianapolis","address":"441 S Ritter Ave","latitude":39.7615058,"longitude":-86.0730576,"location":"Club East","region":"INDPLS-East","notes":"No Smoking, Wheelchair Accessible","url":"https://indyaa.org/meetings/sunday-afternoon-sobriety-group/","timezone":"America/Indiana/Indianapolis"},{"feed":"indyaa.org","slug":"dont-hide-your-pride","name":"Don't Hide Your Pride","day":0,"time":"16:00","end_time":"17:00","types":["D","LGBTQ","O"],"state":"IN","postal_code":"46060","city":"Noblesville","address":"16065 Prosperity Dr","latitude":40.022401,"longitude":-85.999253,"location":"Suburban North Club","region":"N-Noblesville","url":"https://indyaa.org/meetings/dont-hide-your-pride/","timezone":"America/Indiana/Indianapolis"},{"feed":"indyaa.org","slug":"easy-hour-step-study-group","name":"Easy Hour Step Study Group","day":0,"time":"16:00","types":["C","D","LIT"],"state":"IN","postal_code":"46158","city":"Mooresville","address":"900 Indianapolis Rd","latitude":39.6259335,"longitude":-86.3666222,"location":"United Methodist Church-Mooresville","region":"W-Mooresville","notes":"*Enter Rear Door #7* No Smoking","url":"https://indyaa.org/meetings/easy-hour-step-study-group/","timezone":"America/Indiana/Indianapolis"},{"feed":"aaftwayne.org","slug":"how-it-works","name":"HOW IT WORKS","day":0,"time":"16:00","types":["D","O"],"state":"IN","postal_code":"46835","city":"Fort Wayne","address":"10145 Maysville Rd","latitude":41.1291682,"longitude":-85.0145448,"location":"Taylor Chapel Church","region":"Fort Wayne","notes":"Orientation Meeting","url":"https://www.aafortwayne.org/meetings/how-it-works/","group":"723818 (22) (65)","timezone":"America/New_York"},{"feed":"aaftwayne.org","slug":"as-bill-sees-it","name":"As Bill Sees It","day":0,"time":"17:00","end_time":"18:00","types":["ABSI","O"],"state":"IN","postal_code":"46703","city":"Angola","address":"225 W Maumee St","latitude":41.6346209,"longitude":-85.0013963,"location":"Alano Club","region":"Angola","url":"https://www.aafortwayne.org/meetings/as-bill-sees-it/","timezone":"America/New_York"},{"feed":"aaftwayne.org","slug":"dream-catchers","name":"Dream Catchers","day":0,"time":"17:00","end_time":"18:00","types":["C","D","W"],"state":"IN","postal_code":"46703","city":"Angola","address":"909 S Darling St","latitude":41.6252852,"longitude":-85.0035387,"location":"Holy Family Episcopal","region":"Angola","url":"https://www.aafortwayne.org/meetings/dream-catchers/","timezone":"America/New_York"},{"feed":"indyaa.org","slug":"sober-af","name":"Sober AF","day":0,"time":"17:00","end_time":"18:00","types":["D","O"],"state":"IN","postal_code":"46205","city":"Indianapolis","address":"4627 Carvel Ave","latitude":39.8408575,"longitude":-86.1388834,"location":"Carvel Club","region":"INDPLS-North","url":"https://indyaa.org/meetings/sober-af/","timezone":"America/Indiana/Indianapolis"},{"feed":"southwesternindianaaa.org","slug":"c-l-7","name":"Colombia and Linwood","day":0,"time":"17:30","end_time":"18:30","types":["D","O","X"],"state":"IN","postal_code":"47711","city":"Evansville","address":"761 E Columbia St","latitude":37.9845113,"longitude":-87.553166,"location":"Colombia and Linwood","region":"South Western Indiana","url":"https://southwesternindianaaa.org/meetings/c-l-7/","group":"Colombia and Linwood","timezone":"America/Chicago"},{"feed":"indyaa.org","slug":"into-action","name":"Into Action","day":0,"time":"17:30","end_time":"18:45","types":["B","D"],"state":"IN","postal_code":"46202","city":"Indianapolis","address":"1424 Central Ave","latitude":39.7861231,"longitude":-86.1497502,"location":"Talbot House","region":"INDPLS-Midtown","notes":"This is a Big Book STUDY","url":"https://indyaa.org/meetings/into-action/","timezone":"America/Indiana/Indianapolis"},{"feed":"southwesternindianaaa.org","slug":"mc-group-sunday","name":"MC Group Sunday","day":0,"time":"17:30","end_time":"18:30","types":["D","O"],"state":"IN","postal_code":"47601","city":"Boonville","address":"326 E Locust St","latitude":38.0492494,"longitude":-87.2709344,"location":"Strangers Rest Masonic Lodge","region":"South Western Indiana","url":"https://southwesternindianaaa.org/meetings/mc-group-sunday/","group":"MC Group","timezone":"America/Chicago"},{"feed":"indyaa.org","slug":"road-to-recovery-paragon","name":"Road to Recovery Paragon","day":0,"time":"18:00","end_time":"19:00","types":["D","O"],"state":"IN","postal_code":"46166","city":"Paragon","address":"Main St","latitude":39.3954177,"longitude":-86.56249,"location":"Paragon Christian Church (290 Main Street)","region":"S-Paragon","url":"https://indyaa.org/meetings/road-to-recovery-paragon/","timezone":"America/Indiana/Indianapolis"},{"feed":"indyaa.org","slug":"serenity-on-the-mount-sunday-discussion","name":"Serenity on the Mount Sunday Discussion","day":0,"time":"18:00","end_time":"19:00","types":["D","O"],"state":"IN","postal_code":"46151","city":"Martinsville","address":"3600 Wilbur Rd","latitude":39.4777346,"longitude":-86.4694223,"location":"Mt. Olive United Methodist Church","region":"S-Martinsville","url":"https://indyaa.org/meetings/serenity-on-the-mount-sunday-discussion/","timezone":"America/Indiana/Indianapolis"},{"feed":"indyaa.org","slug":"sisters-in-sobriety-today","name":"Sisters In Sobriety Today","day":0,"time":"18:00","types":["D","O","W"],"state":"IN","postal_code":"46225","city":"Indianapolis","address":"259 E Raymond St","latitude":39.736959,"longitude":-86.1520044,"location":"Southside Fellowship Center","region":"INDPLS-South","notes":"No Smoking, Women's, Wheelchair Accessible","url":"https://indyaa.org/meetings/sisters-in-sobriety-today/","timezone":"America/Indiana/Indianapolis"},{"feed":"indyaa.org","slug":"sociable-survivors","name":"Sociable Survivors","day":0,"time":"18:00","types":["C","D"],"state":"IN","postal_code":"46176","city":"Shelbyville","address":"62 3rd St","latitude":39.5149896,"longitude":-85.7759954,"location":"Dry Dock Club","region":"S-Shelbyville","notes":"No Smoking, Wheelchair Accessible, Alanon Same Location","url":"https://indyaa.org/meetings/sociable-survivors/","timezone":"America/Indiana/Indianapolis"},{"feed":"louisvilleaa.org","slug":"sos-corydon-group","name":"SOS Corydon Group","day":0,"time":"18:00","end_time":"19:00","types":["D","O","X"],"state":"IN","postal_code":"47112","city":"Corydon","address":"105 Big Indian Rd NE","latitude":38.2181886,"longitude":-86.1151787,"location":"Next Step Building","region":"Harrison County, IN","url":"https://loukyaa.org/meetings/sos-corydon-group/","group":"SOS Corydon Group","timezone":"America/Kentucky/Louisville"},{"feed":"louisvilleaa.org","slug":"sunday-nite-big-book","name":"Sunday Nite Big Book","day":0,"time":"18:00","types":["B","C","D","X"],"state":"IN","postal_code":"47150","city":"New Albany","address":"506 Pearl St","latitude":38.2874547,"longitude":-85.8234052,"location":"Floyd County Token Club","region":"Floyd County IN","url":"https://loukyaa.org/meetings/sunday-nite-big-book/","group":"Sunday Nite Big Book","timezone":"America/Kentucky/Louisville"},{"feed":"indyaa.org","slug":"the-164-125","name":"The 164 @ 125","day":0,"time":"18:00","types":["C","D","LIT"],"state":"IN","postal_code":"46201","city":"Indianapolis","address":"1201 E Maryland St","latitude":39.7644741,"longitude":-86.1374629,"location":"St. Vincent De Paul","region":"INDPLS-Midtown","notes":"Big Book DiscussionnnNo Smoking","url":"https://indyaa.org/meetings/the-164-125/","timezone":"America/Indiana/Indianapolis"},{"feed":"aaftwayne.org","slug":"womens-big-book","name":"WOMENS BIG BOOK","day":0,"time":"18:00","types":["O"],"state":"IN","postal_code":"46706","city":"Auburn","address":"907 Main St","latitude":41.3622171,"longitude":-85.0560415,"location":"Women's House","region":"Auburn","notes":"Women Only\n\nBig Book Study","url":"https://www.aafortwayne.org/meetings/womens-big-book/","timezone":"America/New_York"},{"feed":"aaftwayne.org","slug":"bloomingdale-group","name":"BLOOMINGDALE GROUP","day":0,"time":"18:30","types":["O","D"],"state":"IN","postal_code":"46808","city":"Fort Wayne","address":"609 Putnam St","latitude":41.0912639,"longitude":-85.1487872,"location":"Trinity Methodist Church","region":"Fort Wayne","notes":"No Smoking","url":"https://www.aafortwayne.org/meetings/bloomingdale-group/","group":"0105082 (22) (67)","timezone":"America/New_York"},{"feed":"indyaa.org","slug":"building-sobriety","name":"Building Sobriety","day":0,"time":"18:30","end_time":"19:30","types":["D","O"],"state":"IN","postal_code":"46241","city":"Indianapolis","address":"5600 Dividend Rd","latitude":39.7397115,"longitude":-86.2560091,"location":"Ironworkers Local 22","region":"INDPLS-West","notes":"No Smoking, Wheelchair accessible","url":"https://indyaa.org/meetings/building-sobriety/","timezone":"America/Indiana/Indianapolis"},{"feed":"louisvilleaa.org","slug":"grace-group-2","name":"Grace Group New Albany","day":0,"time":"18:30","end_time":"19:30","types":["C","D"],"state":"IN","postal_code":"47150","city":"New Albany","address":"1752 Scheller Ln","latitude":38.3201412,"longitude":-85.8084254,"location":"Our Lady of Perpetual Help Church","region":"Floyd County IN","url":"https://loukyaa.org/meetings/grace-group-2/","group":"Grace Group Indiana","timezone":"America/Kentucky/Louisville"},{"feed":"southwesternindianaaa.org","slug":"sunday-niteosiii","name":"Sunday Nite@OSIII","day":0,"time":"18:30","end_time":"19:30","types":["C","D","X"],"state":"IN","postal_code":"47713","city":"Evansville","address":"770 E Walnut St","latitude":37.9740792,"longitude":-87.5530664,"location":"Old Stone 3 (OSIII)","region":"South Western Indiana","url":"https://southwesternindianaaa.org/meetings/sunday-niteosiii/","group":"Old Stone 3 (OSIII)","timezone":"America/Chicago"},{"feed":"indyaa.org","slug":"42-stories","name":"42 Stories","day":0,"time":"19:00","types":["D","LIT","O"],"state":"IN","postal_code":"46168","city":"Plainfield","address":"1012 Stafford Rd","latitude":39.6975211,"longitude":-86.3881721,"location":"First Baptist Church Plainfield","region":"W-Plainfield","notes":"Wheelchair Accessible","url":"https://indyaa.org/meetings/42-stories/","timezone":"America/Indiana/Indianapolis"},{"feed":"southwesternindianaaa.org","slug":"4th-dimension-group-2","name":"4th Dimension Group","day":0,"time":"19:00","end_time":"20:00","types":["D","O"],"state":"IN","postal_code":"47542","city":"Huntingburg","address":"304 N Jackson St","latitude":38.2949722,"longitude":-86.954202,"location":"Nazarene Church","region":"South Western Indiana","url":"https://southwesternindianaaa.org/meetings/4th-dimension-group-2/","group":"4th Dimension Group","timezone":"America/Indiana/Indianapolis"},{"feed":"louisvilleaa.org","slug":"all-in-group","name":"All In Group","day":0,"time":"19:00","end_time":"20:00","types":["O","SP","X"],"state":"IN","postal_code":"47150","city":"New Albany","address":"2248 Charlestown Rd","latitude":38.3071084,"longitude":-85.8097036,"location":"Crossroads Community Church","region":"Floyd County IN","url":"https://loukyaa.org/meetings/all-in-group/","group":"All In Group","timezone":"America/Kentucky/Louisville"},{"feed":"indyaa.org","slug":"atterbury-acceptance-group","name":"Atterbury Acceptance Group","day":0,"time":"19:00","end_time":"20:00","types":["D","O"],"state":"IN","postal_code":"46131","city":"Franklin","address":"2949 E North St","latitude":39.3785095,"longitude":-86.0481605,"location":"Johnson County Park Office","region":"S-Franklin","url":"https://indyaa.org/meetings/atterbury-acceptance-group/","timezone":"America/Indiana/Indianapolis"},{"feed":"aaftwayne.org","slug":"change-of-heart-group","name":"CHANGE OF HEART GROUP","day":0,"time":"19:00","types":["O","D"],"state":"IN","postal_code":"46802","city":"Fort Wayne","address":"806 Walnut St","latitude":41.0670147,"longitude":-85.1491923,"location":"Freedom House","region":"Fort Wayne","notes":"No Smoking","url":"https://www.aafortwayne.org/meetings/change-of-heart-group/","group":"0153628 (22) (69)","timezone":"America/New_York"},{"feed":"indyaa.org","slug":"great-facts-speaker-zoom-meeting-link-635-148-435-pass-word-232167","name":"Great Facts Speaker Zoom Meeting Link: 635 148 435 Pass Word 232167","day":0,"time":"19:00","end_time":"20:00","types":["O","SP","EN","ONL"],"state":"IN","city":"Indianapolis","latitude":39.76909,"longitude":-86.158018,"location":"Indianapolis, IN, USA","region":"Indianapolis","notes":"Great Facts Speaker Zoom Meeting Link: 635 148 435 Pass Word 232167","conference_url":"https://zoom.us/j/9793796858?pwd=NllQMXpZUEZSMG9aVHM5K1JKVTBoZz09","url":"https://indyaa.org/meetings/great-facts-speaker-zoom-meeting-link-635-148-435-pass-word-232167/","group":"Great Facts Speaker Zoom Meeting Link: 635 148 435 Pass Word 232167","timezone":"America/Indiana/Indianapolis"},{"feed":"indyaa.org","slug":"keep-it-simple-daily-reflections","name":"Keep It Simple (Daily Reflections)","day":0,"time":"19:00","types":["D","LIT","O"],"state":"IN","postal_code":"46219","city":"Indianapolis","address":"441 S Ritter Ave","latitude":39.7615058,"longitude":-86.0730576,"location":"Club East","region":"INDPLS-East","notes":"No Smoking, Wheelchair Accessible, Alanon Same Location","url":"https://indyaa.org/meetings/keep-it-simple-daily-reflections/","timezone":"America/Indiana/Indianapolis"},{"feed":"indyaa.org","slug":"lets-get-sober","name":"Let's Get Sober","day":0,"time":"19:00","types":["D","O"],"state":"IN","postal_code":"46214","city":"Indianapolis","address":"6450 W 10th St","latitude":39.7798828,"longitude":-86.2745023,"location":"Westside Club","region":"INDPLS-West","notes":"No Smoking","url":"https://indyaa.org/meetings/lets-get-sober/","timezone":"America/Indiana/Indianapolis"},{"feed":"aaftwayne.org","slug":"north-side-group","name":"NORTH SIDE GROUP","day":0,"time":"19:00","types":["O","SP"],"state":"IN","postal_code":"46805","city":"Fort Wayne","address":"1232 Crescent Ave","latitude":41.088945,"longitude":-85.12299,"location":"Crescent Ave. United Methodist Church","region":"Fort Wayne","notes":"No Smoking","url":"https://www.aafortwayne.org/meetings/north-side-group/","group":"0105093 (22) (65)","timezone":"America/New_York"},{"feed":"aaftwayne.org","slug":"one-day-at-a-time-group","name":"ONE DAY AT A TIME GROUP","day":0,"time":"19:00","types":["O","D"],"state":"IN","postal_code":"46806","city":"Fort Wayne","address":"4643 Gaywood Dr","latitude":41.0415903,"longitude":-85.1219626,"location":"Sacred Heart Church","region":"Fort Wayne","notes":"Back Door, No Smoking","url":"https://www.aafortwayne.org/meetings/one-day-at-a-time-group/","group":"0119884 (22) (63)","timezone":"America/New_York"},{"feed":"indyaa.org","slug":"peculiar-twist-young-peoples-mtg","name":"Peculiar Twist Young Peoples Mtg","day":0,"time":"19:00","types":["D","O","Y"],"state":"IN","postal_code":"46220","city":"Indianapolis","address":"3030 Kessler Blvd E Dr","latitude":39.8632879,"longitude":-86.1137067,"location":"First Friends Church","region":"INDPLS-North","notes":"No Smoking","url":"https://indyaa.org/meetings/peculiar-twist-young-peoples-mtg/","timezone":"America/Indiana/Indianapolis"},{"feed":"louisvilleaa.org","slug":"simply-a-a-group","name":"Simply A.A. Group","day":0,"time":"19:00","end_time":"20:00","types":["D","O","X","XB"],"state":"IN","postal_code":"47129","city":"Clarksville","address":"202 Homestead Ave","latitude":38.2853802,"longitude":-85.754133,"location":"The Recovery Complex","region":"Clark County, IN","url":"https://loukyaa.org/meetings/simply-a-a-group/","group":"Simply A.A. Group","timezone":"America/Kentucky/Louisville"},{"feed":"southwesternindianaaa.org","slug":"smoke-out","name":"Smoke Out","day":0,"time":"19:00","end_time":"20:00","types":["O","D"],"state":"IN","postal_code":"47546","city":"Jasper","address":"1450 Energy Drive","latitude":38.3624006,"longitude":-86.9028832,"location":"Redemption Christian Church","region":"Jasper","url":"https://southwesternindianaaa.org/meetings/smoke-out/","timezone":"America/Chicago"},{"feed":"southwesternindianaaa.org","slug":"speaker-meeting","name":"Speaker Meeting","day":0,"time":"19:00","end_time":"20:00","types":["SP"],"state":"IN","postal_code":"47586","city":"Tell City","address":"1140 31st St","latitude":37.9578876,"longitude":-86.7389629,"location":"Schergens Center","region":"South Western Indiana","url":"https://southwesternindianaaa.org/meetings/speaker-meeting/","group":"Schergens Center","timezone":"America/Chicago"},{"feed":"indyaa.org","slug":"sunday-night-beginners-group","name":"Sunday Night Beginner's Group","day":0,"time":"19:00","end_time":"20:00","types":["D","O"],"state":"IN","postal_code":"46032","city":"Carmel","address":"621 S Rangeline Rd","latitude":39.9718371,"longitude":-86.1257589,"location":"Carmel United Methodist Church","region":"N-Carmel","url":"https://indyaa.org/meetings/sunday-night-beginners-group/","timezone":"America/Indiana/Indianapolis"},{"feed":"indyaa.org","slug":"sunday-night-gay-group","name":"Sunday Night Gay Group","day":0,"time":"19:00","types":["C","D","LGBTQ"],"state":"IN","postal_code":"46226","city":"Indianapolis","address":"4601 Emerson Ave","latitude":39.8407437,"longitude":-86.0834032,"location":"The Table Episcopal Church","region":"INDPLS-North","notes":"No Smoking, Wheelchair Accessible","url":"https://indyaa.org/meetings/sunday-night-gay-group/","timezone":"America/Indiana/Indianapolis"},{"feed":"aaftwayne.org","slug":"vision-of-hope","name":"VISION OF HOPE","day":0,"time":"19:00","types":["B","O","W"],"state":"IN","postal_code":"46825","city":"Fort Wayne","address":"1502 E Wallen Rd","latitude":41.1614441,"longitude":-85.1225705,"location":"St. Vincent De Paul Catholic Church","region":"Fort Wayne","notes":"Door 3 Spiritual Center","url":"https://www.aafortwayne.org/meetings/vision-of-hope/","timezone":"America/New_York"},{"feed":"aaftwayne.org","slug":"waterloo-group","name":"WATERLOO GROUP","day":0,"time":"19:00","types":["C"],"state":"IN","postal_code":"46793","city":"Waterloo","address":"300 W Maple St","latitude":41.4301385,"longitude":-85.022737,"location":"United Methodist Church","region":"Waterloo","url":"https://www.aafortwayne.org/meetings/waterloo-group/","timezone":"America/New_York"},{"feed":"indyaa.org","slug":"westside-sunday-night-group","name":"Westside Sunday Night Group","day":0,"time":"19:00","types":["O","SP"],"state":"IN","postal_code":"46214","city":"Indianapolis","address":"2020 N Girls School Rd","latitude":39.7929317,"longitude":-86.2897715,"location":"Chapel Rock Church","region":"INDPLS-West","notes":"*Enter Door #10. No Smoking, Wheelchair Accessible","url":"https://indyaa.org/meetings/westside-sunday-night-group/","timezone":"America/Indiana/Indianapolis"},{"feed":"southwesternindianaaa.org","slug":"c-l-6","name":"Colombia and Linwood","day":0,"time":"19:30","end_time":"20:30","types":["D","O","X"],"state":"IN","postal_code":"47711","city":"Evansville","address":"761 E Columbia St","latitude":37.9845113,"longitude":-87.553166,"location":"Colombia and Linwood","region":"South Western Indiana","url":"https://southwesternindianaaa.org/meetings/c-l-6/","group":"Colombia and Linwood","timezone":"America/Chicago"},{"feed":"indyaa.org","slug":"in-the-pitts","name":"In The Pitts","day":0,"time":"19:30","types":["D","O"],"state":"IN","postal_code":"46167","city":"Pittsboro","address":"227 E Main St","latitude":39.8605861,"longitude":-86.4615008,"location":"Pittsboro United Methodist Church","region":"W-Pittsboro","notes":"Wheelchair Accessible","url":"https://indyaa.org/meetings/in-the-pitts/","timezone":"America/Indiana/Indianapolis"},{"feed":"aacincinnati.org","slug":"no-name","name":"Way Out 12 & 12","day":0,"time":"19:30","end_time":"20:30","types":["12x12","D","O","X"],"state":"IN","postal_code":"47001","city":"Aurora","address":"304 3rd St","latitude":39.0556275,"longitude":-84.9007156,"location":"First United Methodist Church","region":"SE Indiana","url":"https://aacincinnati.org/meetings/no-name/","timezone":"America/New_York"},{"feed":"indyaa.org","slug":"oakley-harlan-greenfield-group","name":"Oakley Harlan Greenfield Group","day":0,"time":"19:30","types":["B","D","O"],"state":"IN","postal_code":"46140","city":"Greenfield","address":"226 Cherry St","latitude":39.7884871,"longitude":-85.7527653,"location":"Greenfield Way Out Club","region":"E-Greenfield","notes":"No Smoking, Wheelchair Accessible","url":"https://indyaa.org/meetings/oakley-harlan-greenfield-group/","timezone":"America/Indiana/Indianapolis"},{"feed":"indyaa.org","slug":"rule-62-group","name":"Rule 62 Group","day":0,"time":"19:30","types":["C","D"],"state":"IN","postal_code":"46226","city":"Indianapolis","address":"5200 Shadeland Ave","latitude":39.8479526,"longitude":-86.0473248,"location":"Lawrence United Methodist Church","region":"INDPLS-East","notes":"No Smoking, Wheelchair Accessible","url":"https://indyaa.org/meetings/rule-62-group/","timezone":"America/Indiana/Indianapolis"},{"feed":"indyaa.org","slug":"11th-step-prayer-and-meditation","name":"11th Step Prayer and Meditation","day":0,"time":"20:00","end_time":"21:00","types":["D","O"],"state":"IN","postal_code":"46225","city":"Indianapolis","address":"259 E Raymond St","latitude":39.736959,"longitude":-86.1520044,"location":"Southside Fellowship Center","region":"INDPLS-South","notes":"No Smoking, Wheelchair Accessible","url":"https://indyaa.org/meetings/11th-step-prayer-and-meditation/","timezone":"America/Indiana/Indianapolis"},{"feed":"indyaa.org","slug":"boiled-owl-group","name":"Boiled Owl Group","day":0,"time":"20:00","types":["D","O"],"state":"IN","postal_code":"46033","city":"Carmel","address":"4780 E 126th St","latitude":39.9716918,"longitude":-86.0901491,"location":"St. Mark's Methodist Church","region":"N-Carmel","notes":"Enter Door #2; and they are in Room B/C (First room on the left when you enter)","url":"https://indyaa.org/meetings/boiled-owl-group/","timezone":"America/Indiana/Indianapolis"},{"feed":"aacincinnati.org","slug":"hamline-chapel-3","name":"Hamline Chapel","day":0,"time":"20:00","end_time":"21:00","types":["C","D","X"],"state":"IN","postal_code":"47025","city":"Lawrenceburg","address":"102 W High St","latitude":39.0915619,"longitude":-84.8482815,"location":"Hamline Chapel United Methodist Church","region":"SE Indiana","notes":"Open Lead last Wk, Eat & Meet at 7:15PM","url":"https://aacincinnati.org/meetings/hamline-chapel-3/","group":"Hamline Chapel","timezone":"America/New_York"},{"feed":"louisvilleaa.org","slug":"henryville-group","name":"Henryville Group","day":0,"time":"20:00","end_time":"21:00","types":["O","SP"],"state":"IN","postal_code":"47126","city":"Henryville","address":"101 N Ferguson St","latitude":38.5419532,"longitude":-85.7685311,"location":"St. Franics Xavier Catholic Church","region":"Clark County, IN","url":"https://loukyaa.org/meetings/henryville-group/","group":"Henryville Group","timezone":"America/Kentucky/Louisville"},{"feed":"louisvilleaa.org","slug":"northside-group","name":"Northside Group","day":0,"time":"20:00","types":["O","SP","X"],"state":"IN","postal_code":"47150","city":"New Albany","address":"506 Pearl St","latitude":38.2874547,"longitude":-85.8234052,"location":"Floyd County Token Club","region":"Floyd County IN","url":"https://loukyaa.org/meetings/northside-group/","group":"Northside Group","timezone":"America/Kentucky/Louisville"},{"feed":"indyaa.org","slug":"outstretched-hand-group","name":"Outstretched Hand Group","day":0,"time":"20:00","types":["O","SP","ONL"],"state":"IN","postal_code":"46060","city":"Noblesville","address":"10055 E 186th St","latitude":40.0575982,"longitude":-85.9899093,"location":"Christ Lutheran Church (First road north of SR 32)","region":"N-Noblesville","notes":"Just off SR 37. First road north of SR 32. No Smoking. Hybrid","conference_url":"https://us02web.zoom.us/j/441880672?pwd=K3N6MGJUSTI4ekJCWTZpNnA5d1lsUT09","url":"https://indyaa.org/meetings/outstretched-hand-group/","timezone":"America/Indiana/Indianapolis"},{"feed":"indyaa.org","slug":"plug-in-the-jug","name":"Plug In The Jug","day":0,"time":"20:00","types":["C","D"],"state":"IN","postal_code":"46060","city":"Noblesville","address":"16065 Prosperity Dr","latitude":40.022401,"longitude":-85.999253,"location":"Suburban North Club","region":"N-Noblesville","notes":"No Smoking, Wheelchair Accessible","url":"https://indyaa.org/meetings/plug-in-the-jug/","timezone":"America/Indiana/Indianapolis"},{"feed":"indyaa.org","slug":"sun-nite-st-simon-group","name":"Sun. Nite St. Simon Group","day":0,"time":"20:00","types":["D","O"],"state":"IN","postal_code":"46219","city":"Indianapolis","address":"8320 E 10th St","latitude":39.7824967,"longitude":-86.0194156,"location":"St. Matthew's Church","region":"INDPLS-East","notes":"No Smoking","url":"https://indyaa.org/meetings/sun-nite-st-simon-group/","timezone":"America/Indiana/Indianapolis"},{"feed":"indyaa.org","slug":"sunday-greenwood-group","name":"Sunday Greenwood Group","day":0,"time":"20:00","types":["O","SP"],"state":"IN","postal_code":"46142","city":"Greenwood","address":"102 West Main Street","latitude":39.6140969,"longitude":-86.1077135,"location":"Greenwood Presbyterian Church","region":"S-Greenwood","notes":"No Smoking, Wheelchair Accessible","url":"https://indyaa.org/meetings/sunday-greenwood-group/","timezone":"America/Indiana/Indianapolis"},{"feed":"indyaa.org","slug":"sunday-night-solution","name":"Sunday Night Solution","day":0,"time":"20:00","end_time":"21:00","types":["D","O"],"state":"IN","postal_code":"46074","city":"Westfield","address":"16162 Carey Rd","latitude":40.0236388,"longitude":-86.1111472,"location":"Radiant Life Church","region":"N-Westfield","url":"https://indyaa.org/meetings/sunday-night-solution/","timezone":"America/Indiana/Indianapolis"},{"feed":"indyaa.org","slug":"sunday-night-step-discussion","name":"Sunday Night Step Discussion","day":0,"time":"20:00","types":["D","LIT","O"],"state":"IN","postal_code":"46205","city":"Indianapolis","address":"4627 Carvel Ave #2022","latitude":39.8408446,"longitude":-86.1388943,"location":"Carvel Club","region":"INDPLS-North","notes":"UpstairsnnNo Smoking, Wheelchair Accessible","url":"https://indyaa.org/meetings/sunday-night-step-discussion/","timezone":"America/Indiana/Indianapolis"},{"feed":"indyaa.org","slug":"the-battle-buddy-group","name":"Big Book Battle Buddy Group","day":0,"time":"20:30","end_time":"21:30","types":["B","LIT","O"],"state":"IN","postal_code":"46214","city":"Indianapolis","address":"6450 W 10th St","latitude":39.7798828,"longitude":-86.2745023,"location":"Westside Club","region":"INDPLS-West","url":"https://indyaa.org/meetings/the-battle-buddy-group/","timezone":"America/Indiana/Indianapolis"},{"feed":"aaftwayne.org","slug":"upon-awakening","name":"Upon Awakening","day":1,"time":"06:00","end_time":"07:00","types":["B","DB","O","ONL"],"state":"IN","city":"Fort Wayne","latitude":41.079273,"longitude":-85.1393513,"location":"ONLINE-FORT WAYNE","region":"Fort Wayne","notes":"PASSWORD: Acceptance (case sensitive)","conference_url":"https://zoom.us/j/4955309233","url":"https://www.aafortwayne.org/meetings/upon-awakening/","timezone":"America/New_York"},{"feed":"indyaa.org","slug":"a-positive-start-to-your-day","name":"Upon Awakening","day":1,"time":"06:30","end_time":"07:30","types":["LIT","O"],"state":"IN","postal_code":"46214","city":"Indianapolis","address":"6450 W 10th St","latitude":39.7798828,"longitude":-86.2745023,"location":"Westside Club","region":"INDPLS-West","notes":"No Smoking, Wheelchair accessible","url":"https://indyaa.org/meetings/a-positive-start-to-your-day/","timezone":"America/Indiana/Indianapolis"},{"feed":"indyaa.org","slug":"foglifters","name":"Foglifters","day":1,"time":"06:30","end_time":"07:30","types":["D","O","ONL"],"state":"IN","city":"Indianapolis","latitude":39.76909,"longitude":-86.158018,"location":"Indianapolis, IN, USA","region":"Indianapolis","conference_url":"https://zoom.us/j/84588492813?from=join#success","url":"https://indyaa.org/meetings/foglifters/","timezone":"America/Indiana/Indianapolis"},{"feed":"indyaa.org","slug":"m-f-am-serenity-group-4","name":"M-F AM Serenity Group","day":1,"time":"06:30","types":["D","O"],"state":"IN","postal_code":"46219","city":"Indianapolis","address":"441 S Ritter Ave","latitude":39.7615058,"longitude":-86.0730576,"location":"Club East","region":"INDPLS-East","notes":"No Smoking, Wheelchair Accessible","url":"https://indyaa.org/meetings/m-f-am-serenity-group-4/","timezone":"America/Indiana/Indianapolis"},{"feed":"indyaa.org","slug":"mens-early-risers-5","name":"Men's Early Risers","day":1,"time":"06:45","types":["C","D"],"state":"IN","postal_code":"46205","city":"Indianapolis","address":"4627 Carvel Ave","latitude":39.8408575,"longitude":-86.1388834,"location":"Carvel Club","region":"INDPLS-North","notes":"No Smoking, Men's, Wheelchair Accessible, Meets in large room upstairs","url":"https://indyaa.org/meetings/mens-early-risers-5/","timezone":"America/Indiana/Indianapolis"},{"feed":"indyaa.org","slug":"12-steppers","name":"12 Steppers","day":1,"time":"07:00","end_time":"08:00","types":["LIT","O"],"state":"IN","postal_code":"46168","city":"Plainfield","address":"1012 Stafford Rd","latitude":39.6975211,"longitude":-86.3881721,"location":"First Baptist Church Plainfield","region":"W-Plainfield","notes":"Meets on Monday and Wednesday","url":"https://indyaa.org/meetings/12-steppers/","timezone":"America/Indiana/Indianapolis"},{"feed":"indyaa.org","slug":"4627-at-7-group-5","name":"4627 At 7 Group","day":1,"time":"07:00","types":["C","D"],"state":"IN","postal_code":"46205","city":"Indianapolis","address":"4627 Carvel Ave","latitude":39.8408575,"longitude":-86.1388834,"location":"Carvel Club","region":"INDPLS-North","notes":"DownstairsnnNo Smoking, Wheelchair Accessible","url":"https://indyaa.org/meetings/4627-at-7-group-5/","timezone":"America/Indiana/Indianapolis"},{"feed":"indyaa.org","slug":"walk-the-talk","name":"Under New Management","day":1,"time":"07:00","end_time":"08:00","types":["O","ST"],"state":"IN","postal_code":"46033","city":"Carmel","address":"10655 Haverstick Rd","latitude":39.9436275,"longitude":-86.0948257,"location":"St. Elizabeth Ann Seton Catholic Church","region":"N-Carmel","notes":"Steps 1, 2, and 3 - The Way Out","url":"https://indyaa.org/meetings/walk-the-talk/","timezone":"America/Indiana/Indianapolis"},{"feed":"indyaa.org","slug":"we-are-not-saints-north-2","name":"We Are Not Saints (North)","day":1,"time":"07:00","end_time":"07:45","types":["D","O"],"state":"IN","postal_code":"46032","city":"Carmel","address":"14598 Oak Ridge Rd","latitude":39.9990286,"longitude":-86.1481687,"location":"Our Lady of Mount Carmel Church","region":"N-Carmel","notes":"St. Kateria Room","url":"https://indyaa.org/meetings/we-are-not-saints-north-2/","timezone":"America/Indiana/Indianapolis"},{"feed":"indyaa.org","slug":"winners-circle-5","name":"Winners Circle","day":1,"time":"07:00","types":["D","O"],"state":"IN","postal_code":"46060","city":"Noblesville","address":"16065 Prosperity Dr","latitude":40.022401,"longitude":-85.999253,"location":"Suburban North Club","region":"N-Noblesville","notes":"No Smoking, Wheelchair Accessible","url":"https://indyaa.org/meetings/winners-circle-5/","timezone":"America/Indiana/Indianapolis"},{"feed":"southwesternindianaaa.org","slug":"c-l-33","name":"Colombia and Linwood","day":1,"time":"07:30","end_time":"08:30","types":["D","O","X"],"state":"IN","postal_code":"47711","city":"Evansville","address":"761 E Columbia St","latitude":37.9845113,"longitude":-87.553166,"location":"Colombia and Linwood","region":"South Western Indiana","url":"https://southwesternindianaaa.org/meetings/c-l-33/","group":"Colombia and Linwood","timezone":"America/Chicago"},{"feed":"aaftwayne.org","slug":"angola-area-aa","name":"ANGOLA AREA AA","day":1,"time":"08:00","types":["O"],"state":"IN","postal_code":"46703","city":"Angola","address":"314 W Maumee St","latitude":41.6351403,"longitude":-85.0024969,"location":"First Congregational Church","region":"Angola","url":"https://www.aafortwayne.org/meetings/angola-area-aa/","timezone":"America/New_York"},{"feed":"indyaa.org","slug":"fresh-start-group-monday","name":"Fresh Start Group","day":1,"time":"08:00","end_time":"09:00","types":["D","O"],"state":"IN","postal_code":"46176","city":"Shelbyville","address":"643 Fair Ave","latitude":39.5288319,"longitude":-85.7639811,"location":"Trinity United Methodist Church","region":"S-Shelbyville","notes":"The Fresh Start Group meets Monday Wednesday &amp; Fridays 8:00am at 643 Fair Ave, Shelbyville Indiana","url":"https://indyaa.org/meetings/fresh-start-group-monday/","group":"Fresh Start Group","timezone":"America/Indiana/Indianapolis"},{"feed":"aaftwayne.org","slug":"welcome-home-group","name":"Welcome Home Group","day":1,"time":"08:00","end_time":"09:00","types":["D","O"],"state":"IN","postal_code":"46706","city":"Auburn","address":"2438 Co Rd 50","latitude":41.3435549,"longitude":-85.0764486,"location":"Barn 2438","region":"Auburn","url":"https://www.aafortwayne.org/meetings/welcome-home-group/","timezone":"America/New_York"},{"feed":"aaftwayne.org","slug":"aa-early-start-group","name":"AA EARLY START GROUP","day":1,"time":"09:00","types":["B","O"],"state":"IN","postal_code":"46845","city":"Fort Wayne","address":"12707 Tonkel Rd","latitude":41.2011766,"longitude":-85.076692,"location":"Robinson Chapel, UMC","region":"Fort Wayne","notes":"No Smoking","url":"https://www.aafortwayne.org/meetings/aa-early-start-group/","group":"0669953 (22) (65)","timezone":"America/New_York"},{"feed":"aaftwayne.org","slug":"covenant-church-early-start-meeting","name":"Double Dipping Is Ok Group","day":1,"time":"09:00","end_time":"10:00","types":["B","O","X","EN"],"state":"IN","postal_code":"46825","city":"Fort Wayne","address":"10001 Coldwater Rd","latitude":41.1733501,"longitude":-85.1315674,"location":"Covenant United Methodist Church","region":"Fort Wayne","notes":"Wheelchair accessible.","url":"https://www.aafortwayne.org/meetings/covenant-church-early-start-meeting/","timezone":"America/New_York"},{"feed":"aaftwayne.org","slug":"first-church-of-christ","name":"Wheelbarrow Group","day":1,"time":"09:00","types":["D","O"],"state":"IN","postal_code":"46714","city":"Bluffton","address":"301 W Cherry St","latitude":40.737958,"longitude":-85.174255,"location":"1st Reformed Church","region":"Bluffton","url":"https://www.aafortwayne.org/meetings/first-church-of-christ/","timezone":"America/New_York"},{"feed":"indyaa.org","slug":"mon-tue-wed-friday-sn-group-4","name":"Monday, Tuesday, Wednesday, Friday SN Group","day":1,"time":"09:00","types":["D","O"],"state":"IN","postal_code":"46060","city":"Noblesville","address":"16065 Prosperity Dr","latitude":40.022401,"longitude":-85.999253,"location":"Suburban North Club","region":"N-Noblesville","notes":"No Smoking, Wheelchair Accessible","url":"https://indyaa.org/meetings/mon-tue-wed-friday-sn-group-4/","timezone":"America/Indiana/Indianapolis"},{"feed":"indyaa.org","slug":"monday-morning-big-book","name":"Monday Morning Big Book","day":1,"time":"09:30","types":["C","D","LIT"],"state":"IN","postal_code":"46205","city":"Indianapolis","address":"4627 Carvel Ave","latitude":39.8408575,"longitude":-86.1388834,"location":"Carvel Club","region":"INDPLS-North","notes":"No Smoking, Wheelchair Accessible","url":"https://indyaa.org/meetings/monday-morning-big-book/","timezone":"America/Indiana/Indianapolis"},{"feed":"aaftwayne.org","slug":"trails-end-group","name":"TRAILS END GROUP","day":1,"time":"10:00","types":["O","D","X"],"state":"IN","postal_code":"46808","city":"Fort Wayne","address":"1118 Spring St","latitude":41.0889893,"longitude":-85.1567874,"location":"Club Oassis","region":"Fort Wayne","url":"https://www.aafortwayne.org/meetings/trails-end-group/","group":"0105103 (22) (67)","timezone":"America/New_York"},{"feed":"indyaa.org","slug":"blue-monday-group","name":"Blue Monday Group","day":1,"time":"10:30","types":["D","O"],"state":"IN","postal_code":"46219","city":"Indianapolis","address":"441 S Ritter Ave","latitude":39.7615058,"longitude":-86.0730576,"location":"Club East","region":"INDPLS-East","notes":"No Smoking, Wheelchair Accessible, Alanon Same Location, Alateen Same Location","url":"https://indyaa.org/meetings/blue-monday-group/","timezone":"America/Indiana/Indianapolis"},{"feed":"indyaa.org","slug":"first-monday-morning-meeting","name":"First Monday Morning Meeting","day":1,"time":"10:30","types":["C","D"],"state":"IN","postal_code":"46225","city":"Indianapolis","address":"259 E Raymond St","latitude":39.736959,"longitude":-86.1520044,"location":"Southside Fellowship Center","region":"INDPLS-South","notes":"Wheelchair Accessible, No Smoking","url":"https://indyaa.org/meetings/first-monday-morning-meeting/","timezone":"America/Indiana/Indianapolis"},{"feed":"indyaa.org","slug":"monday-morning-westside-group","name":"As Bill Sees It Westside Group","day":1,"time":"10:30","types":["D","O"],"state":"IN","postal_code":"46214","city":"Indianapolis","address":"6450 W 10th St","latitude":39.7798828,"longitude":-86.2745023,"location":"Westside Club","region":"INDPLS-West","notes":"No Smoking, Wheelchair Accessible","url":"https://indyaa.org/meetings/monday-morning-westside-group/","timezone":"America/Indiana/Indianapolis"},{"feed":"louisvilleaa.org","slug":"serenity-today-group","name":"Serenity Today Group","day":1,"time":"10:30","types":["D","O","X"],"state":"IN","postal_code":"47150","city":"New Albany","address":"506 Pearl St","latitude":38.2874547,"longitude":-85.8234052,"location":"Floyd County Token Club","region":"Floyd County IN","url":"https://loukyaa.org/meetings/serenity-today-group/","group":"Serenity Today Group","timezone":"America/Kentucky/Louisville"},{"feed":"indyaa.org","slug":"compassionate-friends-group","name":"Compassionate Friends Group","day":1,"time":"11:30","types":["D","O"],"state":"IN","postal_code":"46143","city":"Greenwood","address":"2045 Averitt Rd","latitude":39.5876546,"longitude":-86.1187383,"location":"Greenwood Christian Church","region":"S-Greenwood","notes":"No Smoking. Park in back. Enter Door 7 by main office","url":"https://indyaa.org/meetings/compassionate-friends-group/","timezone":"America/Indiana/Indianapolis"},{"feed":"indyaa.org","slug":"sisters-in-sobriety-mccordsville","name":"Sisters &amp; Brothers in Sobriety-McCordsville","day":1,"time":"11:45","end_time":"12:45","types":["C"],"state":"IN","postal_code":"46055","city":"McCordsville","address":"8505 N Clearview Dr","latitude":39.9059986,"longitude":-85.9200935,"location":"Hancock Wellness Center- Community Room","region":"E-McCordsville","notes":"Babysitting available. $2.00 per hour per child in our staffed child care. Call the center to reserve a spot for your little one. 317-335-6939","url":"https://indyaa.org/meetings/sisters-in-sobriety-mccordsville/","timezone":"America/Indiana/Indianapolis"},{"feed":"indyaa.org","slug":"alcoholics-in-recovery-3","name":"Alcoholics in Recovery","day":1,"time":"12:00","end_time":"13:00","types":["D","O"],"state":"IN","postal_code":"46052","city":"Lebanon","address":"522 Powell St","latitude":40.0504397,"longitude":-86.4732344,"location":"Life's Journey Church","region":"N-Lebanon","url":"https://indyaa.org/meetings/alcoholics-in-recovery-3/","timezone":"America/Indiana/Indianapolis"},{"feed":"aaftwayne.org","slug":"angola-area-aa-2","name":"ANGOLA AREA AA","day":1,"time":"12:00","types":["O"],"state":"IN","postal_code":"46703","city":"Angola","address":"225 W Maumee St","latitude":41.6346209,"longitude":-85.0013963,"location":"Alano Club","region":"Angola","url":"https://www.aafortwayne.org/meetings/angola-area-aa-2/","timezone":"America/New_York"},{"feed":"aacincinnati.org","slug":"aurora-noon-4","name":"Aurora Noon","day":1,"time":"12:00","end_time":"13:00","types":["D","O","X"],"state":"IN","postal_code":"47001","city":"Aurora","address":"304 3rd St","latitude":39.0556275,"longitude":-84.9007156,"location":"First United Methodist Church","region":"SE Indiana","url":"https://aacincinnati.org/meetings/aurora-noon-4/","timezone":"America/New_York"},{"feed":"indyaa.org","slug":"broad-ripple-park-nooner-5","name":"Broad Ripple Park Nooner","day":1,"time":"12:00","end_time":"13:00","types":["D","O"],"state":"IN","postal_code":"46220","city":"Indianapolis","address":"6185 Guilford Ave","latitude":39.8680593,"longitude":-86.1426487,"location":"St. Lukes United Methodist Church - Midtown (Broad Ripple)","region":"INDPLS-North","notes":"Church is South of 62nd St across from the old Kroger on Guilford. In the event the meeting will be back at the park, a sign will be posted at the church.","url":"https://indyaa.org/meetings/broad-ripple-park-nooner-5/","timezone":"America/Indiana/Indianapolis"},{"feed":"southwesternindianaaa.org","slug":"c-l-31","name":"Colombia and Linwood","day":1,"time":"12:00","end_time":"13:00","types":["D","O","X"],"state":"IN","postal_code":"47711","city":"Evansville","address":"761 E Columbia St","latitude":37.9845113,"longitude":-87.553166,"location":"Colombia and Linwood","region":"South Western Indiana","url":"https://southwesternindianaaa.org/meetings/c-l-31/","group":"Colombia and Linwood","timezone":"America/Chicago"},{"feed":"southwesternindianaaa.org","slug":"c-l-upstairs-3","name":"Colombia and Linwood (upstairs)","day":1,"time":"12:00","end_time":"13:00","types":["B","D","O"],"state":"IN","postal_code":"47711","city":"Evansville","address":"761 E Columbia St","latitude":37.9845113,"longitude":-87.553166,"location":"Colombia and Linwood","region":"South Western Indiana","url":"https://southwesternindianaaa.org/meetings/c-l-upstairs-3/","group":"Colombia and Linwood","timezone":"America/Chicago"},{"feed":"southwesternindianaaa.org","slug":"founders-group-7","name":"Founders Group","day":1,"time":"12:00","end_time":"13:00","types":["C","D"],"state":"IN","postal_code":"47714","city":"Evansville","address":"1133 Lincoln Ave","latitude":37.9696804,"longitude":-87.544338,"location":"Corner of 41 and Lincoln Ave.","region":"South Western Indiana","notes":"Business meeting, last Tuesday of the month, after 7:00 pm speaker meeting. Starting at 8:00 pm.\n\nMondays, noon, alternate between a step and character defect.","url":"https://southwesternindianaaa.org/meetings/founders-group-7/","group":"Founders","timezone":"America/Chicago"},{"feed":"aacincinnati.org","slug":"friends-of-bill-w-lunch-bunch","name":"Friends of Bill W Lunch Bunch","day":1,"time":"12:00","end_time":"13:00","types":["C","D","X"],"state":"IN","postal_code":"47006","city":"Batesville","address":"131 N Walnut St","latitude":39.3005132,"longitude":-85.2226897,"location":"Batesville Memorial Library","region":"SE Indiana","url":"https://aacincinnati.org/meetings/friends-of-bill-w-lunch-bunch/","timezone":"America/New_York"},{"feed":"aaftwayne.org","slug":"harmony-house-meeting","name":"Harmony House Meeting","day":1,"time":"12:00","end_time":"13:00","types":["D","O"],"state":"IN","postal_code":"46750","city":"Huntington","address":"751 E Tipton St","latitude":40.8890951,"longitude":-85.4917146,"location":"Harmony House","region":"Huntington","url":"https://www.aafortwayne.org/meetings/harmony-house-meeting/","timezone":"America/New_York"},{"feed":"indyaa.org","slug":"indy-womens-bb-study","name":"Indy Womens Big Book Study","day":1,"time":"12:00","end_time":"13:00","types":["B","C","LIT","W","ONL"],"state":"IN","city":"Indianapolis","latitude":39.76909,"longitude":-86.158018,"location":"Indianapolis, IN, USA","region":"Indianapolis","conference_url":"https://us06web.zoom.us/j/7465852247?pwd=SDVnR3hkRU8vK2xJemhyUzIrenN6Zz09","url":"https://indyaa.org/meetings/indy-womens-bb-study/","timezone":"America/Indiana/Indianapolis"},{"feed":"louisvilleaa.org","slug":"lunch-bunch-group-4","name":"Lunch Bunch Group","day":1,"time":"12:00","types":["D","O","X"],"state":"IN","postal_code":"47129","city":"Clarksville","address":"202 Homestead Ave","latitude":38.2853802,"longitude":-85.754133,"location":"The Recovery Complex","region":"Clark County, IN","url":"https://loukyaa.org/meetings/lunch-bunch-group-4/","group":"Lunch Bunch Group","timezone":"America/Kentucky/Louisville"},{"feed":"indyaa.org","slug":"mid-day-monday","name":"Mid Day Monday","day":1,"time":"12:00","types":["D","O"],"state":"IN","postal_code":"46140","city":"Greenfield","address":"226 Cherry St","latitude":39.7884871,"longitude":-85.7527653,"location":"Greenfield Way Out Club","region":"E-Greenfield","notes":"No Smoking, Wheelchair Accessible","url":"https://indyaa.org/meetings/mid-day-monday/","timezone":"America/Indiana/Indianapolis"},{"feed":"indyaa.org","slug":"monday-noon-meeting","name":"Monday Noon Meeting","day":1,"time":"12:00","types":["D","O"],"state":"IN","postal_code":"46060","city":"Noblesville","address":"16065 Prosperity Dr","latitude":40.022401,"longitude":-85.999253,"location":"Suburban North Club","region":"N-Noblesville","notes":"No Smoking, Wheelchair Accessible","url":"https://indyaa.org/meetings/monday-noon-meeting/","timezone":"America/Indiana/Indianapolis"},{"feed":"southwesternindianaaa.org","slug":"monday-through-saturday-grouposiii-4","name":"Monday through Saturday Group","day":1,"time":"12:00","end_time":"13:00","types":["D","O","X"],"state":"IN","postal_code":"47713","city":"Evansville","address":"770 E Walnut St","latitude":37.9740792,"longitude":-87.5530664,"location":"Old Stone 3 (OSIII)","region":"South Western Indiana","url":"https://southwesternindianaaa.org/meetings/monday-through-saturday-grouposiii-4/","group":"Old Stone 3 (OSIII)","timezone":"America/Chicago"},{"feed":"indyaa.org","slug":"mondays-in-the-basement","name":"Mondays In The Basement","day":1,"time":"12:00","types":["C","D","ONL"],"state":"IN","postal_code":"46204","city":"Indianapolis","address":"125 Monument Cir","latitude":39.7693036,"longitude":-86.1575504,"location":"Christ Church Cathedral","region":"INDPLS-Midtown","notes":"No Smoking, Wheelchair Accessible","conference_url":"https://zoom.us/j/94080236185?pwd=NUc0TkJEZFhSaGlIN1B5alQ5QytRUT09","url":"https://indyaa.org/meetings/mondays-in-the-basement/","timezone":"America/Indiana/Indianapolis"},{"feed":"indyaa.org","slug":"noon-meeting-6","name":"Noon Meeting","day":1,"time":"12:00","types":["C","D"],"state":"IN","postal_code":"46205","city":"Indianapolis","address":"4627 Carvel Ave","latitude":39.8408575,"longitude":-86.1388834,"location":"Carvel Club","region":"INDPLS-North","notes":"No Smoking, Wheelchair Accessible","url":"https://indyaa.org/meetings/noon-meeting-6/","timezone":"America/Indiana/Indianapolis"},{"feed":"aaftwayne.org","slug":"primary-purpose","name":"Primary Purpose","day":1,"time":"12:00","end_time":"13:00","types":["D","O"],"state":"IN","postal_code":"46992","city":"Wabash","address":"1960 Vernon St","latitude":40.777537,"longitude":-85.8298319,"region":"Wabash","url":"https://www.aafortwayne.org/meetings/primary-purpose/","timezone":"America/New_York"},{"feed":"aaftwayne.org","slug":"serenity-circle","name":"SERENITY CIRCLE","day":1,"time":"12:00","types":["O","D","X"],"state":"IN","postal_code":"46802","city":"Fort Wayne","address":"1317 W Washington Blvd","latitude":41.074366,"longitude":-85.1559718,"location":"13 Step House","region":"Fort Wayne","notes":"No Smoking","url":"https://www.aafortwayne.org/meetings/serenity-circle/","group":"0109278 (22) (59)","timezone":"America/New_York"},{"feed":"aaftwayne.org","slug":"serenity-house-2","name":"SERENITY HOUSE","day":1,"time":"12:00","types":["D","O"],"state":"IN","postal_code":"46706","city":"Auburn","address":"2438 Co Rd 50","latitude":41.3435549,"longitude":-85.0764486,"location":"Barn 2438","region":"Auburn","url":"https://www.aafortwayne.org/meetings/serenity-house-2/","timezone":"America/New_York"},{"feed":"aaftwayne.org","slug":"v-a-meeting","name":"FREEDOM FROM FIGHTING","day":1,"time":"12:00","end_time":"13:00","types":["B","O"],"state":"IN","postal_code":"46805","city":"Fort Wayne","address":"2500 E State Blvd","latitude":41.0957817,"longitude":-85.1063307,"location":"VA Annex","region":"Fort Wayne","url":"https://www.aafortwayne.org/meetings/v-a-meeting/","timezone":"America/New_York"},{"feed":"indyaa.org","slug":"womens-big-book-study-group","name":"Women's Big Book Study Group","day":1,"time":"12:00","end_time":"13:00","types":["B","C","LIT","W"],"state":"IN","postal_code":"46240","city":"Indianapolis","address":"8600 N College Ave","latitude":39.9133642,"longitude":-86.1469358,"location":"1st Baptist Church","region":"INDPLS-North","notes":"Go to Door 1 on the north side. If locked, ring doorbell to enter. Walk straight ahead to Welcome Desk, turn left, then walk straight ahead past sanctuary to parlor","url":"https://indyaa.org/meetings/womens-big-book-study-group/","timezone":"America/Indiana/Indianapolis"},{"feed":"indyaa.org","slug":"brown-bag-broup-2","name":"Brown Bag Group (Shelbyville)","day":1,"time":"12:15","types":["D","O"],"state":"IN","postal_code":"46176","city":"Shelbyville","address":"62 3rd St","latitude":39.5149896,"longitude":-85.7759954,"location":"Dry Dock Club","region":"S-Shelbyville","notes":"The Brown Bag Group Shelbyville meets Monday-Friday at 12:15pm. It is Non Smoking and wheelchair accessible","url":"https://indyaa.org/meetings/brown-bag-broup-2/","group":"The Brown Bag Group Shelbyville","timezone":"America/Indiana/Indianapolis"},{"feed":"indyaa.org","slug":"breath-of-life-mon","name":"Breath of Life Monday","day":1,"time":"13:00","types":["O"],"state":"IN","postal_code":"46219","city":"Indianapolis","address":"441 S Ritter Ave","latitude":39.7615058,"longitude":-86.0730576,"location":"Club East","region":"INDPLS-East","notes":"Discussion / Speaker, No Smoking, Wheelchair Accessible","url":"https://indyaa.org/meetings/breath-of-life-mon/","timezone":"America/Indiana/Indianapolis"},{"feed":"indyaa.org","slug":"3rd-shift-oddballs-5","name":"3rd Shift Oddballs","day":1,"time":"15:00","types":["D","O"],"state":"IN","postal_code":"46060","city":"Noblesville","address":"16065 Prosperity Dr","latitude":40.022401,"longitude":-85.999253,"location":"Suburban North Club","region":"N-Noblesville","notes":"No Smoking, Wheelchair Accessible","url":"https://indyaa.org/meetings/3rd-shift-oddballs-5/","timezone":"America/Indiana/Indianapolis"},{"feed":"southwesternindianaaa.org","slug":"mc-group-monday","name":"MC Group Monday","day":1,"time":"17:00","end_time":"18:00","types":["D","O","X"],"state":"IN","postal_code":"47601","city":"Boonville","address":"326 E Locust St","latitude":38.0492494,"longitude":-87.2709344,"location":"Strangers Rest Masonic Lodge","region":"South Western Indiana","url":"https://southwesternindianaaa.org/meetings/mc-group-monday/","group":"MC Group","timezone":"America/Chicago"},{"feed":"southwesternindianaaa.org","slug":"c-l-30","name":"Colombia and Linwood","day":1,"time":"17:30","end_time":"18:30","types":["D","O","X"],"state":"IN","postal_code":"47711","city":"Evansville","address":"761 E Columbia St","latitude":37.9845113,"longitude":-87.553166,"location":"Colombia and Linwood","region":"South Western Indiana","url":"https://southwesternindianaaa.org/meetings/c-l-30/","group":"Colombia and Linwood","timezone":"America/Chicago"},{"feed":"louisvilleaa.org","slug":"choices-group-2","name":"Choices Group","day":1,"time":"17:30","end_time":"18:30","types":["D","O","X"],"state":"IN","postal_code":"47150","city":"New Albany","address":"4920 Charlestown Rd","latitude":38.3601754,"longitude":-85.7832427,"location":"Christ's Community Church of the Nazarene","region":"Floyd County IN","url":"https://loukyaa.org/meetings/choices-group-2/","group":"Choices Group","timezone":"America/Kentucky/Louisville"},{"feed":"indyaa.org","slug":"digging-up-the-grapevine","name":"Digging Up the Grapevine","day":1,"time":"17:30","end_time":"18:30","types":["LIT","O"],"state":"IN","postal_code":"46226","city":"Indianapolis","address":"3039 N Post Rd","latitude":39.8128502,"longitude":-86.0082618,"location":"P-30 Indianapolis","region":"Indianapolis","notes":"Volumod Building, in the Safety Training Room. Big Book, 12 &amp; 12 &amp; Grapevine literature used.","url":"https://indyaa.org/meetings/digging-up-the-grapevine/","timezone":"America/Indiana/Indianapolis"},{"feed":"indyaa.org","slug":"knucklehead-group-3","name":"Knucklehead Group","day":1,"time":"17:30","types":["D","LIT","O"],"state":"IN","postal_code":"46060","city":"Noblesville","address":"16065 Prosperity Dr","latitude":40.022401,"longitude":-85.999253,"location":"Suburban North Club","region":"N-Noblesville","notes":"No Smoking, Wheelchair Accessible","url":"https://indyaa.org/meetings/knucklehead-group-3/","timezone":"America/Indiana/Indianapolis"},{"feed":"southwesternindianaaa.org","slug":"primary-purposeosiii-4","name":"Primary Purpose@OSIII","day":1,"time":"17:30","end_time":"18:30","types":["D","O","X"],"state":"IN","postal_code":"47713","city":"Evansville","address":"770 E Walnut St","latitude":37.9740792,"longitude":-87.5530664,"location":"Old Stone 3 (OSIII)","region":"South Western Indiana","url":"https://southwesternindianaaa.org/meetings/primary-purposeosiii-4/","group":"Old Stone 3 (OSIII)","timezone":"America/Chicago"},{"feed":"indyaa.org","slug":"twisted-sisters","name":"Twisted Sisters","day":1,"time":"17:30","end_time":"18:30","types":["D","LIT","W"],"state":"IN","postal_code":"46131","city":"Franklin","address":"1165 W Jefferson St","latitude":39.4805316,"longitude":-86.0807789,"location":"1165 W Jefferson St, Franklin, IN 46131, USA","region":"S-Franklin","url":"https://indyaa.org/meetings/twisted-sisters/","timezone":"America/Indiana/Indianapolis"},{"feed":"aaftwayne.org","slug":"164-more","name":"164 & More","day":1,"time":"18:00","end_time":"19:00","types":["B","D","O"],"state":"IN","postal_code":"46555","city":"North Webster","address":"124 N Harrison St","latitude":41.3261626,"longitude":-85.6996038,"location":"Life Care House","region":"North Webster","url":"https://www.aafortwayne.org/meetings/164-more/","timezone":"America/New_York"},{"feed":"aaftwayne.org","slug":"angola-area-aa-3","name":"ANGOLA AREA AA","day":1,"time":"18:00","types":["O"],"state":"IN","postal_code":"46703","city":"Angola","address":"225 W Maumee St","latitude":41.6346209,"longitude":-85.0013963,"location":"Alano Club","region":"Angola","notes":"Candlelight Meeting","url":"https://www.aafortwayne.org/meetings/angola-area-aa-3/","timezone":"America/New_York"},{"feed":"indyaa.org","slug":"big-book-12-x-12-study","name":"Big Book, 12 & 12 Study","day":1,"time":"18:00","types":["C","D"],"state":"IN","postal_code":"46176","city":"Shelbyville","address":"62 3rd St","latitude":39.5149896,"longitude":-85.7759954,"location":"Dry Dock Club","region":"S-Shelbyville","notes":"No Smoking, Wheelchair Accessible","url":"https://indyaa.org/meetings/big-book-12-x-12-study/","timezone":"America/Indiana/Indianapolis"},{"feed":"louisvilleaa.org","slug":"big-book-newcomers-group","name":"Miracle Monday Big Book Study","day":1,"time":"18:00","end_time":"19:00","types":["B","D","O","X"],"state":"IN","postal_code":"47150","city":"New Albany","address":"2248 Charlestown Rd","latitude":38.3071084,"longitude":-85.8097036,"location":"Crossroads Community Church","region":"Floyd County IN","url":"https://loukyaa.org/meetings/big-book-newcomers-group/","group":"Big Book Newcomer's Group","timezone":"America/Kentucky/Louisville"},{"feed":"southwesternindianaaa.org","slug":"brentwood-4","name":"Brentwood","day":1,"time":"18:00","end_time":"19:00","types":["D","O","X"],"state":"IN","postal_code":"47630","city":"Newburgh","address":"4488 Roslin Rd","latitude":37.9929612,"longitude":-87.3311159,"location":"Brentwood Springs","region":"South Western Indiana","url":"https://southwesternindianaaa.org/meetings/brentwood-4/","group":"Brentwood","timezone":"America/Chicago"},{"feed":"indyaa.org","slug":"franklin-serenity-group-3","name":"Franklin Serenity Group","day":1,"time":"18:00","end_time":"19:00","types":["D","LIT","O"],"state":"IN","postal_code":"46131","city":"Franklin","address":"550 E Jefferson St 2nd Floor","latitude":39.4811637,"longitude":-86.0484194,"location":"Alva Neal Building","region":"S-Franklin","notes":"Twelve &amp; Twelve Meeting. No Smoking. Group does not sign attendance sheets","url":"https://indyaa.org/meetings/franklin-serenity-group-3/","timezone":"America/Indiana/Indianapolis"},{"feed":"indyaa.org","slug":"mondays-over-group","name":"Monday's Over Group","day":1,"time":"18:00","types":["D","O"],"state":"IN","postal_code":"46219","city":"Indianapolis","address":"441 S Ritter Ave","latitude":39.7615058,"longitude":-86.0730576,"location":"Club East","region":"INDPLS-East","notes":"No Smoking, Wheelchair Accessible","url":"https://indyaa.org/meetings/mondays-over-group/","timezone":"America/Indiana/Indianapolis"},{"feed":"aaftwayne.org","slug":"sisters-in-serenity","name":"SISTERS IN SERENITY","day":1,"time":"18:00","types":["C"],"state":"IN","postal_code":"46750","city":"Huntington","address":"900 E State St","latitude":40.881765,"longitude":-85.483116,"location":"Caf\u00e9 of Hope","region":"Huntington","notes":"Women Only","url":"https://www.aafortwayne.org/meetings/sisters-in-serenity/","timezone":"America/New_York"},{"feed":"southwesternindianaaa.org","slug":"we-do-recover","name":"We Do Recover","day":1,"time":"18:00","end_time":"19:00","types":["D","O"],"state":"IN","postal_code":"47586","city":"Tell City","address":"601 16th St","latitude":37.9494034,"longitude":-86.7595275,"location":"Community Building","region":"South Western Indiana","url":"https://southwesternindianaaa.org/meetings/we-do-recover/","group":"We Do Recover - Tell City","timezone":"America/Chicago"},{"feed":"indyaa.org","slug":"westfield-as-bill-sees-it","name":"Westfield As Bill Sees It","day":1,"time":"18:00","end_time":"19:00","types":["D","LIT","O"],"state":"IN","postal_code":"46074","city":"Westfield","address":"318 N Union St","latitude":40.0454672,"longitude":-86.1262371,"location":"Christ United Methodist Church","region":"N-Westfield","notes":"No Smoking","url":"https://indyaa.org/meetings/westfield-as-bill-sees-it/","timezone":"America/Indiana/Indianapolis"},{"feed":"indyaa.org","slug":"womens-big-book-meeting","name":"Women's Big Book Meeting","day":1,"time":"18:00","types":["D","LIT","O","W"],"state":"IN","postal_code":"46060","city":"Noblesville","address":"16065 Prosperity Dr","latitude":40.022401,"longitude":-85.999253,"location":"Suburban North Club","region":"N-Noblesville","notes":"No Smoking, Women's, Wheelchair Accessible","url":"https://indyaa.org/meetings/womens-big-book-meeting/","timezone":"America/Indiana/Indianapolis"},{"feed":"indyaa.org","slug":"womens-gathering-place","name":"Women's Gathering Place","day":1,"time":"18:00","types":["C","D","W"],"state":"IN","postal_code":"46240","city":"Indianapolis","address":"9111 Haverstick Rd","latitude":39.9203859,"longitude":-86.1156925,"location":"Church at the Crossing","region":"INDPLS-North","notes":"Enter through Door 4 and follow hallway to the right.\nMeeting room on the right.\nNo Smoking, Women's, Wheelchair Accessible","url":"https://indyaa.org/meetings/womens-gathering-place/","timezone":"America/Indiana/Indianapolis"},{"feed":"indyaa.org","slug":"womens-spirit-group","name":"Womens Spirit Group","day":1,"time":"18:00","end_time":"19:00","types":["C","D","W","ONL"],"state":"IN","city":"Indianapolis","latitude":39.76909,"longitude":-86.158018,"location":"Indianapolis, IN, USA","region":"Indianapolis","conference_url":"https://us02web.zoom.us/j/82354647601","url":"https://indyaa.org/meetings/womens-spirit-group/","timezone":"America/Indiana/Indianapolis"},{"feed":"indyaa.org","slug":"central-city-f-o-b-group","name":"Central City Friends Meeting","day":1,"time":"18:15","types":["D","O"],"state":"IN","postal_code":"46204","city":"Indianapolis","address":"401 N Delaware St","latitude":39.7730289,"longitude":-86.1539442,"location":"Roberts Park Church","region":"INDPLS-Midtown","notes":"No Smoking, Wheelchair Accessible","url":"https://indyaa.org/meetings/central-city-f-o-b-group/","timezone":"America/Indiana/Indianapolis"},{"feed":"southwesternindianaaa.org","slug":"gateway-to-recovery","name":"Gateway to Recovery","day":1,"time":"18:30","end_time":"19:30","types":["B","M","O","X"],"state":"IN","postal_code":"47630","city":"Newburgh","address":"10800 Lincoln Ave","latitude":37.9712249,"longitude":-87.4472646,"location":"Crossroads Christian Church","region":"South Western Indiana","url":"https://southwesternindianaaa.org/meetings/gateway-to-recovery/","group":"Gateway to Recovery","timezone":"America/Chicago"},{"feed":"southwesternindianaaa.org","slug":"mccutchanville-community-church","name":"McCutchanville Community Church","day":1,"time":"18:30","end_time":"19:30","types":["D","O","X"],"state":"IN","postal_code":"47725","city":"Evansville","address":"9505 Petersburg Rd","latitude":38.0643652,"longitude":-87.5244772,"location":"McCutchanville Community Church","region":"South Western Indiana","url":"https://southwesternindianaaa.org/meetings/mccutchanville-community-church/","timezone":"America/Chicago"},{"feed":"indyaa.org","slug":"miracle-on-34th-street-women-big-book","name":"Miracle On 34th Street","day":1,"time":"18:30","end_time":"19:30","types":["B","C","D","LIT","W"],"state":"IN","postal_code":"46224","city":"Indianapolis","address":"6000 W 34th St","latitude":39.8176772,"longitude":-86.2641539,"location":"St. Gabriel Church ( Enter in door #6)","region":"INDPLS-West","url":"https://indyaa.org/meetings/miracle-on-34th-street-women-big-book/","timezone":"America/Indiana/Indianapolis"},{"feed":"indyaa.org","slug":"progress-not-perfection","name":"Progress Not Perfection","day":1,"time":"18:30","types":["C","D"],"state":"IN","postal_code":"46142","city":"Greenwood","address":"102 West Main Street","latitude":39.6140969,"longitude":-86.1077135,"location":"Greenwood Presbyterian Church","region":"S-Greenwood","notes":"At BrewernnNo Smoking, Wheelchair Accessible","url":"https://indyaa.org/meetings/progress-not-perfection/","timezone":"America/Indiana/Indianapolis"},{"feed":"indyaa.org","slug":"southside-step-study","name":"Southside Step Study","day":1,"time":"18:30","types":["D","LIT","M","O"],"state":"IN","postal_code":"46143","city":"Greenwood","address":"6286 IN-144","latitude":39.5654319,"longitude":-86.2472428,"location":"Bluff Creek Christian Church","region":"S-Bargersville","notes":"No Smoking, Men's","url":"https://indyaa.org/meetings/southside-step-study/","timezone":"America/Indiana/Indianapolis"},{"feed":"indyaa.org","slug":"broad-ripple-beginners","name":"Broad Ripple Beginners","day":1,"time":"18:45","types":["D","O","Y"],"state":"IN","postal_code":"46220","city":"Indianapolis","address":"6185 Guilford Ave","latitude":39.8680593,"longitude":-86.1426487,"location":"St. Lukes United Methodist Church - Midtown (Broad Ripple)","region":"INDPLS-North","notes":"No Smoking, Alanon Same Location","url":"https://indyaa.org/meetings/broad-ripple-beginners/","timezone":"America/Indiana/Indianapolis"},{"feed":"indyaa.org","slug":"danville-womens-12-12","name":"Danville Women's 12 & 12","day":1,"time":"18:45","types":["D","LIT","O","W"],"state":"IN","postal_code":"46122","city":"Danville","address":"180 W Main St","latitude":39.761035,"longitude":-86.526016,"location":"Danville Christian Church","region":"W-Danville","notes":"No Smoking, Women's","url":"https://indyaa.org/meetings/danville-womens-12-12/","timezone":"America/Indiana/Indianapolis"},{"feed":"aaftwayne.org","slug":"46807-group","name":"46807 Group","day":1,"time":"19:00","end_time":"20:00","types":["D","O"],"state":"IN","postal_code":"46807","city":"Fort Wayne","address":"5310 Old Mill Rd","latitude":41.0348071,"longitude":-85.1512177,"location":"UNITARIAN CHURCH","region":"Fort Wayne","url":"https://www.aafortwayne.org/meetings/46807-group/","timezone":"America/New_York"},{"feed":"aaftwayne.org","slug":"a-new-beginning","name":"A New Beginning","day":1,"time":"19:00","end_time":"20:00","types":["C","D"],"state":"IN","postal_code":"46816","city":"Fort Wayne","address":"7501 Hessen Cassel Rd","latitude":41.0174114,"longitude":-85.0947878,"location":"Trier Ridge Community Church","region":"Fort Wayne","url":"https://www.aafortwayne.org/meetings/a-new-beginning/","timezone":"America/New_York"},{"feed":"indyaa.org","slug":"according-to-bill-group","name":"As Bill Sees It Group (Franklin)","day":1,"time":"19:00","end_time":"20:00","types":["D","O"],"state":"IN","postal_code":"46131","city":"Franklin","address":"100 E Madison St","latitude":39.4820186,"longitude":-86.0533985,"location":"1st Presbyterian Church","region":"S-Franklin","notes":"No Smoking, Alanon Same Location","url":"https://indyaa.org/meetings/according-to-bill-group/","timezone":"America/Indiana/Indianapolis"},{"feed":"aaftwayne.org","slug":"big-book-study-2","name":"BIG BOOK STUDY","day":1,"time":"19:00","types":["O"],"state":"IN","postal_code":"46741","city":"Grabill","address":"13637 State St","latitude":41.2119017,"longitude":-84.9689423,"location":"Grabill Missionary Church","region":"Grabill","notes":"Door \"I\"\n\nBig Book Study","url":"https://www.aafortwayne.org/meetings/big-book-study-2/","group":"716104 (22) (65)","timezone":"America/New_York"},{"feed":"aaftwayne.org","slug":"butler-big-book","name":"Butler Big Book","day":1,"time":"19:00","end_time":"20:00","types":["B","O"],"state":"IN","postal_code":"46721","city":"Butler","address":"173 W Oak St","latitude":41.4290074,"longitude":-84.8741789,"location":"Refuge Community Church Entrance 4","region":"Fort Wayne","url":"https://www.aafortwayne.org/meetings/butler-big-book/","timezone":"America/New_York"},{"feed":"indyaa.org","slug":"charity-house-monday-night-discussion-group","name":"Charity House Monday Night Discussion Group","day":1,"time":"19:00","end_time":"20:00","types":["D","O"],"state":"IN","postal_code":"46241","city":"Indianapolis","address":"2730 S Tibbs Ave","latitude":39.7268252,"longitude":-86.2162258,"location":"Charity House","region":"INDPLS-West","url":"https://indyaa.org/meetings/charity-house-monday-night-discussion-group/","timezone":"America/Indiana/Indianapolis"},{"feed":"aaftwayne.org","slug":"closed-group","name":"CLOSED GROUP","day":1,"time":"19:00","types":["C"],"state":"IN","postal_code":"46746","city":"Howe","address":"511 3rd St","latitude":41.7213792,"longitude":-85.4199243,"location":"United Methodist Church","region":"Howe","url":"https://www.aafortwayne.org/meetings/closed-group/","timezone":"America/New_York"},{"feed":"aaftwayne.org","slug":"club-recovery-3","name":"CLUB RECOVERY","day":1,"time":"19:00","end_time":"20:00","types":["O"],"state":"IN","postal_code":"46755","city":"Kendallville","address":"1110 Dowling St","latitude":41.4461637,"longitude":-85.2485626,"location":"Club Recovery","region":"Kendallville","url":"https://www.aafortwayne.org/meetings/club-recovery-3/","timezone":"America/New_York"},{"feed":"aaftwayne.org","slug":"community-center-avilla","name":"COMMUNITY CENTER AVILLA","day":1,"time":"19:00","types":["O"],"state":"IN","postal_code":"46710","city":"Avilla","address":"116 W Albion St","latitude":41.3660265,"longitude":-85.2402454,"location":"Community Center","region":"Avilla","url":"https://www.aafortwayne.org/meetings/community-center-avilla/","timezone":"America/New_York"},{"feed":"aacincinnati.org","slug":"easy-does-it","name":"Easy Does It","day":1,"time":"19:00","end_time":"20:00","types":["C","D"],"state":"IN","postal_code":"47012","city":"Brookville","address":"151 E 4th St","latitude":39.4186822,"longitude":-85.0111055,"location":"Drop In Center","region":"SE Indiana","url":"https://aacincinnati.org/meetings/easy-does-it/","group":"Easy Does It","timezone":"America/New_York"},{"feed":"indyaa.org","slug":"freedom-from-alcohol-big-book-meeting","name":"Freedom From Alcohol Big Book Meeting","day":1,"time":"19:00","end_time":"20:00","types":["C","D","LIT"],"state":"IN","postal_code":"46227","city":"Indianapolis","address":"1820 E Epler Ave","latitude":39.6871725,"longitude":-86.1279743,"location":"Edgewood United Methodist Church","region":"INDPLS-South","url":"https://indyaa.org/meetings/freedom-from-alcohol-big-book-meeting/","timezone":"America/Indiana/Indianapolis"},{"feed":"aaftwayne.org","slug":"god-always-provides","name":"Attitude of Gratitude","day":1,"time":"19:00","end_time":"20:00","types":["D","O","X"],"state":"IN","postal_code":"46808","city":"Fort Wayne","address":"1118 Spring St","latitude":41.0889893,"longitude":-85.1567874,"location":"Club Oassis","region":"Fort Wayne","url":"https://www.aafortwayne.org/meetings/god-always-provides/","group":"0173083 (22) (67)","timezone":"America/New_York"},{"feed":"indyaa.org","slug":"great-facts-speaker-zoom-meeting-link-635-148-435-pass-word-232167-3","name":"Great Facts Speaker Zoom Meeting Link: 635 148 435 Pass Word 232167","day":1,"time":"19:00","end_time":"20:00","types":["O","SP","ONL"],"state":"IN","city":"Indianapolis","latitude":39.76909,"longitude":-86.158018,"location":"Indianapolis, IN, USA","region":"Indianapolis","notes":"Great Facts Speaker Zoom Meeting Link: 635 148 435 Pass Word 232167","conference_url":"https://zoom.us/j/85252609461?pwd=SHpGWU5Za1cwdThZbFkxelpTaWIxZz09","url":"https://indyaa.org/meetings/great-facts-speaker-zoom-meeting-link-635-148-435-pass-word-232167-3/","timezone":"America/Indiana/Indianapolis"},{"feed":"louisvilleaa.org","slug":"growing-up-all-over-again-group","name":"Growing Up All Over Again Group","day":1,"time":"19:00","end_time":"20:00","types":["D","O","SP","X"],"state":"IN","postal_code":"47112","city":"Corydon","address":"105 Big Indian Rd NE","latitude":38.2181886,"longitude":-86.1151787,"location":"Next Step Building","region":"Harrison County, IN","notes":"Non-Smoking","url":"https://loukyaa.org/meetings/growing-up-all-over-again-group/","group":"Growing Up All Over Again Group","timezone":"America/Kentucky/Louisville"},{"feed":"southwesternindianaaa.org","slug":"haysville-keep-it-simple-group","name":"Haysville Keep it Simple Group","day":1,"time":"19:00","end_time":"20:00","types":["O"],"state":"IN","postal_code":"47546","city":"Jasper","address":"131 IN-56","latitude":38.4848431,"longitude":-86.9084114,"location":"Christ Lutheran Church","region":"Jasper","url":"https://southwesternindianaaa.org/meetings/haysville-keep-it-simple-group/","timezone":"America/Chicago"},{"feed":"southwesternindianaaa.org","slug":"holy-cross-convent-2","name":"Holy Cross Convent","day":1,"time":"19:00","end_time":"20:00","types":["D","O"],"state":"IN","postal_code":"47648","city":"Fort Branch","address":"302 E Walnut St","latitude":38.2466377,"longitude":-87.576133,"location":"Holy Cross Convent","region":"South Western Indiana","url":"https://southwesternindianaaa.org/meetings/holy-cross-convent-2/","group":"Holy Cross Convent","timezone":"America/Chicago"},{"feed":"southwesternindianaaa.org","slug":"hope-healing-2","name":"Hope and Healing","day":1,"time":"19:00","end_time":"20:00","types":["D","O"],"state":"IN","postal_code":"47633","city":"Poseyville","address":"4262 Princeton St","latitude":38.103768,"longitude":-87.7848262,"location":"Wadesville General Baptist Church","region":"South Western Indiana","url":"https://southwesternindianaaa.org/meetings/hope-healing-2/","group":"Hope and Healing","timezone":"America/Chicago"},{"feed":"indyaa.org","slug":"mars-hill-literature-group","name":"Mars Hill Literature Group","day":1,"time":"19:00","end_time":"20:00","types":["D","LIT","O"],"state":"IN","postal_code":"46241","city":"Indianapolis","address":"3900 W Farnsworth St","latitude":39.7245475,"longitude":-86.229631,"location":"Mars Hill Free Methodist Church","region":"INDPLS-West","notes":"Discussion / Speaker, No Smoking, Alanon Same Location","url":"https://indyaa.org/meetings/mars-hill-literature-group/","timezone":"America/Indiana/Indianapolis"},{"feed":"indyaa.org","slug":"monday-nfad-group","name":"Monday NFAD Group","day":1,"time":"19:00","types":["C","D"],"state":"IN","postal_code":"46205","city":"Indianapolis","address":"4627 Carvel Ave","latitude":39.8408575,"longitude":-86.1388834,"location":"Carvel Club","region":"INDPLS-North","notes":"DownstairsnnNo Smoking, Wheelchair Accessible","url":"https://indyaa.org/meetings/monday-nfad-group/","timezone":"America/Indiana/Indianapolis"},{"feed":"indyaa.org","slug":"monday-night-group","name":"Monday Night Group (Brazil)","day":1,"time":"19:00","end_time":"20:00","types":["D","EN"],"state":"IN","postal_code":"46204","city":"Indianapolis","address":"19 Alabama St","latitude":39.7673188,"longitude":-86.1524365,"location":"Annunciation Church","region":"INDPLS-West","notes":"Old Grade School Building Behind the Church","url":"https://indyaa.org/meetings/monday-night-group/","timezone":"America/Indiana/Indianapolis"},{"feed":"aaftwayne.org","slug":"monday-night-vet-group","name":"Monday Night Vet Group","day":1,"time":"19:00","end_time":"20:00","types":["B","O","X"],"state":"IN","postal_code":"46805","city":"Fort Wayne","address":"2121 Lake Ave","latitude":41.0911034,"longitude":-85.1094371,"location":"VA Hospital","region":"Fort Wayne","notes":"Enter on the North Side of Building","url":"https://www.aafortwayne.org/meetings/monday-night-vet-group/","timezone":"America/New_York"},{"feed":"aaftwayne.org","slug":"new-beginnings","name":"New Beginnings","day":1,"time":"19:00","end_time":"20:00","types":["LIT","O"],"state":"IN","postal_code":"46992","city":"Wabash","address":"1960 Vernon St","latitude":40.777537,"longitude":-85.8298319,"region":"Wabash","url":"https://www.aafortwayne.org/meetings/new-beginnings/","timezone":"America/New_York"},{"feed":"aaftwayne.org","slug":"open-group","name":"OPEN GROUP","day":1,"time":"19:00","types":["O","SP"],"state":"IN","postal_code":"46733","city":"Decatur","address":"1129 Mercer Ave","latitude":40.8175858,"longitude":-84.9107653,"location":"Decatur Church of God","region":"Decatur","url":"https://www.aafortwayne.org/meetings/open-group/","timezone":"America/New_York"},{"feed":"indyaa.org","slug":"operation-serenity","name":"Operation Serenity","day":1,"time":"19:00","end_time":"20:00","types":["C","D"],"state":"IN","postal_code":"46123","city":"Avon","address":"75 Queensway Dr","latitude":39.7616161,"longitude":-86.4056527,"location":"Mental Health of America Hendricks County","region":"W-Avon","notes":"Topics derived from the literature \"A.A. and the Armed Services\"","url":"https://indyaa.org/meetings/operation-serenity/","timezone":"America/Indiana/Indianapolis"},{"feed":"aaftwayne.org","slug":"shepard-house-meeting","name":"Shepard House Meeting","day":1,"time":"19:00","end_time":"20:00","types":["LIT","O"],"state":"IN","postal_code":"46805","city":"Fort Wayne","address":"519 Tennessee Ave","latitude":41.0895835,"longitude":-85.1339716,"location":"Shepard House","region":"Fort Wayne","url":"https://www.aafortwayne.org/meetings/shepard-house-meeting/","timezone":"America/New_York"},{"feed":"aaftwayne.org","slug":"st-albans-12-12","name":"St Albans 12 & 12 (Orientation Meeting)","day":1,"time":"19:00","end_time":"20:00","types":["12x12","C"],"state":"IN","postal_code":"46835","city":"Fort Wayne","address":"7308 St Joe Rd","latitude":41.1512152,"longitude":-85.082135,"location":"St Albans Church","region":"Fort Wayne","url":"https://www.aafortwayne.org/meetings/st-albans-12-12/","timezone":"America/New_York"},{"feed":"southwesternindianaaa.org","slug":"step-11-mindful-heart-buddha","name":"Step 11. Mindful Heart Buddha","day":1,"time":"19:00","end_time":"20:00","types":["MED","O"],"state":"IN","postal_code":"47711","city":"Evansville","address":"Bradford Park Office Complex, 600 N Weinbach Ave #220","latitude":37.9831917,"longitude":-87.5304229,"location":"Mindful Heart Buddha","region":"South Western Indiana","url":"https://southwesternindianaaa.org/meetings/step-11-mindful-heart-buddha/","group":"Mindful Heart Buddha","timezone":"America/Chicago"},{"feed":"indyaa.org","slug":"the-gates","name":"The Gates","day":1,"time":"19:00","end_time":"20:00","state":"IN","postal_code":"46033","city":"Carmel","address":"3106 E Carmel Dr","latitude":39.9626125,"longitude":-86.1114746,"location":"St. Peter United Church of Christ","region":"N-Carmel","notes":"TheGatesAA@gmail.com","url":"https://indyaa.org/meetings/the-gates/","timezone":"America/Indiana/Indianapolis"},