[{"feed":"aaftwayne.org","slug":"upon-awakening-zoom","name":"Upon Awakening Zoom","day":0,"time":"06:00","end_time":"07:00","types":["GR","ONL"],"state":"IN","city":"Fort Wayne","latitude":41.079273,"longitude":-85.1393513,"location":"ONLINE-FORT WAYNE","region":"Fort Wayne","notes":"Grapevine, Language of The Heart","conference_url":"https://zoom.us/j/4955309233","url":"https://www.aafortwayne.org/meetings/upon-awakening-zoom/","timezone":"America/New_York"},{"feed":"area22indiana.org","slug":"upon-awakening-zoom","name":"Upon Awakening Zoom","day":0,"time":"06:00","end_time":"07:00","types":["GR","ONL"],"state":"IN","city":"Fort Wayne","latitude":41.0794759,"longitude":-85.1362929,"location":"ONLINE-FORT WAYNE","region":"Fort Wayne","notes":"Grapevine, Language of The Heart","conference_url":"https://zoom.us/j/4955309233","url":"https://area22indiana.org/meetings/upon-awakening-zoom/","timezone":"America/Indiana/Indianapolis"},{"feed":"aaftwayne.org","slug":"albion-pilot-house","name":"Albion Pilot House","day":0,"time":"07:00","end_time":"08:00","types":["C"],"state":"IN","postal_code":"46701","city":"Albion","address":"1126 E Main St","latitude":41.3955719,"longitude":-85.4073869,"location":"Pilot House","region":"Kendallville","url":"https://www.aafortwayne.org/meetings/albion-pilot-house/","timezone":"America/New_York"},{"feed":"southwesternindianaaa.org","slug":"c-l-upstairs","name":"Colombia and Linwood (upstairs)","day":0,"time":"07:00","end_time":"08:00","types":["B","O"],"state":"IN","postal_code":"47711","city":"Evansville","address":"761 E Columbia St","latitude":37.9845113,"longitude":-87.553166,"location":"Colombia and Linwood","region":"South Western Indiana","url":"https://southwesternindianaaa.org/meetings/c-l-upstairs/","group":"Colombia and Linwood","timezone":"America/Chicago"},{"feed":"indyaa.org","slug":"sunday-7-am-mens-dialogue-group","name":"Sunday 7 AM Men's Dialogue Group","day":0,"time":"07:00","types":["C","D"],"state":"IN","postal_code":"46205","city":"Indianapolis","address":"4627 Carvel Ave","latitude":39.8408575,"longitude":-86.1388834,"location":"Carvel Club","region":"INDPLS-North","notes":"No Smoking, Men's, Wheelchair Accessible","url":"https://indyaa.org/meetings/sunday-7-am-mens-dialogue-group/","timezone":"America/Indiana/Indianapolis"},{"feed":"indyaa.org","slug":"sunday-at-seven","name":"Sunday at Seven","day":0,"time":"07:00","types":["C","D"],"state":"IN","postal_code":"46205","city":"Indianapolis","address":"4627 Carvel Ave","latitude":39.8408575,"longitude":-86.1388834,"location":"Carvel Club","region":"INDPLS-North","notes":"No Smoking, Wheelchair Accessible","url":"https://indyaa.org/meetings/sunday-at-seven/","timezone":"America/Indiana/Indianapolis"},{"feed":"indyaa.org","slug":"we-are-not-saints-north-6","name":"We Are Not Saints (North)","day":0,"time":"07:00","end_time":"07:45","types":["D","O"],"state":"IN","postal_code":"46032","city":"Carmel","address":"14598 Oak Ridge Rd","latitude":39.9990286,"longitude":-86.1481687,"location":"Our Lady of Mount Carmel Church","region":"N-Carmel","url":"https://indyaa.org/meetings/we-are-not-saints-north-6/","timezone":"America/Indiana/Indianapolis"},{"feed":"indyaa.org","slug":"winners-circle-6","name":"Winners Circle","day":0,"time":"07:00","types":["D","O"],"state":"IN","postal_code":"46060","city":"Noblesville","address":"16065 Prosperity Dr","latitude":40.022401,"longitude":-85.999253,"location":"Suburban North Club","region":"N-Noblesville","notes":"No Smoking, Wheelchair Accessible","url":"https://indyaa.org/meetings/winners-circle-6/","timezone":"America/Indiana/Indianapolis"},{"feed":"aaftwayne.org","slug":"early-bird-grapevine-zoom-meeting","name":"Early Bird Grapevine Zoom Meeting","day":0,"time":"07:30","end_time":"08:30","types":["C","DB","GR","ONL"],"state":"IN","city":"Fort Wayne","latitude":41.079273,"longitude":-85.1393513,"location":"ONLINE-FORT WAYNE","region":"Fort Wayne","conference_url":"https://zoom.us/j/84497066312","url":"https://www.aafortwayne.org/meetings/early-bird-grapevine-zoom-meeting/","timezone":"America/New_York"},{"feed":"area22indiana.org","slug":"early-bird-grapevine-zoom-meeting","name":"Early Bird Grapevine Zoom Meeting","day":0,"time":"07:30","end_time":"08:30","types":["C","DB","GR","ONL"],"state":"IN","city":"Fort Wayne","latitude":41.0794759,"longitude":-85.1362929,"location":"ONLINE-FORT WAYNE","region":"Fort Wayne","conference_url":"https://zoom.us/j/84497066312","url":"https://area22indiana.org/meetings/early-bird-grapevine-zoom-meeting/","timezone":"America/Indiana/Indianapolis"},{"feed":"area22indiana.org","slug":"early-fireball-group","name":"Early Fireball Group","day":0,"time":"07:30","end_time":"08:30","types":["D","O"],"state":"IN","postal_code":"46555","city":"North Webster","address":"124 N Harrison St","latitude":41.3261463,"longitude":-85.6996782,"location":"Life Care House","region":"North Webster","url":"https://area22indiana.org/meetings/early-fireball-group/","group":"District 43, Group # 122216","timezone":"America/Indiana/Indianapolis"},{"feed":"aaftwayne.org","slug":"earlybird-grapevine-meeting","name":"EARLYBIRD GRAPEVINE MEETING","day":0,"time":"07:30","types":["C","GR","X"],"state":"IN","postal_code":"46807","city":"Fort Wayne","address":"5310 Old Mill Rd","latitude":41.0348071,"longitude":-85.1512177,"location":"UNITARIAN CHURCH","region":"Fort Wayne","url":"https://www.aafortwayne.org/meetings/earlybird-grapevine-meeting/","group":"177259 (22) (65)","timezone":"America/New_York"},{"feed":"area22indiana.org","slug":"earlybird-grapevine-meeting","name":"EARLYBIRD GRAPEVINE MEETING","day":0,"time":"07:30","types":["C","GR","X"],"state":"IN","postal_code":"46807","city":"Fort Wayne","address":"5310 Old Mill Rd","latitude":41.0346947,"longitude":-85.1512484,"location":"UNITARIAN CHURCH","region":"Fort Wayne","url":"https://area22indiana.org/meetings/earlybird-grapevine-meeting/","group":"177259 (22) (65)","timezone":"America/Indiana/Indianapolis"},{"feed":"area22indiana.org","slug":"the-breakfast-club","name":"The Breakfast Club","day":0,"time":"07:30","types":["D","O"],"state":"IN","postal_code":"46016","city":"Anderson","address":"1408 Main St","latitude":40.1018389,"longitude":-85.6778788,"location":"5th Chapter House,","region":"Anderson","url":"https://area22indiana.org/meetings/the-breakfast-club/","group":"The Breakfast Club - 83","timezone":"America/Indiana/Indianapolis"},{"feed":"southwesternindianaaa.org","slug":"c-l-11","name":"Colombia and Linwood","day":0,"time":"08:00","end_time":"09:00","types":["B","O","X"],"state":"IN","postal_code":"47711","city":"Evansville","address":"761 E Columbia St","latitude":37.9845113,"longitude":-87.553166,"location":"Colombia and Linwood","region":"South Western Indiana","url":"https://southwesternindianaaa.org/meetings/c-l-11/","group":"Colombia and Linwood","timezone":"America/Chicago"},{"feed":"aaftwayne.org","slug":"lagrange-closed-no-slips","name":"Sunday Morning Solutions Group","day":0,"time":"08:00","types":["C","D"],"state":"IN","postal_code":"46761","city":"LaGrange","address":"880 N 075 E","latitude":41.6541738,"longitude":-85.4126477,"location":"Meridian Sun Lodge","region":"Lagrange","notes":"No Slips","url":"https://www.aafortwayne.org/meetings/lagrange-closed-no-slips/","timezone":"America/New_York"},{"feed":"area22indiana.org","slug":"lagrange-closed-no-slips","name":"Sunday Morning Solutions Group","day":0,"time":"08:00","types":["C","D"],"state":"IN","postal_code":"46761","city":"LaGrange","address":"880 N 075 E","latitude":41.6541738,"longitude":-85.4126477,"location":"Meridian Sun Lodge","region":"Lagrange","notes":"No Slips","url":"https://area22indiana.org/meetings/lagrange-closed-no-slips/","timezone":"America/Indiana/Indianapolis"},{"feed":"aaftwayne.org","slug":"step-house-speaker-meeting","name":"step house speaker meeting","day":0,"time":"08:00","end_time":"09:00","types":["O","SP"],"state":"IN","postal_code":"46802","city":"Fort Wayne","address":"1317 W Washington Blvd","latitude":41.074366,"longitude":-85.1559718,"location":"13 Step House","region":"Fort Wayne","url":"https://www.aafortwayne.org/meetings/step-house-speaker-meeting/","timezone":"America/New_York"},{"feed":"area22indiana.org","slug":"step-house-speaker-meeting","name":"step house speaker meeting","day":0,"time":"08:00","end_time":"09:00","types":["O","SP"],"state":"IN","postal_code":"46802","city":"Fort Wayne","address":"1317 W Washington Blvd","latitude":41.074312,"longitude":-85.155923,"location":"13 Step House","region":"Fort Wayne","url":"https://area22indiana.org/meetings/step-house-speaker-meeting/","timezone":"America/Indiana/Indianapolis"},{"feed":"indyaa.org","slug":"veterans-recovery-through-the-ranks","name":"Veterans Recovery Through the Ranks","day":0,"time":"08:00","end_time":"09:00","types":["C","D"],"state":"IN","postal_code":"46060","city":"Noblesville","address":"16065 Prosperity Dr","latitude":40.022401,"longitude":-85.999253,"location":"Suburban North Club","region":"N-Noblesville","notes":"No Smoking, Wheelchair accessible","url":"https://indyaa.org/meetings/veterans-recovery-through-the-ranks/","timezone":"America/Indiana/Indianapolis"},{"feed":"indyaa.org","slug":"northwest-earlybird","name":"Northwest Earlybird","day":0,"time":"08:15","end_time":"09:15","types":["D","O","SP"],"state":"IN","postal_code":"46231","city":"Indianapolis","address":"118 S Girls School Rd","latitude":39.7633309,"longitude":-86.2896778,"location":"Paragon Family Restaurant (Rockville Plaza)","region":"INDPLS-West","notes":"*Breakfast: 7:45-8:15 AM* Last Sunday of the month, Al-Anon participation. No Smoking","url":"https://indyaa.org/meetings/northwest-earlybird/","timezone":"America/Indiana/Indianapolis"},{"feed":"indyaa.org","slug":"11th-step-meditation-mtg","name":"11th Step Meditation Mtg","day":0,"time":"08:30","end_time":"09:30","types":["O"],"state":"IN","postal_code":"46060","city":"Noblesville","address":"16065 Prosperity Dr","latitude":40.022401,"longitude":-85.999253,"location":"Suburban North Club","region":"N-Noblesville","url":"https://indyaa.org/meetings/11th-step-meditation-mtg/","timezone":"America/Indiana/Indianapolis"},{"feed":"area23aa.org","slug":"on-awakening","name":"On Awakening","day":0,"time":"08:30","end_time":"09:30","types":["C","MED","X"],"state":"IN","postal_code":"47401","city":"Bloomington","address":"2420 E 3rd St","latitude":39.1633065,"longitude":-86.504121,"location":"First United Church","region":"South-Central Indiana","url":"https://area23aa.org/meetings/on-awakening","group":"On Awakening Group","timezone":"America/Indiana/Indianapolis"},{"feed":"area22indiana.org","slug":"eastside-group","name":"Eastside Group","day":0,"time":"09:00","types":["C"],"state":"IN","postal_code":"46975","city":"Rochester","address":"913 Main St","latitude":41.0644182,"longitude":-86.2156115,"location":"Solid Rock Church","region":"Rochester","notes":"Room 911 ( East Entry)","url":"https://area22indiana.org/meetings/eastside-group/","group":"Eastside Group - 55","timezone":"America/Indiana/Indianapolis"},{"feed":"area22indiana.org","slug":"eye-opener","name":"Eye Opener","day":0,"time":"09:00","types":["C"],"state":"IN","postal_code":"46360","city":"Michigan City","address":"211 E 6th St","latitude":41.7164785,"longitude":-86.8992631,"location":"Dunes Fellowship House","region":"Michigan City","url":"https://area22indiana.org/meetings/eye-opener/","group":"Eye Opener - 21","timezone":"America/Indiana/Indianapolis"},{"feed":"indyaa.org","slug":"got-home-group","name":"Got Home Group?","day":0,"time":"09:00","types":["C","D"],"state":"IN","postal_code":"46205","city":"Indianapolis","address":"4627 Carvel Ave","latitude":39.8408575,"longitude":-86.1388834,"location":"Carvel Club","region":"INDPLS-North","notes":"Name change was \"Sunday at 9AM Group\"\"\"nnNo Smoking, Wheelchair Accessible","url":"https://indyaa.org/meetings/got-home-group/","timezone":"America/Indiana/Indianapolis"},{"feed":"area23aa.org","slug":"grapevine","name":"Grapevine","day":0,"time":"09:00","end_time":"10:00","types":["D","O"],"state":"IN","postal_code":"47546","city":"Jasper","address":"424 W 7th St","latitude":38.3922926,"longitude":-86.9367208,"location":"Brosmer House","region":"South-Central Indiana","url":"https://area23aa.org/meetings/grapevine","group":"Grapevine","timezone":"America/Indiana/Indianapolis"},{"feed":"southwesternindianaaa.org","slug":"grapevine","name":"Grapevine","day":0,"time":"09:00","end_time":"10:00","types":["O","D"],"state":"IN","postal_code":"47546","city":"Jasper","address":"424 W 7th St","latitude":38.3922926,"longitude":-86.9367208,"location":"Brosmer House","region":"Jasper","url":"https://southwesternindianaaa.org/meetings/grapevine/","timezone":"America/Chicago"},{"feed":"area22indiana.org","slug":"open-aa","name":"Pure Air Meeting","day":0,"time":"09:00","types":["TC","O"],"state":"IN","postal_code":"46360","city":"Michigan City","address":"221 Charles St","latitude":41.7058206,"longitude":-86.8990281,"location":"Saint Anthony's Hospital","region":"Michigan City","url":"https://area22indiana.org/meetings/open-aa/","group":"Pure Air Meeting - 21","timezone":"America/Indiana/Indianapolis"},{"feed":"area22indiana.org","slug":"second-chance-group","name":"Second Chance Group","day":0,"time":"09:00","types":["C","X"],"state":"IN","postal_code":"46556","city":"Notre Dame","address":"54515 State Hwy 933","latitude":41.6990686,"longitude":-86.252801,"location":"Holy Cross College - Vincent Building","region":"Notre Dame","url":"https://area22indiana.org/meetings/second-chance-group/","group":"Second Chance Group - 29","timezone":"America/Indiana/Indianapolis"},{"feed":"indyaa.org","slug":"sunday-mens-breakfast","name":"Sunday Men's Breakfast","day":0,"time":"09:00","end_time":"10:00","types":["D","O"],"state":"IN","postal_code":"46202","city":"Indianapolis","address":"201 Shelby St","latitude":39.7635595,"longitude":-86.1390844,"location":"Progress House","region":"INDPLS-Midtown","notes":"Breakfast 7:30 AM to 8:30 AMnnNo Smoking, Men's","url":"https://indyaa.org/meetings/sunday-mens-breakfast/","group":"The Gary B. Group","timezone":"America/Indiana/Indianapolis"},{"feed":"aaftwayne.org","slug":"sunday-morning-aa","name":"Sunday Morning AA","day":0,"time":"09:00","end_time":"10:00","types":["D","TC","O","ONL"],"state":"IN","postal_code":"46815","city":"Fort Wayne","address":"2118 Inwood Dr","latitude":41.0962348,"longitude":-85.0867508,"location":"Intergroup Office","region":"Fort Wayne","notes":"Zoom Meeting Only","conference_url":"https://zoom.us/j/539083211","url":"https://www.aafortwayne.org/meetings/sunday-morning-aa/","timezone":"America/New_York"},{"feed":"area22indiana.org","slug":"sunday-morning-aa","name":"Sunday Morning AA","day":0,"time":"09:00","end_time":"10:00","types":["D","TC","O","ONL"],"state":"IN","postal_code":"46815","city":"Fort Wayne","address":"2118 Inwood Dr","latitude":41.0962348,"longitude":-85.0867508,"location":"Intergroup Office","region":"Fort Wayne","notes":"Zoom Meeting Only","conference_url":"https://zoom.us/j/539083211","url":"https://area22indiana.org/meetings/sunday-morning-aa/","timezone":"America/Indiana/Indianapolis"},{"feed":"area22indiana.org","slug":"sunshine-group","name":"Sunshine Group","day":0,"time":"09:00","types":["C","D"],"state":"IN","postal_code":"46350","city":"La Porte","address":"1621 Roberts St","latitude":41.604486,"longitude":-86.6990694,"location":"Yana Service Club Inc","region":"La Porte","url":"https://area22indiana.org/meetings/sunshine-group/","group":"Sunshine Group - 23","timezone":"America/Indiana/Indianapolis"},{"feed":"aaftwayne.org","slug":"daily-reflections-group","name":"DAILY REFLECTIONS GROUP","day":0,"time":"09:30","types":["D","O","X"],"state":"IN","postal_code":"46808","city":"Fort Wayne","address":"1118 Spring St","latitude":41.0889893,"longitude":-85.1567874,"location":"Club Oassis","region":"Fort Wayne","url":"https://www.aafortwayne.org/meetings/daily-reflections-group/","group":"112322 (22) (67)","timezone":"America/New_York"},{"feed":"area22indiana.org","slug":"daily-reflections-group","name":"DAILY REFLECTIONS GROUP","day":0,"time":"09:30","types":["D","O","X"],"state":"IN","postal_code":"46808","city":"Fort Wayne","address":"1118 Spring St","latitude":41.0889899,"longitude":-85.1567737,"location":"Club Oassis","region":"Fort Wayne","url":"https://area22indiana.org/meetings/daily-reflections-group/","group":"112322 (22) (67)","timezone":"America/Indiana/Indianapolis"},{"feed":"southwesternindianaaa.org","slug":"sun-morning-gratitude-osiii","name":"Sun Morning Gratitude","day":0,"time":"09:30","end_time":"10:30","types":["O","X"],"state":"IN","postal_code":"47713","city":"Evansville","address":"770 E Walnut St","latitude":37.9740792,"longitude":-87.5530664,"location":"Old Stone 3 (OSIII)","region":"South Western Indiana","url":"https://southwesternindianaaa.org/meetings/sun-morning-gratitude-osiii/","group":"Old Stone 3 (OSIII)","timezone":"America/Chicago"},{"feed":"indyaa.org","slug":"sunday-morning-breakfast","name":"Sunday Morning Breakfast","day":0,"time":"09:30","end_time":"10:30","types":["O","SP"],"state":"IN","postal_code":"46256","city":"Indianapolis","address":"8102 Clearvista Pkwy","latitude":39.9032673,"longitude":-86.0408188,"location":"Fairbanks Hospital","region":"INDPLS-North","notes":"Room 219, Wheelchair accessible","url":"https://indyaa.org/meetings/sunday-morning-breakfast/","timezone":"America/Indiana/Indianapolis"},{"feed":"area22indiana.org","slug":"sunrise-group","name":"Sunrise Group","day":0,"time":"09:30","types":["D","O","X"],"state":"IN","postal_code":"46516","city":"Elkhart","address":"949 Middlebury St","latitude":41.6809986,"longitude":-85.953917,"location":"Serenity Hall","region":"Elkhart","url":"https://area22indiana.org/meetings/sunrise-group/","group":"Sunrise Group - 93","timezone":"America/Indiana/Indianapolis"},{"feed":"area22indiana.org","slug":"11th-step-prayer-and-meditation","name":"11th Step Prayer and Meditation","day":0,"time":"10:00","types":["D","O","X"],"state":"IN","postal_code":"47904","city":"Lafayette","address":"307 N 10th St","latitude":40.4203742,"longitude":-86.8856515,"location":"SURF Alano Center","region":"Lafayette","notes":"(Speaker mtg. on 3rd Sunday)","url":"https://area22indiana.org/meetings/11th-step-prayer-and-meditation/","group":"11th Step Prayer and Meditation - 49","timezone":"America/Indiana/Indianapolis"},{"feed":"southwesternindianaaa.org","slug":"big-book-comes-alive-osiii","name":"Big Book Comes Alive","day":0,"time":"10:00","end_time":"11:00","types":["O","X"],"state":"IN","postal_code":"47713","city":"Evansville","address":"770 E Walnut St","latitude":37.9740792,"longitude":-87.5530664,"location":"Old Stone 3 (OSIII)","region":"South Western Indiana","url":"https://southwesternindianaaa.org/meetings/big-book-comes-alive-osiii/","group":"Old Stone 3 (OSIII)","timezone":"America/Chicago"},{"feed":"area22indiana.org","slug":"broadway-beginners","name":"Broadway Beginners","day":0,"time":"10:00","types":["O"],"state":"IN","postal_code":"46410","city":"Merrillville","address":"8555 W Taft St","latitude":41.4634324,"longitude":-87.3634698,"location":"Regional Mental Health","region":"Merrillville","url":"https://area22indiana.org/meetings/broadway-beginners/","group":"Broadway Beginners - 11","timezone":"America/Indiana/Indianapolis"},{"feed":"southwesternindianaaa.org","slug":"c-l-10","name":"Colombia and Linwood","day":0,"time":"10:00","end_time":"11:00","types":["O","X"],"state":"IN","postal_code":"47711","city":"Evansville","address":"761 E Columbia St","latitude":37.9845113,"longitude":-87.553166,"location":"Colombia and Linwood","region":"South Western Indiana","url":"https://southwesternindianaaa.org/meetings/c-l-10/","group":"Colombia and Linwood","timezone":"America/Chicago"},{"feed":"area23aa.org","slug":"easy-does-it-group","name":"Easy Does It Group","day":0,"time":"10:00","end_time":"11:30","types":["C","D"],"state":"IN","postal_code":"47404","city":"Bloomington","address":"1412 W 11th St","latitude":39.1735189,"longitude":-86.5520995,"location":"12/24 Club","region":"South-Central Indiana","notes":"ends at 11:30 am","url":"https://area23aa.org/meetings/easy-does-it-group","group":"Easy Does It Group","timezone":"America/Indiana/Indianapolis"},{"feed":"area22indiana.org","slug":"grupo-luz-del-alma","name":"Grupo Luz del Alma","day":0,"time":"10:00","types":["S"],"state":"IN","postal_code":"47905","city":"Lafayette","address":"2440 Glick St","latitude":40.3996487,"longitude":-86.8681812,"location":"Spanish Speeking","region":"Lafayette","url":"https://area22indiana.org/meetings/grupo-luz-del-alma/","group":"Grupo Luz Del Alma - 49","timezone":"America/Indiana/Indianapolis"},{"feed":"area22indiana.org","slug":"happy-joyous-free","name":"Happy, Joyous & Free","day":0,"time":"10:00","types":["C"],"state":"IN","postal_code":"46393","city":"Wheeler","address":"110 N 5th St","latitude":41.5139251,"longitude":-87.1823655,"location":"Fifth Street Club","region":"Wheeler","url":"https://area22indiana.org/meetings/happy-joyous-free/","group":"Happy, Joyous & Free - 19","timezone":"America/Indiana/Indianapolis"},{"feed":"area22indiana.org","slug":"ironwood","name":"Ironwood","day":0,"time":"10:00","types":["C","D"],"state":"IN","postal_code":"46409","city":"Gary","address":"1221 E Ridge Rd","latitude":41.5508664,"longitude":-87.3211423,"location":"United Steelworkers Local 1066","region":"Gary","notes":"(Open meeting 1st & 3rd Sunday of the month)","url":"https://area22indiana.org/meetings/ironwood/","group":"Ironwood - 5","timezone":"America/Indiana/Indianapolis"},{"feed":"area22indiana.org","slug":"living-sober-now","name":"Living Sober Now","day":0,"time":"10:00","types":["C","X"],"state":"IN","postal_code":"46528","city":"Goshen","address":"330 Lakeview Dr","latitude":41.6036361,"longitude":-85.8394255,"location":"Oaklawn","region":"Goshen","url":"https://area22indiana.org/meetings/living-sober-now/","timezone":"America/Indiana/Indianapolis"},{"feed":"area22indiana.org","slug":"n-the-beginning","name":"In The Beginning","day":0,"time":"10:00","types":["C","D"],"state":"IN","postal_code":"46403","city":"Gary","address":"913 Aetna St","latitude":41.59418,"longitude":-87.2892049,"location":"12 Step House","region":"Gary","url":"https://area22indiana.org/meetings/n-the-beginning/","group":"In The Beginning - 5","timezone":"America/Indiana/Indianapolis"},{"feed":"area22indiana.org","slug":"new-hope-group-71","name":"New Hope Group","day":0,"time":"10:00","types":["D","O"],"state":"IN","postal_code":"46952","city":"Marion","address":"1301 W 3rd St","latitude":40.5586373,"longitude":-85.6741076,"location":"New Life Club","region":"Marion","url":"https://area22indiana.org/meetings/new-hope-group-71/","group":"New Hope Group - 71","timezone":"America/Indiana/Indianapolis"},{"feed":"southwesternindianaaa.org","slug":"newburgh-aa","name":"Newburgh AA","day":0,"time":"10:00","end_time":"11:00","types":["D","O"],"state":"IN","postal_code":"47630","city":"Newburgh","address":"310 Filmore St","latitude":37.947492,"longitude":-87.4068252,"location":"Kiwanis Bldg","region":"South Western Indiana","url":"https://southwesternindianaaa.org/meetings/newburgh-aa/","group":"Newburgh AA","timezone":"America/Chicago"},{"feed":"aaftwayne.org","slug":"parkview-hospital-huntington","name":"PARKVIEW HOSPITAL HUNTINGTON","day":0,"time":"10:00","types":["O","X"],"state":"IN","postal_code":"46750","city":"Huntington","address":"2001 Stults Rd","latitude":40.9047842,"longitude":-85.4879768,"location":"Parkview Hospital Huntington","region":"Huntington","url":"https://www.aafortwayne.org/meetings/parkview-hospital-huntington/","timezone":"America/New_York"},{"feed":"area22indiana.org","slug":"parkview-hospital-huntington","name":"PARKVIEW HOSPITAL HUNTINGTON","day":0,"time":"10:00","types":["O","X"],"state":"IN","postal_code":"46750","city":"Huntington","address":"2001 Stults Rd","latitude":40.9058466,"longitude":-85.4888413,"location":"Parkview Hospital Huntington","region":"Huntington","url":"https://area22indiana.org/meetings/parkview-hospital-huntington/","timezone":"America/Indiana/Indianapolis"},{"feed":"area22indiana.org","slug":"ramblers","name":"Ramblers","day":0,"time":"10:00","types":["C"],"state":"IN","postal_code":"46619","city":"South Bend","address":"2015 W Western Ave","latitude":41.6728545,"longitude":-86.2797099,"location":"Mary Crest Bldg. Suite 124","region":"South Bend","url":"https://area22indiana.org/meetings/ramblers/","group":"Ramblers - 25","timezone":"America/Indiana/Indianapolis"},{"feed":"area22indiana.org","slug":"ramblers-ii","name":"Ramblers II","day":0,"time":"10:00","types":["C","X"],"state":"IN","postal_code":"46613","city":"South Bend","address":"1438 E Calvert St","latitude":41.6545983,"longitude":-86.226152,"location":"Fellowship House","region":"South Bend","url":"https://area22indiana.org/meetings/ramblers-ii/","group":"Ramblers II - 39","timezone":"America/Indiana/Indianapolis"},{"feed":"aaftwayne.org","slug":"serenity-house","name":"SERENITY HOUSE","day":0,"time":"10:00","types":["D","O"],"state":"IN","postal_code":"46706","city":"Auburn","address":"2278 Co Rd 50","latitude":41.3423287,"longitude":-85.0834251,"location":"Serenity House #2","region":"Auburn","url":"https://www.aafortwayne.org/meetings/serenity-house/","timezone":"America/New_York"},{"feed":"area22indiana.org","slug":"serenity-house","name":"SERENITY HOUSE","day":0,"time":"10:00","types":["D","O"],"state":"IN","postal_code":"46706","city":"Auburn","address":"2278 Co Rd 50","latitude":41.3423159,"longitude":-85.0834389,"location":"Serenity House #2","region":"Auburn","url":"https://area22indiana.org/meetings/serenity-house/","timezone":"America/Indiana/Indianapolis"},{"feed":"area22indiana.org","slug":"serenity-searchers","name":"Serenity Seekers","day":0,"time":"10:00","end_time":"11:30","types":["O","SP"],"state":"IN","postal_code":"46408","city":"Gary","address":"5157 Harrison St","latitude":41.525601,"longitude":-87.343515,"location":"Serenity House / Club","region":"Gary","notes":"(Breakfast 8:00-10:00am, Speaker 10:00-11:30am)","url":"https://area22indiana.org/meetings/serenity-searchers/","group":"Serenity Searchers - 5","timezone":"America/Indiana/Indianapolis"},{"feed":"area22indiana.org","slug":"sunday-morning-serenity","name":"Sunday Morning Serenity","day":0,"time":"10:00","types":["C","D","TC"],"state":"IN","postal_code":"46383","city":"Valparaiso","address":"1408 E Chicago St","latitude":41.469703,"longitude":-87.0428524,"location":"Respite House","region":"Valparaiso","url":"https://area22indiana.org/meetings/sunday-morning-serenity/","group":"Sunday Morning Serenity - 19","timezone":"America/Indiana/Indianapolis"},{"feed":"area22indiana.org","slug":"sunday-morning-sunshine","name":"Sunshine Group","day":0,"time":"10:00","types":["D","O"],"state":"IN","postal_code":"46516","city":"Elkhart","address":"2513 Eddy St","latitude":41.6612514,"longitude":-85.9458036,"location":"Freedom Hall","region":"Elkhart","url":"https://area22indiana.org/meetings/sunday-morning-sunshine/","group":"Sunshine Group - 93","timezone":"America/Indiana/Indianapolis"},{"feed":"area22indiana.org","slug":"victor-e-group","name":"Victor E Group","day":0,"time":"10:00","types":["C","D"],"state":"IN","postal_code":"46385","city":"Valparaiso","address":"793 Juniper Rd","latitude":41.5491948,"longitude":-87.1359186,"location":"Care Counciling Services","region":"South Haven","url":"https://area22indiana.org/meetings/victor-e-group/","group":"Victor E Group - 19","timezone":"America/Indiana/Indianapolis"},{"feed":"indyaa.org","slug":"h-m-s-meeting","name":"Hitting Monday Sober Group","day":0,"time":"10:30","types":["C","D"],"state":"IN","postal_code":"46214","city":"Indianapolis","address":"6450 W 10th St","latitude":39.7798828,"longitude":-86.2745023,"location":"Westside Club","region":"INDPLS-West","notes":"No Smoking","url":"https://indyaa.org/meetings/h-m-s-meeting/","timezone":"America/Indiana/Indianapolis"},{"feed":"louisvilleaa.org","slug":"horse-shoe-group","name":"Horse Shoe Group","day":0,"time":"10:30","types":["D","O","X"],"state":"IN","postal_code":"47150","city":"New Albany","address":"506 Pearl St","latitude":38.2874547,"longitude":-85.8234052,"location":"Floyd County Token Club","region":"Floyd County IN","url":"https://loukyaa.org/meetings/horse-shoe-group/","group":"Horse Shoe Group","timezone":"America/Kentucky/Louisville"},{"feed":"loukyaa.org","slug":"horse-shoe-group","name":"Horse Shoe Group","day":0,"time":"10:30","types":["D","O","X"],"state":"IN","postal_code":"47150","city":"New Albany","address":"506 Pearl St","latitude":38.2874547,"longitude":-85.8234052,"location":"Floyd County Token Club","region":"Floyd County IN","url":"https://loukyaa.org/meetings/horse-shoe-group/","group":"Horse Shoe Group","timezone":"America/Kentucky/Louisville"},{"feed":"area22indiana.org","slug":"new-way-of-life","name":"New Way of Life","day":0,"time":"10:30","types":["C","D"],"state":"IN","postal_code":"46368","city":"Portage","address":"6040 Lute Rd","latitude":41.5583973,"longitude":-87.1812557,"location":"Portage Recovery Association","region":"Portage","url":"https://area22indiana.org/meetings/new-way-of-life/","group":"K.I.S.S. Group - 17","timezone":"America/Indiana/Indianapolis"},{"feed":"indyaa.org","slug":"sunday-morning-after","name":"Sunday Morning After","day":0,"time":"10:30","types":["D","O"],"state":"IN","postal_code":"46225","city":"Indianapolis","address":"259 E Raymond St","latitude":39.736959,"longitude":-86.1520044,"location":"Southside Fellowship Center","region":"INDPLS-South","notes":"No Smoking, Wheelchair Accessible","url":"https://indyaa.org/meetings/sunday-morning-after/","timezone":"America/Indiana/Indianapolis"},{"feed":"indyaa.org","slug":"11am-closed-discussion-group","name":"Solutions","day":0,"time":"11:00","types":["D","O"],"state":"IN","postal_code":"46060","city":"Noblesville","address":"16065 Prosperity Dr","latitude":40.022401,"longitude":-85.999253,"location":"Suburban North Club","region":"N-Noblesville","notes":"No Smoking, Wheelchair Accessible","url":"https://indyaa.org/meetings/11am-closed-discussion-group/","timezone":"America/Indiana/Indianapolis"},{"feed":"indyaa.org","slug":"eastside-sunday-morning","name":"Eastside Sunday Morning","day":0,"time":"11:00","types":["O","SP"],"state":"IN","postal_code":"46219","city":"Indianapolis","address":"441 S Ritter Ave","latitude":39.7615058,"longitude":-86.0730576,"location":"Club East","region":"INDPLS-East","notes":"No Smoking, Wheelchair Accessible","url":"https://indyaa.org/meetings/eastside-sunday-morning/","timezone":"America/Indiana/Indianapolis"},{"feed":"indyaa.org","slug":"franklin-serenity-group-2","name":"Franklin Serenity Group","day":0,"time":"11:00","types":["C","D","LIT"],"state":"IN","postal_code":"46131","city":"Franklin","address":"550 E Jefferson St 2nd Floor","latitude":39.4811637,"longitude":-86.0484194,"location":"Alva Neal Building","region":"S-Franklin","notes":"Literature Meeting. No Smoking. Group does not sign attendance sheets","url":"https://indyaa.org/meetings/franklin-serenity-group-2/","timezone":"America/Indiana/Indianapolis"},{"feed":"indyaa.org","slug":"get-sober-or-die","name":"Get Sober or Die","day":0,"time":"11:00","types":["C","D"],"state":"IN","postal_code":"46227","city":"Indianapolis","address":"3333 Thompson Rd","latitude":39.6937887,"longitude":-86.1068236,"location":"Shirley Brothers Mortuary","region":"INDPLS-South","notes":"No Smoking","url":"https://indyaa.org/meetings/get-sober-or-die/","timezone":"America/Indiana/Indianapolis"},{"feed":"area22indiana.org","slug":"spanish-meeting","name":"Grupo Mi Segunda Vida","day":0,"time":"11:00","types":["S"],"state":"IN","postal_code":"46516","city":"Elkhart","address":"949 Middlebury St","latitude":41.6809986,"longitude":-85.953917,"location":"Serenity Hall","region":"Elkhart","url":"https://area22indiana.org/meetings/spanish-meeting/","group":"Spanish Meeting - 95","timezone":"America/Indiana/Indianapolis"},{"feed":"indyaa.org","slug":"sunday-beginners-group","name":"Sunday Beginners Group","day":0,"time":"11:00","types":["D","O"],"state":"IN","postal_code":"46060","city":"Noblesville","address":"16065 Prosperity Dr","latitude":40.022401,"longitude":-85.999253,"location":"Suburban North Club","region":"N-Noblesville","notes":"No Smoking, Wheelchair Accessible","url":"https://indyaa.org/meetings/sunday-beginners-group/","timezone":"America/Indiana/Indianapolis"},{"feed":"southwesternindianaaa.org","slug":"sunday-morning-rescue","name":"Sunday Morning Rescue","day":0,"time":"11:00","end_time":"12:00","types":["B","M"],"state":"IN","postal_code":"47630","city":"Newburgh","address":"10800 Lincoln Ave","latitude":37.9712249,"longitude":-87.4472646,"location":"Crossroads Christian Church","region":"South Western Indiana","notes":"Room 203 upstairs\nWheelchair accessible with elevator","url":"https://southwesternindianaaa.org/meetings/sunday-morning-rescue/","timezone":"America/Chicago"},{"feed":"area22indiana.org","slug":"week-starter-group","name":"Week Started Group","day":0,"time":"11:00","types":["D","O"],"state":"IN","postal_code":"46016","city":"Anderson","address":"1408 Main St","latitude":40.1018389,"longitude":-85.6778788,"location":"5th Chapter House,","region":"Anderson","notes":"Speaker last Sunday of the month","url":"https://area22indiana.org/meetings/week-starter-group/","group":"Week Starter Group - 83","timezone":"America/Indiana/Indianapolis"},{"feed":"area22indiana.org","slug":"gratitude-group-2","name":"Gratitude Group","day":0,"time":"11:30","types":["D","O"],"state":"IN","postal_code":"46350","city":"La Porte","address":"1621 Roberts St","latitude":41.604486,"longitude":-86.6990694,"location":"Yana Service Club Inc","region":"La Porte","url":"https://area22indiana.org/meetings/gratitude-group-2/","group":"Gratitude Group - 23","timezone":"America/Indiana/Indianapolis"},{"feed":"southwesternindianaaa.org","slug":"root-and-branch","name":"Root and Branch","day":0,"time":"11:30","end_time":"12:30","types":["D","O"],"state":"IN","postal_code":"47710","city":"Evansville","address":"1516 N Main St","latitude":37.9919295,"longitude":-87.56394,"location":"Dream Center","region":"South Western Indiana","url":"https://southwesternindianaaa.org/meetings/root-and-branch/","timezone":"America/Chicago"},{"feed":"indyaa.org","slug":"broad-ripple-park-nooner-6","name":"Broad Ripple Park Nooner","day":0,"time":"12:00","end_time":"13:00","types":["D","O"],"state":"IN","postal_code":"46220","city":"Indianapolis","address":"6185 Guilford Ave","latitude":39.8680593,"longitude":-86.1426487,"location":"St. Lukes United Methodist Church - Midtown (Broad Ripple)","region":"INDPLS-North","notes":"Church is South of 62nd St across from the old Kroger on GuilfordnIn the event the meeting will be back at the park, a sign will be posted at the church. For questions, contact the Intergroup office.","url":"https://indyaa.org/meetings/broad-ripple-park-nooner-6/","timezone":"America/Indiana/Indianapolis"},{"feed":"area22indiana.org","slug":"by-the-book","name":"By the Book","day":0,"time":"12:00","types":["C"],"state":"IN","postal_code":"46311","city":"Dyer","address":"24 Joliet St","latitude":41.4926181,"longitude":-87.5247677,"location":"Francisican Hospital Dyer","region":"Dyer","url":"https://area22indiana.org/meetings/by-the-book/","group":"By the Book -13","timezone":"America/Indiana/Indianapolis"},{"feed":"aaftwayne.org","slug":"club-recovery","name":"CLUB RECOVERY","day":0,"time":"12:00","types":["C"],"state":"IN","postal_code":"46755","city":"Kendallville","address":"1110 Dowling St","latitude":41.4461637,"longitude":-85.2485626,"location":"Club Recovery","region":"Kendallville","url":"https://www.aafortwayne.org/meetings/club-recovery/","timezone":"America/New_York"},{"feed":"area22indiana.org","slug":"club-recovery","name":"CLUB RECOVERY","day":0,"time":"12:00","types":["C"],"state":"IN","postal_code":"46755","city":"Kendallville","address":"1110 Dowling St","latitude":41.4461637,"longitude":-85.2485626,"location":"Club Recovery","region":"Kendallville","url":"https://area22indiana.org/meetings/club-recovery/","timezone":"America/Indiana/Indianapolis"},{"feed":"indyaa.org","slug":"friends-of-bill-w-2","name":"Friends of Bill W","day":0,"time":"12:00","end_time":"13:00","types":["O","SP","ONL"],"state":"IN","postal_code":"46260","city":"Indianapolis","address":"1801 W 86th St","latitude":39.9104868,"longitude":-86.1922597,"location":"St. Vincent Ascension Simulation Center","region":"INDPLS-North","conference_url":"https://us02web.zoom.us/j/93024724224?pwd=blNJMzRNZ29XMDZXeHUrZWV1WUxkUT09","url":"https://indyaa.org/meetings/friends-of-bill-w-2/","timezone":"America/Indiana/Indianapolis"},{"feed":"area22indiana.org","slug":"high-noon","name":"High Noon","day":0,"time":"12:00","types":["C","D"],"state":"IN","postal_code":"46393","city":"Wheeler","address":"110 N 5th St","latitude":41.5139251,"longitude":-87.1823655,"location":"Fifth Street Club","region":"Wheeler","url":"https://area22indiana.org/meetings/high-noon/","group":"High Noon - 19","timezone":"America/Indiana/Indianapolis"},{"feed":"area22indiana.org","slug":"noon-daily-group","name":"Nooner\u2019s Home Group","day":0,"time":"12:00","types":["C","D","ONL"],"state":"IN","city":"Hobart","latitude":41.5322592,"longitude":-87.2550353,"location":"Online","region":"Hobart","conference_url":"https://zoom.us/j/3845731245","url":"https://area22indiana.org/meetings/noon-daily-group/","group":"Nooner\u2019s Home Group","timezone":"America/Indiana/Indianapolis"},{"feed":"area22indiana.org","slug":"nooner","name":"Griffith Nooner","day":0,"time":"12:00","types":["C"],"state":"IN","postal_code":"46319","city":"Griffith","address":"201 N Griffith Blvd","latitude":41.5252675,"longitude":-87.4283833,"location":"Franklin Center","region":"Griffith","url":"https://area22indiana.org/meetings/nooner/","group":"Nooner - 13","timezone":"America/Indiana/Indianapolis"},{"feed":"indyaa.org","slug":"sunday-brunch-bunch","name":"Sunday Brunch Bunch","day":0,"time":"12:00","types":["O","SP"],"state":"IN","postal_code":"46205","city":"Indianapolis","address":"4627 Carvel Ave","latitude":39.8408575,"longitude":-86.1388834,"location":"Carvel Club","region":"INDPLS-North","notes":"No Smoking, Wheelchair Accessible","url":"https://indyaa.org/meetings/sunday-brunch-bunch/","timezone":"America/Indiana/Indianapolis"},{"feed":"louisvilleaa.org","slug":"tee-pee-group","name":"Tee Pee Group","day":0,"time":"12:00","end_time":"13:00","types":["O","SP"],"state":"IN","postal_code":"47129","city":"Clarksville","address":"202 Homestead Ave","latitude":38.2853802,"longitude":-85.754133,"location":"The Recovery Complex","region":"Clark County, IN","url":"https://loukyaa.org/meetings/tee-pee-group/","group":"Tee Pee Group","timezone":"America/Kentucky/Louisville"},{"feed":"loukyaa.org","slug":"tee-pee-group","name":"Tee Pee Group","day":0,"time":"12:00","end_time":"13:00","types":["O","SP"],"state":"IN","postal_code":"47129","city":"Clarksville","address":"202 Homestead Ave","latitude":38.2853802,"longitude":-85.754133,"location":"The Recovery Complex","region":"Clark County, IN","url":"https://loukyaa.org/meetings/tee-pee-group/","group":"Tee Pee Group","timezone":"America/Kentucky/Louisville"},{"feed":"area22indiana.org","slug":"big-book-study","name":"Big Book Study","day":0,"time":"13:00","types":["B","O"],"state":"IN","postal_code":"47303","city":"Muncie","address":"827 W Riverside Ave","latitude":40.1999979,"longitude":-85.3955712,"location":"Alno Club","region":"Muncie","url":"https://area22indiana.org/meetings/big-book-study/","group":"Big Book Study - 85","timezone":"America/Indiana/Indianapolis"},{"feed":"indyaa.org","slug":"more-about-alcoholism","name":"More About Alcoholism","day":0,"time":"13:00","types":["D","O"],"state":"IN","postal_code":"46140","city":"Greenfield","address":"226 Cherry St","latitude":39.7884871,"longitude":-85.7527653,"location":"Greenfield Way Out Club","region":"E-Greenfield","notes":"No Smoking, Wheelchair Accessible","url":"https://indyaa.org/meetings/more-about-alcoholism/","timezone":"America/Indiana/Indianapolis"},{"feed":"area22indiana.org","slug":"open-discussion","name":"Open Discussion","day":0,"time":"13:00","types":["D","O"],"state":"IN","postal_code":"46901","city":"Kokomo","address":"1301 N Webster St","latitude":40.498262,"longitude":-86.1364778,"location":"Fellowship of Hope","region":"Kokomo","url":"https://area22indiana.org/meetings/open-discussion/","group":"Open Discussion - 77","timezone":"America/Indiana/Indianapolis"},{"feed":"indyaa.org","slug":"shelbyville-living-sober-group","name":"Shelbyville Living Sober Group","day":0,"time":"13:30","types":["D","O"],"state":"IN","postal_code":"46176","city":"Shelbyville","address":"62 3rd St","latitude":39.5149896,"longitude":-85.7759954,"location":"Dry Dock Club","region":"S-Shelbyville","notes":"No Smoking, Wheelchair Accessible","url":"https://indyaa.org/meetings/shelbyville-living-sober-group/","timezone":"America/Indiana/Indianapolis"},{"feed":"indyaa.org","slug":"we-agnostics","name":"We Agnostics (Sunday)","day":0,"time":"13:30","types":["C","D"],"state":"IN","postal_code":"46205","city":"Indianapolis","address":"4627 Carvel Ave","latitude":39.8408575,"longitude":-86.1388834,"location":"Carvel Club","region":"INDPLS-North","notes":"No Smoking, Wheelchair Accessible","url":"https://indyaa.org/meetings/we-agnostics/","timezone":"America/Indiana/Indianapolis"},{"feed":"southwesternindianaaa.org","slug":"daylight-sobriety","name":"Daylight Sobriety","day":0,"time":"14:00","end_time":"15:00","types":["D","O","X"],"state":"IN","postal_code":"47725","city":"Evansville","address":"5301 Daylight Dr","latitude":38.0901263,"longitude":-87.48539,"location":"St. John the Evangelist Catholic Church","region":"South Western Indiana","url":"https://southwesternindianaaa.org/meetings/daylight-sobriety/","group":"Daylight Sobriety","timezone":"America/Chicago"},{"feed":"aaftwayne.org","slug":"grapenuts-grapevine-discussion","name":"GRAPENUTS GRAPEVINE DISCUSSION","day":0,"time":"14:00","types":["O","D","X"],"state":"IN","postal_code":"46808","city":"Fort Wayne","address":"1118 Spring St","latitude":41.0889893,"longitude":-85.1567874,"location":"Club Oassis","region":"Fort Wayne","url":"https://www.aafortwayne.org/meetings/grapenuts-grapevine-discussion/","group":"609350 (22) (67)","timezone":"America/New_York"},{"feed":"area22indiana.org","slug":"grapenuts-grapevine-discussion","name":"GRAPENUTS GRAPEVINE DISCUSSION","day":0,"time":"14:00","types":["O","D","X"],"state":"IN","postal_code":"46808","city":"Fort Wayne","address":"1118 Spring St","latitude":41.0889899,"longitude":-85.1567737,"location":"Club Oassis","region":"Fort Wayne","url":"https://area22indiana.org/meetings/grapenuts-grapevine-discussion/","group":"609350 (22) (67)","timezone":"America/Indiana/Indianapolis"},{"feed":"area22indiana.org","slug":"pathfinders-group","name":"Pathfinders Group","day":0,"time":"14:00","types":["O","W"],"state":"IN","postal_code":"46970","city":"Peru","address":"53 W Main St","latitude":40.7527199,"longitude":-86.0706025,"location":"First Christian Church","region":"Peru","url":"https://area22indiana.org/meetings/pathfinders-group/","group":"Pathfinders Group - 57","timezone":"America/Indiana/Indianapolis"},{"feed":"indyaa.org","slug":"stuck-on-sobriety","name":"Stuck on Sobriety","day":0,"time":"14:00","types":["C","D"],"state":"IN","postal_code":"46219","city":"Indianapolis","address":"441 S Ritter Ave","latitude":39.7615058,"longitude":-86.0730576,"location":"Club East","region":"INDPLS-East","notes":"No Smoking, Wheelchair Accessible","url":"https://indyaa.org/meetings/stuck-on-sobriety/","timezone":"America/Indiana/Indianapolis"},{"feed":"southwesternindianaaa.org","slug":"challengers-osiii","name":"Challengers @OSIII","day":0,"time":"14:30","end_time":"15:30","types":["B","O","X"],"state":"IN","postal_code":"47713","city":"Evansville","address":"770 E Walnut St","latitude":37.9740792,"longitude":-87.5530664,"location":"Old Stone 3 (OSIII)","region":"South Western Indiana","url":"https://southwesternindianaaa.org/meetings/challengers-osiii/","group":"Old Stone 3 (OSIII)","timezone":"America/Chicago"},{"feed":"aaftwayne.org","slug":"just-for-today-5","name":"Just For Today","day":0,"time":"15:00","end_time":"16:00","types":["D","O","ONL"],"state":"IN","city":"Fort Wayne","latitude":41.079273,"longitude":-85.1393513,"location":"ONLINE-FORT WAYNE","region":"Fort Wayne","notes":"Zoom Meeting Only","conference_url":"https://zoom.us/j/5094889363","url":"https://www.aafortwayne.org/meetings/just-for-today-5/","timezone":"America/New_York"},{"feed":"area22indiana.org","slug":"just-for-today-5","name":"Just For Today","day":0,"time":"15:00","end_time":"16:00","types":["D","O","ONL"],"state":"IN","city":"Fort Wayne","latitude":41.0794759,"longitude":-85.1362929,"location":"ONLINE-FORT WAYNE","region":"Fort Wayne","notes":"Zoom Meeting Only","conference_url":"https://zoom.us/j/5094889363","url":"https://area22indiana.org/meetings/just-for-today-5/","timezone":"America/Indiana/Indianapolis"},{"feed":"area22indiana.org","slug":"twelve-and-twelve-study","name":"Twelve And Twelve Study","day":0,"time":"15:00","types":["12x12"],"state":"IN","postal_code":"46041","city":"Frankfort","address":"51 W Clinton St","latitude":40.2803658,"longitude":-86.5128003,"location":"51 West Event Center","region":"Frankfort","url":"https://area22indiana.org/meetings/twelve-and-twelve-study/","group":"Twelve And Twelve Study - 49","timezone":"America/Indiana/Indianapolis"},{"feed":"indyaa.org","slug":"sunday-afternoon-sobriety-group","name":"Sunday Afternoon Sobriety Group","day":0,"time":"15:30","types":["D","O"],"state":"IN","postal_code":"46219","city":"Indianapolis","address":"441 S Ritter Ave","latitude":39.7615058,"longitude":-86.0730576,"location":"Club East","region":"INDPLS-East","notes":"No Smoking, Wheelchair Accessible","url":"https://indyaa.org/meetings/sunday-afternoon-sobriety-group/","timezone":"America/Indiana/Indianapolis"},{"feed":"indyaa.org","slug":"dont-hide-your-pride","name":"Don't Hide Your Pride","day":0,"time":"16:00","end_time":"17:00","types":["D","LGBTQ","O"],"state":"IN","postal_code":"46060","city":"Noblesville","address":"16065 Prosperity Dr","latitude":40.022401,"longitude":-85.999253,"location":"Suburban North Club","region":"N-Noblesville","url":"https://indyaa.org/meetings/dont-hide-your-pride/","timezone":"America/Indiana/Indianapolis"},{"feed":"indyaa.org","slug":"easy-hour-step-study-group","name":"Easy Hour Step Study Group","day":0,"time":"16:00","types":["C","D","LIT"],"state":"IN","postal_code":"46158","city":"Mooresville","address":"900 Indianapolis Rd","latitude":39.6259335,"longitude":-86.3666222,"location":"United Methodist Church-Mooresville","region":"W-Mooresville","notes":"*Enter Rear Door #7* No Smoking","url":"https://indyaa.org/meetings/easy-hour-step-study-group/","timezone":"America/Indiana/Indianapolis"},{"feed":"aaftwayne.org","slug":"how-it-works","name":"HOW IT WORKS","day":0,"time":"16:00","types":["D","O"],"state":"IN","postal_code":"46835","city":"Fort Wayne","address":"10145 Maysville Rd","latitude":41.1291682,"longitude":-85.0145448,"location":"Taylor Chapel Church","region":"Fort Wayne","notes":"Orientation Meeting","url":"https://www.aafortwayne.org/meetings/how-it-works/","group":"723818 (22) (65)","timezone":"America/New_York"},{"feed":"area22indiana.org","slug":"how-it-works-2","name":"HOW IT WORKS","day":0,"time":"16:00","types":["D","O"],"state":"IN","postal_code":"46835","city":"Fort Wayne","address":"10145 Maysville Rd","latitude":41.1291682,"longitude":-85.0145448,"location":"Taylor Chapel Church","region":"Fort Wayne","notes":"Orientation Meeting","url":"https://area22indiana.org/meetings/how-it-works-2/","group":"723818 (22) (65)","timezone":"America/Indiana/Indianapolis"},{"feed":"area22indiana.org","slug":"sunday-afternoon-open-speaker-meeting","name":"Sunday Afternoon Open Speaker Meeting","day":0,"time":"16:00","end_time":"17:00","types":["O","SP","X"],"state":"IN","postal_code":"46601","city":"South Bend","address":"333 N Main St","latitude":41.6800587,"longitude":-86.2526029,"location":"First Methodist Church","region":"South Bend","url":"https://area22indiana.org/meetings/sunday-afternoon-open-speaker-meeting/","timezone":"America/Indiana/Indianapolis"},{"feed":"area23aa.org","slug":"sunday-meeting","name":"Sunday Meeting","day":0,"time":"16:00","types":["D","O"],"state":"IN","postal_code":"47362","city":"New Castle","address":"1904 Broad St","latitude":39.9314886,"longitude":-85.3620274,"location":"St. Anne's Parish House","region":"South-Eastern Indiana","url":"https://area23aa.org/meetings/sunday-meeting","timezone":"America/Indiana/Indianapolis"},{"feed":"aaftwayne.org","slug":"as-bill-sees-it","name":"As Bill Sees It","day":0,"time":"17:00","end_time":"18:00","types":["ABSI","O"],"state":"IN","postal_code":"46703","city":"Angola","address":"225 W Maumee St","latitude":41.6346209,"longitude":-85.0013963,"location":"Alano Club","region":"Angola","url":"https://www.aafortwayne.org/meetings/as-bill-sees-it/","timezone":"America/New_York"},{"feed":"aaftwayne.org","slug":"dream-catchers","name":"Dream Catchers","day":0,"time":"17:00","end_time":"18:00","types":["C","D","W"],"state":"IN","postal_code":"46703","city":"Angola","address":"909 S Darling St","latitude":41.6252852,"longitude":-85.0035387,"location":"Holy Family Episcopal","region":"Angola","url":"https://www.aafortwayne.org/meetings/dream-catchers/","timezone":"America/New_York"},{"feed":"area22indiana.org","slug":"dream-catchers","name":"Dream Catchers","day":0,"time":"17:00","end_time":"18:00","types":["C","D","W"],"state":"IN","postal_code":"46703","city":"Angola","address":"909 S Darling St","latitude":41.6252852,"longitude":-85.0035387,"location":"Holy Family Episcopal","region":"Angola","url":"https://area22indiana.org/meetings/dream-catchers/","timezone":"America/Indiana/Indianapolis"},{"feed":"area22indiana.org","slug":"free-for-all","name":"Free For All","day":0,"time":"17:00","types":["O"],"state":"IN","postal_code":"46360","city":"Michigan City","address":"211 E 6th St","latitude":41.7164785,"longitude":-86.8992631,"location":"Dunes Fellowship House","region":"Michigan City","url":"https://area22indiana.org/meetings/free-for-all/","group":"Free For All - 21","timezone":"America/Indiana/Indianapolis"},{"feed":"area22indiana.org","slug":"gene-little-hillside-group","name":"Gene Little Hillside Group","day":0,"time":"17:00","types":["11","D","O"],"state":"IN","postal_code":"46011","city":"Anderson","address":"1045 W 375 N","latitude":40.1599785,"longitude":-85.6922227,"location":"Florida Station Church of God","region":"Anderson","url":"https://area22indiana.org/meetings/gene-little-hillside-group/","group":"Gene Little Hillside Group - 79","timezone":"America/Indiana/Indianapolis"},{"feed":"area22indiana.org","slug":"grupo-nuevo-amanecer-5","name":"Grupo Nuevo Amanecer","day":0,"time":"17:00","end_time":"19:00","types":["S"],"state":"IN","postal_code":"46613","city":"South Bend","address":"1614 S Michigan St","latitude":41.6573096,"longitude":-86.2495992,"location":"Nuevo Amanecer","region":"South Bend","url":"https://area22indiana.org/meetings/grupo-nuevo-amanecer-5/","group":"Grupo Nuevo Amanecer","timezone":"America/Indiana/Indianapolis"},{"feed":"area22indiana.org","slug":"plymouth-rock","name":"Plymouth Rock","day":0,"time":"17:00","types":["O"],"state":"IN","postal_code":"46394","city":"Whiting","address":"1845 Stanton Ave","latitude":41.6794261,"longitude":-87.5058392,"location":"Plymouth Rock Church","region":"Whiting","url":"https://area22indiana.org/meetings/plymouth-rock/","group":"Plymouth Rock - 3","timezone":"America/Indiana/Indianapolis"},{"feed":"indyaa.org","slug":"sober-af","name":"Sober AF","day":0,"time":"17:00","end_time":"18:00","types":["D","O"],"state":"IN","postal_code":"46205","city":"Indianapolis","address":"4627 Carvel Ave","latitude":39.8408575,"longitude":-86.1388834,"location":"Carvel Club","region":"INDPLS-North","url":"https://indyaa.org/meetings/sober-af/","timezone":"America/Indiana/Indianapolis"},{"feed":"area22indiana.org","slug":"those-who-shall-not-be-named","name":"Those Who Shall Not Be Named","day":0,"time":"17:00","types":["LIT","O","Y"],"state":"IN","postal_code":"46342","city":"Hobart","address":"207 Kelly St","latitude":41.5401805,"longitude":-87.247237,"location":"Augustana Lutheran Church","region":"Hobart","url":"https://area22indiana.org/meetings/those-who-shall-not-be-named/","group":"Those Who Shall Not Be Named","timezone":"America/Indiana/Indianapolis"},{"feed":"area22indiana.org","slug":"womans-discussion-group","name":"Woman's Discussion Group","day":0,"time":"17:00","types":["C","D"],"state":"IN","postal_code":"46016","city":"Anderson","address":"1408 Main St","latitude":40.1018389,"longitude":-85.6778788,"location":"5th Chapter House,","region":"Anderson","url":"https://area22indiana.org/meetings/womans-discussion-group/","group":"Woman'S Discussion Group - 83","timezone":"America/Indiana/Indianapolis"},{"feed":"southwesternindianaaa.org","slug":"c-l-7","name":"Colombia and Linwood","day":0,"time":"17:30","end_time":"18:30","types":["D","O","X"],"state":"IN","postal_code":"47711","city":"Evansville","address":"761 E Columbia St","latitude":37.9845113,"longitude":-87.553166,"location":"Colombia and Linwood","region":"South Western Indiana","url":"https://southwesternindianaaa.org/meetings/c-l-7/","group":"Colombia and Linwood","timezone":"America/Chicago"},{"feed":"indyaa.org","slug":"into-action","name":"Into Action","day":0,"time":"17:30","end_time":"18:45","types":["B","D"],"state":"IN","postal_code":"46202","city":"Indianapolis","address":"1424 Central Ave","latitude":39.7861231,"longitude":-86.1497502,"location":"Talbot House","region":"INDPLS-Midtown","notes":"This is a Big Book STUDY","url":"https://indyaa.org/meetings/into-action/","timezone":"America/Indiana/Indianapolis"},{"feed":"southwesternindianaaa.org","slug":"mc-group-sunday","name":"MC Group Sunday","day":0,"time":"17:30","end_time":"18:30","types":["D","O"],"state":"IN","postal_code":"47601","city":"Boonville","address":"326 E Locust St","latitude":38.0492494,"longitude":-87.2709344,"location":"Strangers Rest Masonic Lodge","region":"South Western Indiana","url":"https://southwesternindianaaa.org/meetings/mc-group-sunday/","group":"MC Group","timezone":"America/Chicago"},{"feed":"area22indiana.org","slug":"open-meeting-3","name":"Open Meeting","day":0,"time":"17:30","end_time":"18:30","types":["O","EN"],"state":"IN","postal_code":"46992","city":"Wabash","address":"1717 N Wabash St","latitude":40.8178994,"longitude":-85.8194282,"location":"Faith Harvest Fellowship Church","region":"Wabash","url":"https://area22indiana.org/meetings/open-meeting-3/","timezone":"America/Indiana/Indianapolis"},{"feed":"area23aa.org","slug":"weekend-sobriety-group","name":"Weekend Sobriety Group","day":0,"time":"17:30","end_time":"18:30","types":["D","O","X"],"state":"IN","postal_code":"47404","city":"Bloomington","address":"1412 W 11th St","latitude":39.1735189,"longitude":-86.5520995,"location":"12/24 Club","region":"South-Central Indiana","url":"https://area23aa.org/meetings/weekend-sobriety-group","group":"Weekend Sobriety Group","timezone":"America/Indiana/Indianapolis"},{"feed":"area22indiana.org","slug":"back-to-basics-gary-2","name":"Back To Basics - Gary","day":0,"time":"18:00","types":["O"],"state":"IN","postal_code":"46408","city":"Gary","address":"5157 Harrison St","latitude":41.525601,"longitude":-87.343515,"location":"Serenity House / Club","region":"Gary","url":"https://area22indiana.org/meetings/back-to-basics-gary-2/","group":"Back To Basics - 5","timezone":"America/Indiana/Indianapolis"},{"feed":"area22indiana.org","slug":"groupo-latinos-en-aa","name":"Groupo Latinos en AA","day":0,"time":"18:00","types":["C","S"],"state":"IN","postal_code":"46405","city":"Lake Station","address":"2939 Dekalb St","latitude":41.5643476,"longitude":-87.2743462,"location":"Groupo Latinos en AA","region":"Lake Station","url":"https://area22indiana.org/meetings/groupo-latinos-en-aa/","group":"Groupo Latinos en AA - 7","timezone":"America/Indiana/Indianapolis"},{"feed":"area23aa.org","slug":"new-hope","name":"New Hope","day":0,"time":"18:00","end_time":"19:00","types":["D","O","X"],"state":"IN","postal_code":"47424","city":"Bloomfield","address":"498 Lincoln Dr","latitude":39.0333561,"longitude":-86.9415584,"location":"Jaycee Building","region":"South-Central Indiana","notes":"Last Sunday of the month is an Open Speaker Meeting","url":"https://area23aa.org/meetings/new-hope","group":"New Hope Group","timezone":"America/Indiana/Indianapolis"},{"feed":"indyaa.org","slug":"road-to-recovery-paragon","name":"Road to Recovery Paragon","day":0,"time":"18:00","end_time":"19:00","types":["D","O"],"state":"IN","postal_code":"46166","city":"Paragon","address":"Main St","latitude":39.3954177,"longitude":-86.56249,"location":"Paragon Christian Church (290 Main Street)","region":"S-Paragon","url":"https://indyaa.org/meetings/road-to-recovery-paragon/","timezone":"America/Indiana/Indianapolis"},{"feed":"area22indiana.org","slug":"rolling-high-group","name":"Rolling High Group","day":0,"time":"18:00","types":["C"],"state":"IN","postal_code":"46371","city":"Rolling Prairie","address":"3444 US-20","latitude":41.671479,"longitude":-86.633373,"location":"Rolling Prairie United Methodist Church","region":"Rolling Prairie","url":"https://area22indiana.org/meetings/rolling-high-group/","group":"Rolling High Group - 23","timezone":"America/Indiana/Indianapolis"},{"feed":"indyaa.org","slug":"serenity-on-the-mount-sunday-discussion","name":"Serenity on the Mount Sunday Discussion","day":0,"time":"18:00","end_time":"19:00","types":["D","O"],"state":"IN","postal_code":"46151","city":"Martinsville","address":"3600 Wilbur Rd","latitude":39.4777346,"longitude":-86.4694223,"location":"Mt. Olive United Methodist Church","region":"S-Martinsville","url":"https://indyaa.org/meetings/serenity-on-the-mount-sunday-discussion/","timezone":"America/Indiana/Indianapolis"},{"feed":"indyaa.org","slug":"sisters-in-sobriety-today","name":"Sisters In Sobriety Today","day":0,"time":"18:00","types":["D","O","W"],"state":"IN","postal_code":"46225","city":"Indianapolis","address":"259 E Raymond St","latitude":39.736959,"longitude":-86.1520044,"location":"Southside Fellowship Center","region":"INDPLS-South","notes":"No Smoking, Women's, Wheelchair Accessible","url":"https://indyaa.org/meetings/sisters-in-sobriety-today/","timezone":"America/Indiana/Indianapolis"},{"feed":"indyaa.org","slug":"sociable-survivors","name":"Sociable Survivors","day":0,"time":"18:00","types":["C","D"],"state":"IN","postal_code":"46176","city":"Shelbyville","address":"62 3rd St","latitude":39.5149896,"longitude":-85.7759954,"location":"Dry Dock Club","region":"S-Shelbyville","notes":"No Smoking, Wheelchair Accessible, Alanon Same Location","url":"https://indyaa.org/meetings/sociable-survivors/","timezone":"America/Indiana/Indianapolis"},{"feed":"louisvilleaa.org","slug":"sos-corydon-group","name":"SOS Corydon Group","day":0,"time":"18:00","end_time":"19:00","types":["D","O","X"],"state":"IN","postal_code":"47112","city":"Corydon","address":"105 Big Indian Rd NE","latitude":38.2181886,"longitude":-86.1151787,"location":"Next Step Building","region":"Harrison County, IN","url":"https://loukyaa.org/meetings/sos-corydon-group/","group":"SOS Corydon Group","timezone":"America/Kentucky/Louisville"},{"feed":"loukyaa.org","slug":"sos-corydon-group","name":"SOS Corydon Group","day":0,"time":"18:00","end_time":"19:00","types":["D","O","X"],"state":"IN","postal_code":"47112","city":"Corydon","address":"105 Big Indian Rd NE","latitude":38.2181886,"longitude":-86.1151787,"location":"Next Step Building","region":"Harrison County, IN","url":"https://loukyaa.org/meetings/sos-corydon-group/","group":"SOS Corydon Group","timezone":"America/Kentucky/Louisville"},{"feed":"area22indiana.org","slug":"spanish-language-meeting","name":"Grupo Nazareno","day":0,"time":"18:00","types":["S"],"state":"IN","postal_code":"46528","city":"Goshen","address":"206 E Lincoln Ave","latitude":41.5862881,"longitude":-85.8326168,"location":"206 E Lincoln Ave Goshen, IN 46528","region":"Goshen","url":"https://area22indiana.org/meetings/spanish-language-meeting/","group":"Spanish Language Meeting - 91","timezone":"America/Indiana/Indianapolis"},{"feed":"area22indiana.org","slug":"spanish-meeting-2","name":"Grupo Mi Segunda Vida","day":0,"time":"18:00","types":["S"],"state":"IN","postal_code":"46516","city":"Elkhart","address":"949 Middlebury St","latitude":41.6809986,"longitude":-85.953917,"location":"Serenity Hall","region":"Elkhart","url":"https://area22indiana.org/meetings/spanish-meeting-2/","group":"Spanish Meeting - 95","timezone":"America/Indiana/Indianapolis"},{"feed":"area22indiana.org","slug":"sunday-go-to-meeting","name":"Sunday Go To Meeting","day":0,"time":"18:00","types":["O"],"state":"IN","postal_code":"46534","city":"Knox","address":"1600 S Heaton St","latitude":41.2816432,"longitude":-86.6199278,"location":"Our Redeemer Lutheran Church","region":"Knox","url":"https://area22indiana.org/meetings/sunday-go-to-meeting/","group":"Sunday Go To Meeting - 55","timezone":"America/Indiana/Indianapolis"},{"feed":"louisvilleaa.org","slug":"sunday-nite-big-book","name":"Sunday Nite Big Book","day":0,"time":"18:00","types":["B","C","D","X"],"state":"IN","postal_code":"47150","city":"New Albany","address":"506 Pearl St","latitude":38.2874547,"longitude":-85.8234052,"location":"Floyd County Token Club","region":"Floyd County IN","url":"https://loukyaa.org/meetings/sunday-nite-big-book/","group":"Sunday Nite Big Book","timezone":"America/Kentucky/Louisville"},{"feed":"loukyaa.org","slug":"sunday-nite-big-book","name":"Sunday Nite Big Book","day":0,"time":"18:00","types":["B","C","D","X"],"state":"IN","postal_code":"47150","city":"New Albany","address":"506 Pearl St","latitude":38.2874547,"longitude":-85.8234052,"location":"Floyd County Token Club","region":"Floyd County IN","url":"https://loukyaa.org/meetings/sunday-nite-big-book/","group":"Sunday Nite Big Book","timezone":"America/Kentucky/Louisville"},{"feed":"indyaa.org","slug":"the-164-125","name":"The 164 @ 125","day":0,"time":"18:00","types":["C","D","LIT"],"state":"IN","postal_code":"46201","city":"Indianapolis","address":"1201 E Maryland St","latitude":39.7644741,"longitude":-86.1374629,"location":"St. Vincent De Paul","region":"INDPLS-Midtown","notes":"Big Book DiscussionnnNo Smoking","url":"https://indyaa.org/meetings/the-164-125/","timezone":"America/Indiana/Indianapolis"},{"feed":"aaftwayne.org","slug":"womens-big-book","name":"WOMENS BIG BOOK","day":0,"time":"18:00","types":["O"],"state":"IN","postal_code":"46706","city":"Auburn","address":"907 Main St","latitude":41.3622171,"longitude":-85.0560415,"location":"Women's House","region":"Auburn","notes":"Women Only\n\nBig Book Study","url":"https://www.aafortwayne.org/meetings/womens-big-book/","timezone":"America/New_York"},{"feed":"area22indiana.org","slug":"womens-big-book","name":"WOMENS BIG BOOK","day":0,"time":"18:00","types":["O"],"state":"IN","postal_code":"46706","city":"Auburn","address":"907 Main St","latitude":41.3622101,"longitude":-85.0559954,"location":"Women's House","region":"Auburn","notes":"Women Only\n\nBig Book Study","url":"https://area22indiana.org/meetings/womens-big-book/","timezone":"America/Indiana/Indianapolis"},{"feed":"aaftwayne.org","slug":"bloomingdale-group","name":"BLOOMINGDALE GROUP","day":0,"time":"18:30","types":["O","D"],"state":"IN","postal_code":"46808","city":"Fort Wayne","address":"609 Putnam St","latitude":41.0912639,"longitude":-85.1487872,"location":"Trinity Methodist Church","region":"Fort Wayne","notes":"No Smoking","url":"https://www.aafortwayne.org/meetings/bloomingdale-group/","group":"0105082 (22) (67)","timezone":"America/New_York"},{"feed":"area22indiana.org","slug":"bloomingdale-group","name":"BLOOMINGDALE GROUP","day":0,"time":"18:30","types":["O","D"],"state":"IN","postal_code":"46808","city":"Fort Wayne","address":"609 Putnam St","latitude":41.091269,"longitude":-85.1487696,"location":"Trinity Methodist Church","region":"Fort Wayne","notes":"No Smoking","url":"https://area22indiana.org/meetings/bloomingdale-group/","group":"0105082 (22) (67)","timezone":"America/Indiana/Indianapolis"},{"feed":"indyaa.org","slug":"building-sobriety","name":"Building Sobriety","day":0,"time":"18:30","end_time":"19:30","types":["D","O"],"state":"IN","postal_code":"46241","city":"Indianapolis","address":"5600 Dividend Rd","latitude":39.7397115,"longitude":-86.2560091,"location":"Ironworkers Local 22","region":"INDPLS-West","notes":"No Smoking, Wheelchair accessible","url":"https://indyaa.org/meetings/building-sobriety/","timezone":"America/Indiana/Indianapolis"},{"feed":"louisvilleaa.org","slug":"grace-group-2","name":"Grace Group New Albany","day":0,"time":"18:30","end_time":"19:30","types":["C","D"],"state":"IN","postal_code":"47150","city":"New Albany","address":"1752 Scheller Ln","latitude":38.3201412,"longitude":-85.8084254,"location":"Our Lady of Perpetual Help Church","region":"Floyd County IN","url":"https://loukyaa.org/meetings/grace-group-2/","group":"Grace Group Indiana","timezone":"America/Kentucky/Louisville"},{"feed":"loukyaa.org","slug":"grace-group-2","name":"Grace Group New Albany","day":0,"time":"18:30","end_time":"19:30","types":["C","D"],"state":"IN","postal_code":"47150","city":"New Albany","address":"1752 Scheller Ln","latitude":38.3201412,"longitude":-85.8084254,"location":"Our Lady of Perpetual Help Church","region":"Floyd County IN","url":"https://loukyaa.org/meetings/grace-group-2/","group":"Grace Group Indiana","timezone":"America/Kentucky/Louisville"},{"feed":"southwesternindianaaa.org","slug":"sunday-niteosiii","name":"Sunday Nite@OSIII","day":0,"time":"18:30","end_time":"19:30","types":["C","D","X"],"state":"IN","postal_code":"47713","city":"Evansville","address":"770 E Walnut St","latitude":37.9740792,"longitude":-87.5530664,"location":"Old Stone 3 (OSIII)","region":"South Western Indiana","url":"https://southwesternindianaaa.org/meetings/sunday-niteosiii/","group":"Old Stone 3 (OSIII)","timezone":"America/Chicago"},{"feed":"indyaa.org","slug":"42-stories","name":"42 Stories","day":0,"time":"19:00","types":["D","LIT","O"],"state":"IN","postal_code":"46168","city":"Plainfield","address":"1012 Stafford Rd","latitude":39.6975211,"longitude":-86.3881721,"location":"First Baptist Church Plainfield","region":"W-Plainfield","notes":"Wheelchair Accessible","url":"https://indyaa.org/meetings/42-stories/","timezone":"America/Indiana/Indianapolis"},{"feed":"southwesternindianaaa.org","slug":"4th-dimension-group-2","name":"4th Dimension Group","day":0,"time":"19:00","end_time":"20:00","types":["D","O"],"state":"IN","postal_code":"47542","city":"Huntingburg","address":"304 N Jackson St","latitude":38.2949722,"longitude":-86.954202,"location":"Nazarene Church","region":"South Western Indiana","url":"https://southwesternindianaaa.org/meetings/4th-dimension-group-2/","group":"4th Dimension Group","timezone":"America/Indiana/Indianapolis"},{"feed":"louisvilleaa.org","slug":"all-in-group","name":"All In Group","day":0,"time":"19:00","end_time":"20:00","types":["O","SP","X"],"state":"IN","postal_code":"47150","city":"New Albany","address":"2248 Charlestown Rd","latitude":38.3071084,"longitude":-85.8097036,"location":"Crossroads Community Church","region":"Floyd County IN","url":"https://loukyaa.org/meetings/all-in-group/","group":"All In Group","timezone":"America/Kentucky/Louisville"},{"feed":"loukyaa.org","slug":"all-in-group","name":"All In Group","day":0,"time":"19:00","end_time":"20:00","types":["O","SP","X"],"state":"IN","postal_code":"47150","city":"New Albany","address":"2248 Charlestown Rd","latitude":38.3071084,"longitude":-85.8097036,"location":"Crossroads Community Church","region":"Floyd County IN","url":"https://loukyaa.org/meetings/all-in-group/","group":"All In Group","timezone":"America/Kentucky/Louisville"},{"feed":"indyaa.org","slug":"atterbury-acceptance-group","name":"Atterbury Acceptance Group","day":0,"time":"19:00","end_time":"20:00","types":["D","O"],"state":"IN","postal_code":"46131","city":"Franklin","address":"2949 E North St","latitude":39.3785095,"longitude":-86.0481605,"location":"Johnson County Park Office","region":"S-Franklin","url":"https://indyaa.org/meetings/atterbury-acceptance-group/","timezone":"America/Indiana/Indianapolis"},{"feed":"area22indiana.org","slug":"back-to-basics-elkhart","name":"Back To Basics - Elkhart","day":0,"time":"19:00","types":["D","O","X"],"state":"IN","postal_code":"46516","city":"Elkhart","address":"305 W Franklin St","latitude":41.6830805,"longitude":-85.9751717,"location":"Stepping Stones","region":"Elkhart","url":"https://area22indiana.org/meetings/back-to-basics-elkhart/","group":"Back To Basics - Elkhart - 95","timezone":"America/Indiana/Indianapolis"},{"feed":"area22indiana.org","slug":"back-to-basics-group","name":"Back to Basics Group","day":0,"time":"19:00","end_time":"20:00","types":["C"],"state":"IN","postal_code":"46580","city":"Warsaw","address":"622 E Ft Wayne St","latitude":41.2398523,"longitude":-85.8489855,"location":"Serenity House # 5","region":"warsaw","url":"https://area22indiana.org/meetings/back-to-basics-group/","group":"0685037","timezone":"America/Indiana/Indianapolis"},{"feed":"area22indiana.org","slug":"big-book-study-3","name":"Big Book Study","day":0,"time":"19:00","types":["B"],"state":"IN","postal_code":"46901","city":"Kokomo","address":"1301 N Webster St","latitude":40.498262,"longitude":-86.1364778,"location":"Fellowship of Hope","region":"Kokomo","url":"https://area22indiana.org/meetings/big-book-study-3/","group":"Big Book Study - 77","timezone":"America/Indiana/Indianapolis"},{"feed":"area22indiana.org","slug":"big-book-study-5","name":"Big Book Study","day":0,"time":"19:00","types":["B","C"],"state":"IN","postal_code":"46902","city":"Kokomo","address":"311 W Lincoln Rd","latitude":40.4542412,"longitude":-86.1322441,"location":"Church of the Brethren","region":"Kokomo","url":"https://area22indiana.org/meetings/big-book-study-5/","group":"Big Book Study - 77","timezone":"America/Indiana/Indianapolis"},{"feed":"aaftwayne.org","slug":"change-of-heart-group","name":"CHANGE OF HEART GROUP","day":0,"time":"19:00","types":["O","D"],"state":"IN","postal_code":"46802","city":"Fort Wayne","address":"806 Walnut St","latitude":41.0670147,"longitude":-85.1491923,"location":"Freedom House","region":"Fort Wayne","notes":"No Smoking","url":"https://www.aafortwayne.org/meetings/change-of-heart-group/","group":"0153628 (22) (69)","timezone":"America/New_York"},{"feed":"area22indiana.org","slug":"change-of-heart-group","name":"CHANGE OF HEART GROUP","day":0,"time":"19:00","types":["O","D"],"state":"IN","postal_code":"46802","city":"Fort Wayne","address":"806 Walnut St","latitude":41.0670196,"longitude":-85.1491749,"location":"Freedom House","region":"Fort Wayne","notes":"No Smoking","url":"https://area22indiana.org/meetings/change-of-heart-group/","group":"0153628 (22) (69)","timezone":"America/Indiana/Indianapolis"},{"feed":"area22indiana.org","slug":"changing-directions","name":"Changing Directions","day":0,"time":"19:00","types":["C","D"],"state":"IN","postal_code":"46349","city":"Lake Village","address":"9412 N 300 W","latitude":41.1362317,"longitude":-87.4490339,"location":"Lake Village Presbyterian Church","region":"Lake Village","url":"https://area22indiana.org/meetings/changing-directions/","group":"Changing Directions - 15","timezone":"America/Indiana/Indianapolis"},{"feed":"area22indiana.org","slug":"closed-a-a-waterloo","name":"Closed A.A. - Waterloo","day":0,"time":"19:00","types":["C"],"state":"IN","postal_code":"46793","city":"Waterloo","address":"300 W Maple St","latitude":41.4301256,"longitude":-85.022778,"location":"United Methodist Church","region":"Waterloo","url":"https://area22indiana.org/meetings/closed-a-a-waterloo/","group":"Closed A.A. - Waterloo - 47","timezone":"America/Indiana/Indianapolis"},{"feed":"area22indiana.org","slug":"four-seasons-group","name":"Four Seasons Group","day":0,"time":"19:00","types":["12x12","C","D"],"state":"IN","postal_code":"46307","city":"Crown Point","address":"99 S County Line Rd","latitude":41.4207878,"longitude":-87.2187324,"location":"Cross of Christ Lutheran Church","region":"Crown Point","url":"https://area22indiana.org/meetings/four-seasons-group/","group":"Four Seasons Group - 15","timezone":"America/Indiana/Indianapolis"},{"feed":"indyaa.org","slug":"great-facts-speaker-zoom-meeting-link-635-148-435-pass-word-232167","name":"Great Facts Speaker Zoom Meeting Link: 635 148 435 Pass Word 232167","day":0,"time":"19:00","end_time":"20:00","types":["O","SP","EN","ONL"],"state":"IN","city":"Indianapolis","latitude":39.76909,"longitude":-86.158018,"location":"Indianapolis, IN, USA","region":"Indianapolis","notes":"Great Facts Speaker Zoom Meeting Link: 635 148 435 Pass Word 232167","conference_url":"https://zoom.us/j/9793796858?pwd=NllQMXpZUEZSMG9aVHM5K1JKVTBoZz09","url":"https://indyaa.org/meetings/great-facts-speaker-zoom-meeting-link-635-148-435-pass-word-232167/","group":"Great Facts Speaker Zoom Meeting Link: 635 148 435 Pass Word 232167","timezone":"America/Indiana/Indianapolis"},{"feed":"indyaa.org","slug":"keep-it-simple-daily-reflections","name":"Keep It Simple (Daily Reflections)","day":0,"time":"19:00","types":["D","LIT","O"],"state":"IN","postal_code":"46219","city":"Indianapolis","address":"441 S Ritter Ave","latitude":39.7615058,"longitude":-86.0730576,"location":"Club East","region":"INDPLS-East","notes":"No Smoking, Wheelchair Accessible, Alanon Same Location","url":"https://indyaa.org/meetings/keep-it-simple-daily-reflections/","timezone":"America/Indiana/Indianapolis"},{"feed":"indyaa.org","slug":"lets-get-sober","name":"Let's Get Sober","day":0,"time":"19:00","types":["D","O"],"state":"IN","postal_code":"46214","city":"Indianapolis","address":"6450 W 10th St","latitude":39.7798828,"longitude":-86.2745023,"location":"Westside Club","region":"INDPLS-West","notes":"No Smoking","url":"https://indyaa.org/meetings/lets-get-sober/","timezone":"America/Indiana/Indianapolis"},{"feed":"area23aa.org","slug":"live-free-or-die-young","name":"Live Free or Die Young Group","day":0,"time":"19:00","types":["O"],"state":"IN","postal_code":"47421","city":"Bedford","address":"2830 Washington Ave","latitude":38.8467209,"longitude":-86.4975322,"location":"Serenity Club","region":"South-Central Indiana","url":"https://area23aa.org/meetings/live-free-or-die-young","group":"Live Free or Die Young Group","timezone":"America/Indiana/Indianapolis"},{"feed":"area23aa.org","slug":"mitchell-group","name":"Mitchell Group","day":0,"time":"19:00","end_time":"20:00","types":["D","O","X"],"state":"IN","postal_code":"47446","city":"Mitchell","address":"1004 W Main St","latitude":38.7315545,"longitude":-86.4771055,"location":"Church of Christ","region":"South-Central Indiana","notes":"Last Sunday of the month is an Open Speaker Meeting","url":"https://area23aa.org/meetings/mitchell-group","group":"Mitchell Group","timezone":"America/Indiana/Indianapolis"},{"feed":"area22indiana.org","slug":"new-hope-group","name":"New Hope Group","day":0,"time":"19:00","types":["D","O"],"state":"IN","postal_code":"47959","city":"Monon","address":"501 N Market St","latitude":40.8646311,"longitude":-86.8787578,"location":"Monan United Methodist Church","region":"Monan","url":"https://area22indiana.org/meetings/new-hope-group/","group":"New Hope Group - 53","timezone":"America/Indiana/Indianapolis"},{"feed":"area22indiana.org","slug":"new-hope-group-71-2","name":"New Hope Group","day":0,"time":"19:00","types":["D","O"],"state":"IN","postal_code":"46952","city":"Marion","address":"1301 W 3rd St","latitude":40.5586373,"longitude":-85.6741076,"location":"New Life Club","region":"Marion","url":"https://area22indiana.org/meetings/new-hope-group-71-2/","group":"New Hope Group - 71","timezone":"America/Indiana/Indianapolis"},{"feed":"aaftwayne.org","slug":"north-side-group","name":"NORTH SIDE GROUP","day":0,"time":"19:00","types":["O","SP"],"state":"IN","postal_code":"46805","city":"Fort Wayne","address":"1232 Crescent Ave","latitude":41.088945,"longitude":-85.12299,"location":"Crescent Ave. United Methodist Church","region":"Fort Wayne","notes":"No Smoking","url":"https://www.aafortwayne.org/meetings/north-side-group/","group":"0105093 (22) (65)","timezone":"America/New_York"},{"feed":"area22indiana.org","slug":"north-side-group","name":"NORTH SIDE GROUP","day":0,"time":"19:00","types":["O","SP"],"state":"IN","postal_code":"46805","city":"Fort Wayne","address":"1232 Crescent Ave","latitude":41.0890237,"longitude":-85.1229668,"location":"Crescent Ave. United Methodist Church","region":"Fort Wayne","notes":"No Smoking","url":"https://area22indiana.org/meetings/north-side-group/","group":"0105093 (22) (65)","timezone":"America/Indiana/Indianapolis"},{"feed":"aaftwayne.org","slug":"one-day-at-a-time-group","name":"ONE DAY AT A TIME GROUP","day":0,"time":"19:00","types":["O","D"],"state":"IN","postal_code":"46806","city":"Fort Wayne","address":"4643 Gaywood Dr","latitude":41.0415903,"longitude":-85.1219626,"location":"Sacred Heart Church","region":"Fort Wayne","notes":"Back Door, No Smoking","url":"https://www.aafortwayne.org/meetings/one-day-at-a-time-group/","group":"0119884 (22) (63)","timezone":"America/New_York"},{"feed":"area22indiana.org","slug":"one-day-at-a-time-group","name":"ONE DAY AT A TIME GROUP","day":0,"time":"19:00","types":["O","D"],"state":"IN","postal_code":"46806","city":"Fort Wayne","address":"4643 Gaywood Dr","latitude":41.0415572,"longitude":-85.1219628,"location":"Sacred Heart Church","region":"Fort Wayne","notes":"Back Door, No Smoking","url":"https://area22indiana.org/meetings/one-day-at-a-time-group/","group":"0119884 (22) (63)","timezone":"America/Indiana/Indianapolis"},{"feed":"indyaa.org","slug":"peculiar-twist-young-peoples-mtg","name":"Peculiar Twist Young Peoples Mtg","day":0,"time":"19:00","types":["D","O","Y"],"state":"IN","postal_code":"46220","city":"Indianapolis","address":"3030 Kessler Blvd E Dr","latitude":39.8632879,"longitude":-86.1137067,"location":"First Friends Church","region":"INDPLS-North","notes":"No Smoking","url":"https://indyaa.org/meetings/peculiar-twist-young-peoples-mtg/","timezone":"America/Indiana/Indianapolis"},{"feed":"area22indiana.org","slug":"santa-maria-6","name":"Santa Maria","day":0,"time":"19:00","types":["C","S"],"state":"IN","postal_code":"46312","city":"East Chicago","address":"4427 Olcott Ave","latitude":41.6328142,"longitude":-87.4791515,"location":"East Chicago Church","region":"East Chicago","url":"https://area22indiana.org/meetings/santa-maria-6/","group":"Santa Maria","timezone":"America/Indiana/Indianapolis"},{"feed":"louisvilleaa.org","slug":"simply-a-a-group","name":"Simply A.A. Group","day":0,"time":"19:00","end_time":"20:00","types":["D","O","X","XB"],"state":"IN","postal_code":"47129","city":"Clarksville","address":"202 Homestead Ave","latitude":38.2853802,"longitude":-85.754133,"location":"The Recovery Complex","region":"Clark County, IN","url":"https://loukyaa.org/meetings/simply-a-a-group/","group":"Simply A.A. Group","timezone":"America/Kentucky/Louisville"},{"feed":"loukyaa.org","slug":"simply-a-a-group","name":"Simply A.A. Group","day":0,"time":"19:00","end_time":"20:00","types":["D","O","X","XB"],"state":"IN","postal_code":"47129","city":"Clarksville","address":"202 Homestead Ave","latitude":38.2853802,"longitude":-85.754133,"location":"The Recovery Complex","region":"Clark County, IN","url":"https://loukyaa.org/meetings/simply-a-a-group/","group":"Simply A.A. Group","timezone":"America/Kentucky/Louisville"},{"feed":"area23aa.org","slug":"smoke-out","name":"Smoke Out","day":0,"time":"19:00","end_time":"20:00","types":["D","O"],"state":"IN","postal_code":"47546","city":"Jasper","address":"1450 Energy Drive","latitude":38.3624006,"longitude":-86.9028832,"location":"Redemption Christian Church","region":"South-Central Indiana","url":"https://area23aa.org/meetings/smoke-out","timezone":"America/Indiana/Indianapolis"},{"feed":"southwesternindianaaa.org","slug":"smoke-out","name":"Smoke Out","day":0,"time":"19:00","end_time":"20:00","types":["O","D"],"state":"IN","postal_code":"47546","city":"Jasper","address":"1450 Energy Drive","latitude":38.3624006,"longitude":-86.9028832,"location":"Redemption Christian Church","region":"Jasper","url":"https://southwesternindianaaa.org/meetings/smoke-out/","timezone":"America/Chicago"},{"feed":"area22indiana.org","slug":"sobriety-on-sunday","name":"Sobriety On Sunday","day":0,"time":"19:00","end_time":"20:00","types":["LIT","O"],"state":"IN","postal_code":"46016","city":"Anderson","address":"1408 Main St","latitude":40.1018389,"longitude":-85.6778788,"location":"5th Chapter House,","region":"Anderson","notes":"Open Literature Study Group.\nTopics: AA Big Book, 12 & 12, Drop the Rock","url":"https://area22indiana.org/meetings/sobriety-on-sunday/","group":"Sobriety On Sunday - 83","timezone":"America/Indiana/Indianapolis"},{"feed":"southwesternindianaaa.org","slug":"speaker-meeting","name":"Speaker Meeting","day":0,"time":"19:00","end_time":"20:00","types":["SP"],"state":"IN","postal_code":"47586","city":"Tell City","address":"1140 31st St","latitude":37.9578876,"longitude":-86.7389629,"location":"Schergens Center","region":"South Western Indiana","url":"https://southwesternindianaaa.org/meetings/speaker-meeting/","group":"Schergens Center","timezone":"America/Chicago"},{"feed":"area22indiana.org","slug":"sunday-12-x-12-group","name":"Winners Group","day":0,"time":"19:00","types":["C"],"state":"IN","postal_code":"46563","city":"Plymouth","address":"321 N Center St","latitude":41.3422332,"longitude":-86.310991,"location":"First United Church of Christ","region":"Plymouth","url":"https://area22indiana.org/meetings/sunday-12-x-12-group/","group":"Winners Group - 55","timezone":"America/Indiana/Indianapolis"},{"feed":"area22indiana.org","slug":"sunday-candlelight-group","name":"Sunday Candlelight Group","day":0,"time":"19:00","types":["CAN"],"state":"IN","postal_code":"46613","city":"South Bend","address":"1438 E Calvert St","latitude":41.6545983,"longitude":-86.226152,"location":"Fellowship House","region":"South Bend","url":"https://area22indiana.org/meetings/sunday-candlelight-group/","timezone":"America/Indiana/Indianapolis"},{"feed":"area22indiana.org","slug":"sunday-night-aa-group","name":"Sunday Night AA Group","day":0,"time":"19:00","types":["C","D"],"state":"IN","postal_code":"46574","city":"Walkerton","address":"600 Van Buren St","latitude":41.4657687,"longitude":-86.4842963,"location":"Walkerton Bible Baptist Church","region":"Walkerton","notes":"In-Person Meeting","url":"https://area22indiana.org/meetings/sunday-night-aa-group/","group":"Sunday Night AA Group - 39","timezone":"America/Indiana/Indianapolis"},{"feed":"indyaa.org","slug":"sunday-night-beginners-group","name":"Sunday Night Beginner's Group","day":0,"time":"19:00","end_time":"20:00","types":["D","O"],"state":"IN","postal_code":"46032","city":"Carmel","address":"621 S Rangeline Rd","latitude":39.9718371,"longitude":-86.1257589,"location":"Carmel United Methodist Church","region":"N-Carmel","url":"https://indyaa.org/meetings/sunday-night-beginners-group/","timezone":"America/Indiana/Indianapolis"},{"feed":"indyaa.org","slug":"sunday-night-gay-group","name":"Sunday Night Gay Group","day":0,"time":"19:00","types":["C","D","LGBTQ"],"state":"IN","postal_code":"46226","city":"Indianapolis","address":"4601 Emerson Ave","latitude":39.8407437,"longitude":-86.0834032,"location":"The Table Episcopal Church","region":"INDPLS-North","notes":"No Smoking, Wheelchair Accessible","url":"https://indyaa.org/meetings/sunday-night-gay-group/","timezone":"America/Indiana/Indianapolis"},{"feed":"area22indiana.org","slug":"sunday-night-live","name":"Sunday Night Live","day":0,"time":"19:00","types":["D","O","X"],"state":"IN","postal_code":"47904","city":"Lafayette","address":"307 N 10th St","latitude":40.4203742,"longitude":-86.8856515,"location":"SURF Alano Center","region":"Lafayette","url":"https://area22indiana.org/meetings/sunday-night-live/","group":"Sunday Night Live - 49","timezone":"America/Indiana/Indianapolis"},{"feed":"area23aa.org","slug":"sunday-night-reid-group","name":"Sunday Night Reid Group","day":0,"time":"19:00","types":["D","O"],"state":"IN","postal_code":"47374","city":"Richmond","address":"228 S 6th St","latitude":39.8249153,"longitude":-84.8952429,"location":"228 Club","region":"South-Eastern Indiana","url":"https://area23aa.org/meetings/sunday-night-reid-group","timezone":"America/Indiana/Indianapolis"},{"feed":"area22indiana.org","slug":"sundee-a-a","name":"Sundee A.A.","day":0,"time":"19:00","types":["D","O"],"state":"IN","postal_code":"46550","city":"Nappanee","address":"1155 N Main St","latitude":41.4519901,"longitude":-86.0006358,"location":"Grace Point Church, 1155 N Main St, Nappanee, IN 46550","region":"Nappanee","url":"https://area22indiana.org/meetings/sundee-a-a/","group":"Sundee A.A. - 91","timezone":"America/Indiana/Indianapolis"},{"feed":"area22indiana.org","slug":"valparaiso-group","name":"Valparaiso Group","day":0,"time":"19:00","types":["C","D"],"state":"IN","postal_code":"46383","city":"Valparaiso","address":"505 Bullseye Lake Rd","latitude":41.5012492,"longitude":-87.0545417,"location":"St. Andrew's Episcopal Church","region":"Valparaiso","url":"https://area22indiana.org/meetings/valparaiso-group/","group":"Valparaiso Group - 19","timezone":"America/Indiana/Indianapolis"},{"feed":"aaftwayne.org","slug":"vision-of-hope","name":"VISION OF HOPE","day":0,"time":"19:00","types":["B","O","W"],"state":"IN","postal_code":"46825","city":"Fort Wayne","address":"1502 E Wallen Rd","latitude":41.1614441,"longitude":-85.1225705,"location":"St. Vincent De Paul Catholic Church","region":"Fort Wayne","notes":"Door 3 Spiritual Center","url":"https://www.aafortwayne.org/meetings/vision-of-hope/","timezone":"America/New_York"},{"feed":"area22indiana.org","slug":"vision-of-hope","name":"VISION OF HOPE","day":0,"time":"19:00","types":["B","O","W"],"state":"IN","postal_code":"46825","city":"Fort Wayne","address":"1502 E Wallen Rd","latitude":41.1617202,"longitude":-85.1225772,"location":"St. Vincent De Paul Catholic Church","region":"Fort Wayne","notes":"Door 3 Spiritual Center","url":"https://area22indiana.org/meetings/vision-of-hope/","timezone":"America/Indiana/Indianapolis"},{"feed":"aaftwayne.org","slug":"waterloo-group","name":"WATERLOO GROUP","day":0,"time":"19:00","types":["C"],"state":"IN","postal_code":"46793","city":"Waterloo","address":"300 W Maple St","latitude":41.4301385,"longitude":-85.022737,"location":"United Methodist Church","region":"Waterloo","url":"https://www.aafortwayne.org/meetings/waterloo-group/","timezone":"America/New_York"},{"feed":"area22indiana.org","slug":"waterloo-group","name":"WATERLOO GROUP","day":0,"time":"19:00","types":["C"],"state":"IN","postal_code":"46793","city":"Waterloo","address":"300 W Maple St","latitude":41.4301256,"longitude":-85.022778,"location":"United Methodist Church","region":"Waterloo","url":"https://area22indiana.org/meetings/waterloo-group/","timezone":"America/Indiana/Indianapolis"},{"feed":"indyaa.org","slug":"westside-sunday-night-group","name":"Westside Sunday Night Group","day":0,"time":"19:00","types":["O","SP"],"state":"IN","postal_code":"46214","city":"Indianapolis","address":"2020 N Girls School Rd","latitude":39.7929317,"longitude":-86.2897715,"location":"Chapel Rock Church Enter Door #10","region":"INDPLS-West","notes":"*Enter Door #10. No Smoking, Wheelchair Accessible","url":"https://indyaa.org/meetings/westside-sunday-night-group/","timezone":"America/Indiana/Indianapolis"},{"feed":"area22indiana.org","slug":"willingness-group","name":"Willingness Group","day":0,"time":"19:00","types":["C"],"state":"IN","postal_code":"47303","city":"Muncie","address":"827 W Riverside Ave","latitude":40.1999979,"longitude":-85.3955712,"location":"Alno Club","region":"Muncie","url":"https://area22indiana.org/meetings/willingness-group/","group":"Willingness Group - 85","timezone":"America/Indiana/Indianapolis"},{"feed":"area22indiana.org","slug":"zoo-meeting","name":"Zoo Meeting","day":0,"time":"19:00","types":["C"],"state":"IN","postal_code":"46383","city":"Valparaiso","address":"353 W Lincolnway","latitude":41.4676672,"longitude":-87.0650017,"location":"Moraine House","region":"Valparaiso","url":"https://area22indiana.org/meetings/zoo-meeting/","group":"Bill W. Group - 19","timezone":"America/Indiana/Indianapolis"},{"feed":"area22indiana.org","slug":"as-bill-sees-it-group-mishawaka","name":"As Bill Sees It Group - Mishawaka","day":0,"time":"19:30","types":["C","D","X"],"state":"IN","postal_code":"46544","city":"Mishawaka","address":"201 E 3rd St","latitude":41.6599049,"longitude":-86.1789194,"location":"1st United Methodist Church","region":"Mishawaka","url":"https://area22indiana.org/meetings/as-bill-sees-it-group-mishawaka/","group":"As Bill Sees It Group - Mishawaka - 37","timezone":"America/Indiana/Indianapolis"},{"feed":"southwesternindianaaa.org","slug":"c-l-6","name":"Colombia and Linwood","day":0,"time":"19:30","end_time":"20:30","types":["D","O","X"],"state":"IN","postal_code":"47711","city":"Evansville","address":"761 E Columbia St","latitude":37.9845113,"longitude":-87.553166,"location":"Colombia and Linwood","region":"South Western Indiana","url":"https://southwesternindianaaa.org/meetings/c-l-6/","group":"Colombia and Linwood","timezone":"America/Chicago"},{"feed":"area22indiana.org","slug":"chesterton-hope-group","name":"Chesterton Hope Group","day":0,"time":"19:30","types":["B","C"],"state":"IN","postal_code":"46304","city":"Chesterton","address":"2050 W 1100 N","latitude":41.5951739,"longitude":-87.0777615,"location":"Bethlehem Lutheran Church","region":"Chesterton","url":"https://area22indiana.org/meetings/chesterton-hope-group/","group":"Chesterton Hope Group - 17","timezone":"America/Indiana/Indianapolis"},{"feed":"area22indiana.org","slug":"dyer-open","name":"Dyer Open","day":0,"time":"19:30","types":["TC","O"],"state":"IN","postal_code":"46311","city":"Dyer","address":"24 Joliet St","latitude":41.4926181,"longitude":-87.5247677,"location":"Francisican Hospital Dyer","region":"Dyer","notes":"(4th Floor, Classroom F)","url":"https://area22indiana.org/meetings/dyer-open/","group":"Dyer Open - 13","timezone":"America/Indiana/Indianapolis"},{"feed":"indyaa.org","slug":"in-the-pitts","name":"In The Pitts","day":0,"time":"19:30","types":["D","O"],"state":"IN","postal_code":"46167","city":"Pittsboro","address":"227 E Main St","latitude":39.8605861,"longitude":-86.4615008,"location":"Pittsboro United Methodist Church","region":"W-Pittsboro","notes":"Wheelchair Accessible","url":"https://indyaa.org/meetings/in-the-pitts/","timezone":"America/Indiana/Indianapolis"},{"feed":"aacincinnati.org","slug":"no-name","name":"Way Out 12 & 12","day":0,"time":"19:30","end_time":"20:30","types":["12x12","D","O","X"],"state":"IN","postal_code":"47001","city":"Aurora","address":"304 3rd St","latitude":39.0556275,"longitude":-84.9007156,"location":"First United Methodist Church","region":"SE Indiana","url":"https://aacincinnati.org/meetings/no-name/","timezone":"America/New_York"},{"feed":"indyaa.org","slug":"oakley-harlan-greenfield-group","name":"Oakley Harlan Greenfield Group","day":0,"time":"19:30","types":["B","D","O"],"state":"IN","postal_code":"46140","city":"Greenfield","address":"226 Cherry St","latitude":39.7884871,"longitude":-85.7527653,"location":"Greenfield Way Out Club","region":"E-Greenfield","notes":"No Smoking, Wheelchair Accessible","url":"https://indyaa.org/meetings/oakley-harlan-greenfield-group/","timezone":"America/Indiana/Indianapolis"},{"feed":"indyaa.org","slug":"rule-62-group","name":"Rule 62 Group","day":0,"time":"19:30","types":["C","D"],"state":"IN","postal_code":"46226","city":"Indianapolis","address":"5200 Shadeland Ave","latitude":39.8479526,"longitude":-86.0473248,"location":"Lawrence United Methodist Church","region":"INDPLS-East","notes":"No Smoking, Wheelchair Accessible","url":"https://indyaa.org/meetings/rule-62-group/","timezone":"America/Indiana/Indianapolis"},{"feed":"area22indiana.org","slug":"sunday-night-big-book-group","name":"Sunday Night Big Book Group","day":0,"time":"19:30","end_time":"20:30","types":["B","O"],"state":"IN","postal_code":"46580","city":"Warsaw","address":"179 S Indiana St","latitude":41.2374285,"longitude":-85.8549413,"location":"First United Methodist Church","region":"warsaw","url":"https://area22indiana.org/meetings/sunday-night-big-book-group/","group":"0631384","timezone":"America/Indiana/Indianapolis"},{"feed":"area22indiana.org","slug":"sunday-night-live-group","name":"Sunday Night Live Group","day":0,"time":"19:30","types":["C","D","X"],"state":"IN","postal_code":"46635","city":"South Bend","address":"17195 Cleveland Rd","latitude":41.7243283,"longitude":-86.2017129,"location":"Christ the King Lutheran Church - South Bend","region":"South Bend","url":"https://area22indiana.org/meetings/sunday-night-live-group/","group":"Sunday Night Live Group - 31","timezone":"America/Indiana/Indianapolis"},{"feed":"area22indiana.org","slug":"westside","name":"Westside Group - Gary","day":0,"time":"19:30","types":["C","TC"],"state":"IN","postal_code":"46408","city":"Gary","address":"5157 Harrison St","latitude":41.525601,"longitude":-87.343515,"location":"Serenity House / Club","region":"Gary","notes":"(1st & 3rd Sundays CLOSED / 2nd & 4th Sundays OPEN)","url":"https://area22indiana.org/meetings/westside/","group":"Westside - 5","timezone":"America/Indiana/Indianapolis"},{"feed":"indyaa.org","slug":"11th-step-prayer-and-meditation","name":"11th Step Prayer and Meditation","day":0,"time":"20:00","end_time":"21:00","types":["D","O"],"state":"IN","postal_code":"46225","city":"Indianapolis","address":"259 E Raymond St","latitude":39.736959,"longitude":-86.1520044,"location":"Southside Fellowship Center","region":"INDPLS-South","notes":"No Smoking, Wheelchair Accessible","url":"https://indyaa.org/meetings/11th-step-prayer-and-meditation/","timezone":"America/Indiana/Indianapolis"},{"feed":"indyaa.org","slug":"boiled-owl-group","name":"Boiled Owl Group","day":0,"time":"20:00","types":["D","O"],"state":"IN","postal_code":"46033","city":"Carmel","address":"4780 E 126th St","latitude":39.9716918,"longitude":-86.0901491,"location":"St. Mark's Methodist Church","region":"N-Carmel","notes":"Enter Door #2; and they are in Room B/C (First room on the left when you enter)","url":"https://indyaa.org/meetings/boiled-owl-group/","timezone":"America/Indiana/Indianapolis"},{"feed":"area23aa.org","slug":"campus-group","name":"Campus Group","day":0,"time":"20:00","end_time":"21:00","types":["C","D"],"state":"IN","postal_code":"47401","city":"Bloomington","address":"1701 E 2nd St","latitude":39.161317,"longitude":-86.5128988,"location":"United Presbyterian Church","region":"South-Central Indiana","notes":"Last Sunday of every month\n\u2713 Open\n\u2713 Speaker Meeting","url":"https://area23aa.org/meetings/campus-group","group":"The Campus Group","timezone":"America/Indiana/Indianapolis"},{"feed":"area22indiana.org","slug":"dam-meeting","name":"Dam Meeting","day":0,"time":"20:00","types":["C","D"],"state":"IN","postal_code":"46356","city":"Lowell","address":"4665 W Main St","latitude":41.3281971,"longitude":-87.4056419,"location":"Lake Dalecarlia","region":"Lowell","url":"https://area22indiana.org/meetings/dam-meeting/","group":"Dam Meeting - 11","timezone":"America/Indiana/Indianapolis"},{"feed":"area22indiana.org","slug":"easy-does-it","name":"Easy Does It","day":0,"time":"20:00","types":["12x12","B","C"],"state":"IN","postal_code":"46324","city":"Hammond","address":"7349 Southeastern Ave","latitude":41.5801653,"longitude":-87.4867426,"location":"Woodmar United Methodist Church","region":"Hammond","url":"https://area22indiana.org/meetings/easy-does-it/","group":"EAsy Does It - 3","timezone":"America/Indiana/Indianapolis"},{"feed":"aacincinnati.org","slug":"hamline-chapel-3","name":"Hamline Chapel","day":0,"time":"20:00","end_time":"21:00","types":["C","D","X"],"state":"IN","postal_code":"47025","city":"Lawrenceburg","address":"102 W High St","latitude":39.0915619,"longitude":-84.8482815,"location":"Hamline Chapel United Methodist Church","region":"SE Indiana","notes":"Open Lead last Wk, Eat & Meet at 7:15PM","url":"https://aacincinnati.org/meetings/hamline-chapel-3/","group":"Hamline Chapel","timezone":"America/New_York"},{"feed":"louisvilleaa.org","slug":"henryville-group","name":"Henryville Group","day":0,"time":"20:00","end_time":"21:00","types":["O","SP"],"state":"IN","postal_code":"47126","city":"Henryville","address":"101 N Ferguson St","latitude":38.5419532,"longitude":-85.7685311,"location":"St. Franics Xavier Catholic Church","region":"Clark County, IN","url":"https://loukyaa.org/meetings/henryville-group/","group":"Henryville Group","timezone":"America/Kentucky/Louisville"},{"feed":"loukyaa.org","slug":"henryville-group","name":"Henryville Group","day":0,"time":"20:00","end_time":"21:00","types":["O","SP"],"state":"IN","postal_code":"47126","city":"Henryville","address":"101 N Ferguson St","latitude":38.5419532,"longitude":-85.7685311,"location":"St. Franics Xavier Catholic Church","region":"Clark County, IN","url":"https://loukyaa.org/meetings/henryville-group/","group":"Henryville Group","timezone":"America/Kentucky/Louisville"},{"feed":"area22indiana.org","slug":"k-i-s-s-group","name":"Keep It Simple","day":0,"time":"20:00","types":["C","D"],"state":"IN","postal_code":"46368","city":"Portage","address":"6040 Lute Rd","latitude":41.5583973,"longitude":-87.1812557,"location":"Portage Recovery Association","region":"Portage","url":"https://area22indiana.org/meetings/k-i-s-s-group/","group":"K.I.S.S. Group - 17","timezone":"America/Indiana/Indianapolis"},{"feed":"area22indiana.org","slug":"merrillville-sunday-nite","name":"Merrillville Sunday Nite","day":0,"time":"20:00","types":["C"],"state":"IN","postal_code":"46307","city":"Crown Point","address":"352 S Main St","latitude":41.4135212,"longitude":-87.3636974,"location":"First United Methodist Church","region":"Merrillville","url":"https://area22indiana.org/meetings/merrillville-sunday-nite/","group":"Merrillville Sunday Nite - 11","timezone":"America/Indiana/Indianapolis"},{"feed":"louisvilleaa.org","slug":"northside-group","name":"Northside Group","day":0,"time":"20:00","types":["O","SP","X"],"state":"IN","postal_code":"47150","city":"New Albany","address":"506 Pearl St","latitude":38.2874547,"longitude":-85.8234052,"location":"Floyd County Token Club","region":"Floyd County IN","url":"https://loukyaa.org/meetings/northside-group/","group":"Northside Group","timezone":"America/Kentucky/Louisville"},