[{"feed":"capecodaa.net","slug":"early-bird","name":"The 6:03 Meeting","day":0,"time":"06:00","end_time":"07:00","types":["DR","D","O","ONL"],"state":"MA","postal_code":"02601","city":"Barnstable","address":"Hyannis","latitude":41.6524911,"longitude":-70.2881124,"location":"Hyannis, Barnstable, MA 02601, USA","region":"Hyannis","notes":"Zoom 359275431\n\nOnline meeting only","conference_url":"https://zoom.us/j/359275431","url":"https://capecodaa.net/meetings/early-bird/","timezone":"America/New_York"},{"feed":"aaboston.org","slug":"first-things-first","name":"First Things First","day":0,"time":"06:00","types":["B","O"],"state":"MA","postal_code":"01730","city":"Bedford","address":"25 Great Rd","latitude":42.4926304,"longitude":-71.2822873,"location":"First Church of Christ","url":"https://aaboston.org/meetings/first-things-first","timezone":"America/New_York"},{"feed":"aaboston.org","slug":"just-for-today-13","name":"Just For Today","day":0,"time":"06:00","types":["C","D","X"],"state":"MA","postal_code":"02476","city":"Arlington","address":"1175 Concord Turnpike","latitude":42.4152585,"longitude":-71.1918497,"location":"St. Camillus Parish","url":"https://aaboston.org/meetings/just-for-today-13","timezone":"America/New_York"},{"feed":"aaboston.org","slug":"just-for-today-virtual","name":"Just For Today Virtual","day":0,"time":"06:00","types":["C","D","LIT","ONL"],"state":"MA","city":"Arlington","latitude":42.4153925,"longitude":-71.1564729,"location":"Online","url":"https://aaboston.org/meetings/just-for-today-virtual","timezone":"America/New_York"},{"feed":"aaboston.org","slug":"no-judgement-5","name":"Rule 62","day":0,"time":"06:00","types":["D","O","SP","ONL"],"state":"MA","city":"Newton","latitude":42.3370413,"longitude":-71.2092214,"location":"Online","url":"https://aaboston.org/meetings/no-judgement-5","timezone":"America/New_York"},{"feed":"capecodaa.net","slug":"first-light","name":"First Light","day":0,"time":"06:30","end_time":"07:30","types":["D","O","X"],"state":"MA","postal_code":"02642","city":"Eastham","address":"220 Samoset Rd","latitude":41.8301385,"longitude":-69.9781805,"location":"Chapel in the Pines","region":"Eastham","url":"https://capecodaa.net/meetings/first-light/","group":"First Light","timezone":"America/New_York"},{"feed":"aaboston.org","slug":"first-light-4","name":"First Light","day":0,"time":"06:30","types":["D","O","X"],"state":"MA","postal_code":"02642","city":"Eastham","address":"220 Samoset Rd","latitude":41.8301473,"longitude":-69.9781637,"location":"Chapel In The Pines","url":"https://aaboston.org/meetings/first-light-4","timezone":"America/New_York"},{"feed":"aaboston.org","slug":"morning-tune-up-6","name":"Morning Tune Up","day":0,"time":"06:30","types":["C","M","ST","X","XB"],"state":"MA","postal_code":"02019","city":"Bellingham","address":"176 Mechanic St","latitude":42.0828145,"longitude":-71.4582983,"location":"How It Works Club","url":"https://aaboston.org/meetings/morning-tune-up-6","timezone":"America/New_York"},{"feed":"rhodeisland-aa.org","slug":"morning-tune-up-men","name":"Morning Tune -Up (Men)","day":0,"time":"06:30","end_time":"07:30","types":["C","D","EN","M","X","XB"],"state":"MA","postal_code":"02019","city":"Bellingham","address":"176 Mechanic St","latitude":42.0828145,"longitude":-71.4582983,"location":"How It Works Clubhouse","region":"Bellingham, MA","url":"https://rhodeisland-aa.org/archives/meetings/morning-tune-up-men/","timezone":"America/New_York"},{"feed":"capecodaa.net","slug":"rising-tide-7","name":"Rising Tide","day":0,"time":"06:30","end_time":"07:30","types":["ABSI","DR","D"],"state":"MA","city":"Eastham","latitude":41.8299634,"longitude":-69.9740361,"region":"Eastham","url":"https://capecodaa.net/meetings/rising-tide-7/","timezone":"America/New_York"},{"feed":"aaboston.org","slug":"west-roxbury-sunday","name":"Sunrise Serenity (Hybrid)","day":0,"time":"06:30","types":["12x12","O","ONL"],"state":"MA","postal_code":"02132","city":"West Roxbury","address":"77 Stratford St","latitude":42.2830525,"longitude":-71.1502996,"location":"Stratford Street United Church","url":"https://aaboston.org/meetings/west-roxbury-sunday","timezone":"America/New_York"},{"feed":"aaboston.org","slug":"early-risers-7","name":"Early Risers","day":0,"time":"06:45","types":["D","O","X","XB"],"state":"MA","postal_code":"01752","city":"Marlborough","address":"33 Main St","latitude":42.3481654,"longitude":-71.544431,"location":"Addictions Referral Center","url":"https://aaboston.org/meetings/early-risers-7","timezone":"America/New_York"},{"feed":"aaboston.org","slug":"jump-start-2","name":"Jump Start","day":0,"time":"06:45","types":["D","O","ONL"],"state":"MA","city":"Newton","latitude":42.3370413,"longitude":-71.2092214,"location":"Online","url":"https://aaboston.org/meetings/jump-start-2","timezone":"America/New_York"},{"feed":"aaboston.org","slug":"open-discussion","name":"Early Bird","day":0,"time":"06:45","types":["D","O","X","ONL"],"state":"MA","postal_code":"02568","city":"Vineyard Haven","address":"66 William St","latitude":41.4545059,"longitude":-70.6045537,"location":"Baptist Parish House","url":"https://aaboston.org/meetings/open-discussion","timezone":"America/New_York"},{"feed":"aaboston.org","slug":"7-oclock-high","name":"7 O&#039;Clock High","day":0,"time":"07:00","types":["D","O","X","XB"],"state":"MA","postal_code":"02664","city":"South Yarmouth","address":"347 Whites Path","latitude":41.690874,"longitude":-70.187138,"location":"Holway Garage","url":"https://aaboston.org/meetings/7-oclock-high","timezone":"America/New_York"},{"feed":"capecodaa.net","slug":"7-oclock-high-7","name":"7 O'Clock High","day":0,"time":"07:00","end_time":"08:00","types":["ABSI","DR","D"],"state":"MA","postal_code":"02664","city":"South Yarmouth","address":"347 Whites Path","latitude":41.690874,"longitude":-70.187138,"location":"Holway's Garage","region":"Yarmouth","notes":"Meeting is in mechanics garage","url":"https://capecodaa.net/meetings/7-oclock-high-7/","timezone":"America/New_York"},{"feed":"capecodaa.net","slug":"7-up-group","name":"7-Up Group","day":0,"time":"07:00","end_time":"08:00","types":["D","O","X"],"state":"MA","postal_code":"02631","city":"Brewster","address":"250 Underpass Rd","latitude":41.7582826,"longitude":-70.0665727,"location":"Pause A While","region":"Brewster","url":"https://capecodaa.net/meetings/7-up-group/","timezone":"America/New_York"},{"feed":"capecodaa.net","slug":"attitude-adjustment","name":"Attitude Adjustment","day":0,"time":"07:00","end_time":"08:00","types":["11","12x12","D","O","SP","ONL"],"state":"MA","postal_code":"02657","city":"Provincetown","address":"Historic District, 10 Shank Painter Rd","latitude":42.0482583,"longitude":-70.1923955,"location":"Methodist church","region":"Provincetown","notes":"Zoom ID 86861962889\nPasscode 581116","conference_url":"https://us06.web.zoom.us/j/86861962889","url":"https://capecodaa.net/meetings/attitude-adjustment/","group":"Provincetown Meetings","timezone":"America/New_York"},{"feed":"capecodaa.net","slug":"bass-river-morning-group","name":"Bass River Morning Group","day":0,"time":"07:00","end_time":"08:00","types":["C","D"],"state":"MA","postal_code":"02670","city":"West Dennis","address":"288 Main St","latitude":41.6647071,"longitude":-70.1705627,"location":"West Dennis Community Church","region":"Dennis","url":"https://capecodaa.net/meetings/bass-river-morning-group/","group":"Bass River Morning Group","timezone":"America/New_York"},{"feed":"aaboston.org","slug":"cape-ann-early-bird","name":"Cape Ann Early Bird","day":0,"time":"07:00","types":["DR","D","O"],"state":"MA","postal_code":"01930","city":"Gloucester","address":"38 Gloucester Ave","latitude":42.6217715,"longitude":-70.6740798,"location":"Baptist Church","url":"https://aaboston.org/meetings/cape-ann-early-bird","timezone":"America/New_York"},{"feed":"aaboston.org","slug":"cape-ann-early-bird-morning-online","name":"Cape Ann Early Bird Morning Online","day":0,"time":"07:00","types":["DR","D","O","SP","ONL"],"state":"MA","city":"Gloucester","location":"Online","url":"https://aaboston.org/meetings/cape-ann-early-bird-morning-online","timezone":"America/New_York"},{"feed":"aaboston.org","slug":"daily-choice","name":"Daily Choice","day":0,"time":"07:00","types":["D","O","X","XB"],"state":"MA","postal_code":"01605","city":"Worcester","address":"228 Lincoln St","latitude":42.2831618,"longitude":-71.7924088,"location":"Our Lady of Providence","url":"https://aaboston.org/meetings/daily-choice","timezone":"America/New_York"},{"feed":"aaboston.org","slug":"daybreaker-3","name":"Daybreaker","day":0,"time":"07:00","types":["B","O","X","XB"],"state":"MA","postal_code":"01507","city":"Charlton","address":"74 Stafford St","latitude":42.150988,"longitude":-71.9793299,"location":"Charlton City United Methodist Church","url":"https://aaboston.org/meetings/daybreaker-3","timezone":"America/New_York"},{"feed":"aaboston.org","slug":"drop-in-center-online","name":"Drop In Center (Online)","day":0,"time":"07:00","types":["D","O","ONL"],"state":"MA","city":"Nantucket","latitude":41.28394,"longitude":-70.0999891,"location":"Online","url":"https://aaboston.org/meetings/drop-in-center-online","timezone":"America/New_York"},{"feed":"aaboston.org","slug":"drop-in-center-sundays-at-700-am","name":"7-Up","day":0,"time":"07:00","types":["D","O","X"],"state":"MA","postal_code":"02631","city":"Brewster","address":"250 Underpass Rd","latitude":41.758275,"longitude":-70.0667183,"location":"Pause A While","url":"https://aaboston.org/meetings/drop-in-center-sundays-at-700-am","timezone":"America/New_York"},{"feed":"aaboston.org","slug":"early-bird-dawn-patrol-7","name":"Early Bird Dawn Patrol","day":0,"time":"07:00","types":["D","O","SP"],"state":"MA","postal_code":"02351","city":"Abington","address":"10 Bedford St","latitude":42.1041818,"longitude":-70.9492449,"location":"United Church","url":"https://aaboston.org/meetings/early-bird-dawn-patrol-7","timezone":"America/New_York"},{"feed":"aaboston.org","slug":"early-bird-gratitude-4","name":"Early Bird Gratitude","day":0,"time":"07:00","types":["D","O"],"state":"MA","postal_code":"02364","city":"Kingston","address":"8 Hilltop Ave","latitude":41.9877562,"longitude":-70.7189801,"location":"VCF Church","url":"https://aaboston.org/meetings/early-bird-gratitude-4","timezone":"America/New_York"},{"feed":"aaboston.org","slug":"early-risers-10","name":"Early Risers","day":0,"time":"07:00","types":["D","GR","O","X","XB"],"state":"MA","postal_code":"01570","city":"Webster","address":"5 N Main St","latitude":42.0548754,"longitude":-71.879005,"location":"Church of Reconciliation","url":"https://aaboston.org/meetings/early-risers-10","timezone":"America/New_York"},{"feed":"aaboston.org","slug":"eternal-vigilance","name":"Eternal Vigilance","day":0,"time":"07:00","types":["D","O","X","XB"],"state":"MA","postal_code":"01545","city":"Shrewsbury","address":"19 Church Rd","latitude":42.2980394,"longitude":-71.7140664,"location":"First Congregational Church","url":"https://aaboston.org/meetings/eternal-vigilance","timezone":"America/New_York"},{"feed":"aaboston.org","slug":"first-light-8","name":"First Light","day":0,"time":"07:00","types":["D","O"],"state":"MA","postal_code":"02667","city":"Wellfleet","address":"246 Main Street, basement, 246 Main St","latitude":41.9388538,"longitude":-70.0298114,"location":"Wellfleet United Methodist Church","url":"https://aaboston.org/meetings/first-light-8","timezone":"America/New_York"},{"feed":"aaboston.org","slug":"jump-start-sunday","name":"Jump Start","day":0,"time":"07:00","types":["C","D"],"state":"MA","postal_code":"01945","city":"Marblehead","address":"8 Anderson St","latitude":42.5013838,"longitude":-70.8582382,"location":"8 Anderson St.","url":"https://aaboston.org/meetings/jump-start-sunday","timezone":"America/New_York"},{"feed":"aaboston.org","slug":"just-for-today-10","name":"Just for Today","day":0,"time":"07:00","types":["C","D","X"],"state":"MA","postal_code":"02476","city":"Arlington","address":"1175 Concord Turnpike","latitude":42.4152585,"longitude":-71.1918497,"location":"St. Camillus Parish","url":"https://aaboston.org/meetings/just-for-today-10","timezone":"America/New_York"},{"feed":"aaboston.org","slug":"just-for-today-4","name":"Just For Today","day":0,"time":"07:00","types":["D","O"],"state":"MA","postal_code":"02379","city":"West Bridgewater","address":"320 W Center St","latitude":42.0161968,"longitude":-71.0259582,"location":"24 South Clubhouse","url":"https://aaboston.org/meetings/just-for-today-4","timezone":"America/New_York"},{"feed":"aaboston.org","slug":"just-for-today-online-6","name":"Just For Today Online","day":0,"time":"07:00","types":["D","O","ONL"],"state":"MA","city":"West Bridgewater","latitude":42.0189894,"longitude":-71.0078215,"location":"Online","url":"https://aaboston.org/meetings/just-for-today-online-6","timezone":"America/New_York"},{"feed":"aaboston.org","slug":"just-for-today-virtual-2","name":"Just For Today Virtual","day":0,"time":"07:00","types":["C","D","LIT","ONL"],"state":"MA","city":"Arlington","latitude":42.4153925,"longitude":-71.1564729,"location":"Online","url":"https://aaboston.org/meetings/just-for-today-virtual-2","timezone":"America/New_York"},{"feed":"aaboston.org","slug":"morning-glories-6","name":"Morning Glories","day":0,"time":"07:00","types":["C","D","W","ONL"],"state":"MA","city":"Cambridge","latitude":42.3666036,"longitude":-71.1056916,"location":"Online","url":"https://aaboston.org/meetings/morning-glories-6","timezone":"America/New_York"},{"feed":"aaboston.org","slug":"on-awakening-4","name":"On Awakening","day":0,"time":"07:00","types":["11","D","O","SP","ONL"],"state":"MA","city":"Quincy","latitude":42.2513961,"longitude":-71.0023737,"location":"Online","url":"https://aaboston.org/meetings/on-awakening-4","timezone":"America/New_York"},{"feed":"aaboston.org","slug":"reflections-17","name":"Reflections","day":0,"time":"07:00","types":["D","O","ONL","TC"],"state":"MA","postal_code":"02466","city":"Newton","address":"64 Hancock St","latitude":42.3438407,"longitude":-71.2493251,"location":"United Church Auburndale","url":"https://aaboston.org/meetings/reflections-17","timezone":"America/New_York"},{"feed":"aaboston.org","slug":"reflections-6","name":"Reflections (Hybrid)","day":0,"time":"07:00","types":["D","O","X","XB","ONL"],"state":"MA","postal_code":"01702","city":"Framingham","address":"7 Bishop St","latitude":42.2790578,"longitude":-71.4087037,"location":"SMOC Building","url":"https://aaboston.org/meetings/reflections-6","timezone":"America/New_York"},{"feed":"aaboston.org","slug":"sunny-side-up-6","name":"Sunny-side Up","day":0,"time":"07:00","types":["D","O"],"state":"MA","postal_code":"02062","city":"Norwood","address":"100 Winter St","latitude":42.1910636,"longitude":-71.2061174,"location":"First Congregational Church","url":"https://aaboston.org/meetings/sunny-side-up-6","timezone":"America/New_York"},{"feed":"aaboston.org","slug":"wake-up-2","name":"Wake Up","day":0,"time":"07:00","types":["D","O","X","XB"],"state":"MA","postal_code":"01952","city":"Salisbury","address":"58 Main St","latitude":42.8705261,"longitude":-70.8821822,"location":"The Catch All","url":"https://aaboston.org/meetings/wake-up-2","timezone":"America/New_York"},{"feed":"capecodaa.net","slug":"wellfleet-1st-light-2","name":"Wellfleet First Light","day":0,"time":"07:00","end_time":"08:00","types":["D","O"],"state":"MA","postal_code":"02667","city":"Wellfleet","address":"246 Main Street, basement, 246 Main St","latitude":41.9388538,"longitude":-70.0298114,"location":"United Methodist Church","region":"Wellfleet","notes":"Please bring your own coffee. Entry is on the side of the building along the parking lot, red door.","url":"https://capecodaa.net/meetings/wellfleet-1st-light-2/","group":"Wellfleet First Light","timezone":"America/New_York"},{"feed":"aaboston.org","slug":"grateful-living","name":"Grateful Living","day":0,"time":"07:15","types":["D","O","X","XB"],"state":"MA","postal_code":"02631","city":"Brewster","address":"701 Airline Rd","latitude":41.7258827,"longitude":-70.1395036,"location":"Northside United Methodist Church","url":"https://aaboston.org/meetings/grateful-living","timezone":"America/New_York"},{"feed":"capecodaa.net","slug":"grateful-living-group","name":"Grateful Living Group","day":0,"time":"07:15","end_time":"08:15","types":["D","O","ONL"],"state":"MA","postal_code":"02631","city":"Brewster","address":"701 Airline Rd","latitude":41.7258549,"longitude":-70.1394872,"location":"Northside United Methodist Church.","region":"Brewster","notes":"PARK IN REAR, USE REAR ENTRANCE Formerly the \"Burger King\" meeting.\n\nZoom Password is 8626627573","conference_url":"https://zoom.us/j/8945481680","url":"https://capecodaa.net/meetings/grateful-living-group/","timezone":"America/New_York"},{"feed":"capecodaa.net","slug":"harwich-chatham-morning-sobriety","name":"Harwich/Chatham Sunshine Group","day":0,"time":"07:15","end_time":"08:15","types":["D"],"state":"MA","postal_code":"02645","city":"Harwich","address":"1421 Orleans-Harwich Rd","latitude":41.7067797,"longitude":-70.0224944,"location":"400 East Plaza Suite 101","region":"Harwich","url":"https://capecodaa.net/meetings/harwich-chatham-morning-sobriety/","group":"Harwich/Chatham Morning Sobriety","timezone":"America/New_York"},{"feed":"aaboston.org","slug":"harwich-chatham-morning-sobriety","name":"Harwich/Chatham Sunshine Group","day":0,"time":"07:15","types":["D","O"],"state":"MA","postal_code":"02645","city":"Harwich","address":"1421 Orleans-Chatham Rd","latitude":41.7123078,"longitude":-69.9941502,"location":"Harwich East Plaza","url":"https://aaboston.org/meetings/harwich-chatham-morning-sobriety","timezone":"America/New_York"},{"feed":"aaboston.org","slug":"each-day-a-new-beginning","name":"Each Day a New Beginning","day":0,"time":"07:30","types":["D","O","X"],"state":"MA","postal_code":"02540","city":"Falmouth","address":"270 Gifford St","latitude":41.5595976,"longitude":-70.6114087,"location":"John Wesley Methodist Church","url":"https://aaboston.org/meetings/each-day-a-new-beginning","timezone":"America/New_York"},{"feed":"capecodaa.net","slug":"each-day-a-new-beginning-7","name":"Each Day a New Beginning","day":0,"time":"07:30","end_time":"08:30","types":["D","O"],"state":"MA","postal_code":"02540","city":"Falmouth","address":"270 Gifford St","latitude":41.5595976,"longitude":-70.6114087,"location":"John Wesley Methodist Church","region":"Falmouth","url":"https://capecodaa.net/meetings/each-day-a-new-beginning-7/","group":"Each Day a New Beginning","timezone":"America/New_York"},{"feed":"capecodaa.net","slug":"each-day-a-new-beginning-virtual","name":"Each Day A New Beginning (Virtual)","day":0,"time":"07:30","end_time":"08:30","types":["D","TC","ONL"],"state":"MA","postal_code":"02649","city":"Mashpee","address":"745 Falmouth Rd","latitude":41.6080298,"longitude":-70.4929556,"location":"745 Falmouth Rd, Mashpee, MA 02649, USA","region":"Mashpee","notes":"Online meeting only\nZoom 93329657728\nEmail ednbzoom@gmail.com for passcode","conference_url":"https://zoom.us/j/93329657728","url":"https://capecodaa.net/meetings/each-day-a-new-beginning-virtual/","timezone":"America/New_York"},{"feed":"aaboston.org","slug":"early-morning","name":"Early Morning","day":0,"time":"07:30","types":["O","SP","X","XB"],"state":"MA","postal_code":"02148","city":"Malden","address":"787 Salem St","latitude":42.4336596,"longitude":-71.0429414,"location":"Club 24","url":"https://aaboston.org/meetings/early-morning","timezone":"America/New_York"},{"feed":"aaboston.org","slug":"sahara-sunrise-7","name":"Sahara Sunrise Online","day":0,"time":"07:30","types":["C","D","SP","ONL"],"state":"MA","city":"Boston","latitude":42.3555076,"longitude":-71.0565364,"location":"Online","url":"https://aaboston.org/meetings/sahara-sunrise-7","timezone":"America/New_York"},{"feed":"aaboston.org","slug":"zoom-early-bird-gratitude-2","name":"Early Bird Zoom Daily","day":0,"time":"07:30","types":["D","O","ONL"],"state":"MA","city":"Kingston","latitude":41.9924498,"longitude":-70.7264791,"location":"Online","url":"https://aaboston.org/meetings/zoom-early-bird-gratitude-2","timezone":"America/New_York"},{"feed":"rhodeisland-aa.org","slug":"am-recovery","name":"AM Recovery","day":0,"time":"07:45","end_time":"08:45","types":["D","EN","O","X","XB"],"state":"MA","postal_code":"02746","city":"New Bedford","address":"360 Coggeshall St","latitude":41.6555839,"longitude":-70.928391,"location":"PAACA Services","region":"New Bedford, MA","url":"https://rhodeisland-aa.org/archives/meetings/am-recovery/","timezone":"America/New_York"},{"feed":"aaboston.org","slug":"am-recovery-7","name":"AM Recovery","day":0,"time":"07:45","types":["D","O"],"state":"MA","postal_code":"02746","city":"New Bedford","address":"360 Coggeshall St","latitude":41.6556246,"longitude":-70.9284116,"location":"PAACA Services","url":"https://aaboston.org/meetings/am-recovery-7","timezone":"America/New_York"},{"feed":"rhodeisland-aa.org","slug":"am-eye-openers","name":"AM Eye Openers","day":0,"time":"08:00","end_time":"09:00","types":["DR","EN","O","ONL"],"state":"MA","city":"Fall River","latitude":41.7014912,"longitude":-71.1550451,"location":"Massachusetts","region":"Fall River, MA","notes":"Zoom ID:531 675 268 Password: bcc7833","conference_url":"https://us04web.zoom.us/j/531675268","url":"https://rhodeisland-aa.org/archives/meetings/am-eye-openers/","timezone":"America/New_York"},{"feed":"aaboston.org","slug":"back-bay-steps-7","name":"Boston Morning A.A.","day":0,"time":"08:00","types":["DR","O","ONL"],"state":"MA","city":"Boston","latitude":42.3555076,"longitude":-71.0565364,"location":"Online","url":"https://aaboston.org/meetings/back-bay-steps-7","timezone":"America/New_York"},{"feed":"aaboston.org","slug":"drop-in-center-4","name":"Drop In Center","day":0,"time":"08:00","types":["D","O","X"],"state":"MA","postal_code":"02554","city":"Nantucket","address":"16 Vesper Ln L5","latitude":41.2731704,"longitude":-70.1024856,"location":"Drop In Center","url":"https://aaboston.org/meetings/drop-in-center-4","timezone":"America/New_York"},{"feed":"aaboston.org","slug":"early-bird-7","name":"Early Bird","day":0,"time":"08:00","types":["C","D","SP","X"],"state":"MA","postal_code":"01915","city":"Beverly","address":"9 Hale St","latitude":42.5484699,"longitude":-70.8776072,"location":"White Whale","url":"https://aaboston.org/meetings/early-bird-7","timezone":"America/New_York"},{"feed":"aaboston.org","slug":"fort-clifton-beginners","name":"Fort Clifton","day":0,"time":"08:00","types":["C","D","ONL"],"state":"MA","city":"Marblehead","latitude":42.4999582,"longitude":-70.8578024,"location":"Online","url":"https://aaboston.org/meetings/fort-clifton-beginners","timezone":"America/New_York"},{"feed":"aaboston.org","slug":"jaywalkers","name":"Eye Opener Virtual","day":0,"time":"08:00","types":["D","O","ONL"],"state":"MA","postal_code":"01923","city":"Danvers","latitude":42.5750009,"longitude":-70.932122,"location":"Online","url":"https://aaboston.org/meetings/jaywalkers","timezone":"America/New_York"},{"feed":"aaboston.org","slug":"morning","name":"Sunday Morning","day":0,"time":"08:00","types":["D","O","SP","X"],"state":"MA","postal_code":"02081","city":"Walpole","address":"30 Stone St.","latitude":42.1453365,"longitude":-71.2513659,"location":"Blackburn Hall","url":"https://aaboston.org/meetings/morning","timezone":"America/New_York"},{"feed":"aaboston.org","slug":"new-dawn-2","name":"New Dawn","day":0,"time":"08:00","types":["D","O","SP","X"],"state":"MA","postal_code":"02370","city":"Rockland","address":"22 Church St","latitude":42.1304507,"longitude":-70.9147811,"location":"VFW","url":"https://aaboston.org/meetings/new-dawn-2","timezone":"America/New_York"},{"feed":"aaboston.org","slug":"sunday-beginners","name":"Sunday Beginners","day":0,"time":"08:00","types":["D","BE","O","X","XB"],"state":"MA","postal_code":"01742","city":"Concord","address":"133 Old Rd to 9 Acre Corner","latitude":42.451819,"longitude":-71.375,"location":"Emerson Hospital","url":"https://aaboston.org/meetings/sunday-beginners","timezone":"America/New_York"},{"feed":"aaboston.org","slug":"sunday-morning-beginners","name":"Sunday Morning-Beginners","day":0,"time":"08:00","types":["D","BE","O","X","XB"],"state":"MA","postal_code":"02072","city":"Stoughton","address":"790 Washington St","latitude":42.1246959,"longitude":-71.1010773,"location":"Universalist Church","url":"https://aaboston.org/meetings/sunday-morning-beginners","timezone":"America/New_York"},{"feed":"aaboston.org","slug":"sunrise-sunset-7","name":"Sunrise Sunset","day":0,"time":"08:00","types":["D","O","ONL"],"state":"MA","city":"Norwood","latitude":42.1943909,"longitude":-71.1989695,"location":"Online","url":"https://aaboston.org/meetings/sunrise-sunset-7","timezone":"America/New_York"},{"feed":"aaboston.org","slug":"the-beginners-meeting","name":"The Beginners Meeting","day":0,"time":"08:00","types":["D","BE","O","SP","X","XB"],"state":"MA","postal_code":"02360","city":"Plymouth","address":"5 Main St Ext","latitude":41.9556413,"longitude":-70.6641136,"location":"Plymouth Recovery Center","url":"https://aaboston.org/meetings/the-beginners-meeting","timezone":"America/New_York"},{"feed":"capecodaa.net","slug":"the-lighthouse","name":"The Lighthouse","day":0,"time":"08:00","end_time":"09:00","types":["B","O","ONL"],"state":"MA","city":"Provincetown","latitude":42.0547136,"longitude":-70.1846012,"location":"Provincetown, MA 02657, USA","region":"Provincetown","notes":"Zoom ID 2750858390\nPasscode 059996","conference_url":"https://us02web.zoom.us/j/2750858390?pwd=SEs3QmtXdzBRbXAvMGhjNUorNCtHdz09","url":"https://capecodaa.net/meetings/the-lighthouse/","group":"The Lighthouse","timezone":"America/New_York"},{"feed":"capecodaa.net","slug":"virtual-reflections","name":"Daily Reflections","day":0,"time":"08:00","end_time":"09:00","types":["DR","D","O","ONL"],"state":"MA","postal_code":"02601","city":"Barnstable","address":"Hyannis","latitude":41.6524911,"longitude":-70.2881124,"location":"Hyannis, Barnstable, MA 02601, USA","region":"Hyannis","notes":"Email dailyreflections@yahoo.com for password\nOnline meeting only.\nZoom 8111983891","conference_url":"https://zoom.us/j/8111983891","url":"https://capecodaa.net/meetings/virtual-reflections/","timezone":"America/New_York"},{"feed":"rhodeisland-aa.org","slug":"weekend-discussion-2","name":"Weekend Discussion","day":0,"time":"08:00","end_time":"09:00","types":["D","O","X","XB","EN"],"state":"MA","postal_code":"02019","city":"Bellingham","address":"176 Mechanic St","latitude":42.0828145,"longitude":-71.4582983,"location":"How It Works Clubhouse","region":"Bellingham, MA","url":"https://rhodeisland-aa.org/archives/meetings/weekend-discussion-2/","timezone":"America/New_York"},{"feed":"aaboston.org","slug":"weekend-discussions-2","name":"Weekend Discussions","day":0,"time":"08:00","types":["D","O","X","XB"],"state":"MA","postal_code":"02019","city":"Bellingham","address":"176 Mechanic St","latitude":42.0828145,"longitude":-71.4582983,"location":"How It Works Club","url":"https://aaboston.org/meetings/weekend-discussions-2","timezone":"America/New_York"},{"feed":"aaboston.org","slug":"peace-of-mind-beginners","name":"Peace of Mind Beginners","day":0,"time":"08:15","types":["D","BE","O","X","XB"],"state":"MA","postal_code":"01880","city":"Wakefield","address":"370 Salem St","latitude":42.5138488,"longitude":-71.0483547,"location":"Masonic Temple","url":"https://aaboston.org/meetings/peace-of-mind-beginners","timezone":"America/New_York"},{"feed":"capecodaa.net","slug":"serenity-now","name":"Serenity Now","day":0,"time":"08:15","end_time":"09:15","types":["C","ONL"],"state":"MA","postal_code":"02601","city":"Barnstable","address":"Hyannis","latitude":41.6524911,"longitude":-70.2881124,"location":"Hyannis, Barnstable, MA 02601, USA","region":"Hyannis","notes":"Zoom ID 6444615638\nPassword 111856","conference_url":"https://zoom.us/j/6444615638","url":"https://capecodaa.net/meetings/serenity-now/","group":"Serenity Now","timezone":"America/New_York"},{"feed":"aaboston.org","slug":"serenity-now-2","name":"Serenity Now","day":0,"time":"08:15","types":["C","D","ONL"],"state":"MA","city":"Orleans","latitude":41.7898354,"longitude":-69.9897323,"location":"Online","url":"https://aaboston.org/meetings/serenity-now-2","timezone":"America/New_York"},{"feed":"aaboston.org","slug":"the-way","name":"The Way","day":0,"time":"08:15","types":["D","BE","O"],"state":"MA","postal_code":"02379","city":"West Bridgewater","address":"320 W Center St","latitude":42.0161968,"longitude":-71.0259582,"location":"24 South Clubhouse","url":"https://aaboston.org/meetings/the-way","timezone":"America/New_York"},{"feed":"aaboston.org","slug":"hit-the-deck-2","name":"Hit The Deck Running (Hybrid)","day":0,"time":"08:30","types":["D","O","ONL"],"state":"MA","postal_code":"02559","city":"Pocasset","address":"314 Barlows Landing Rd","latitude":41.6939723,"longitude":-70.6148478,"location":"Community Building","url":"https://aaboston.org/meetings/hit-the-deck-2","timezone":"America/New_York"},{"feed":"capecodaa.net","slug":"hit-the-deck-running","name":"Hit the Deck Running","day":0,"time":"08:30","end_time":"09:30","types":["D","O","ONL"],"state":"MA","postal_code":"02559","city":"Pocasset","address":"314 Barlows Landing Rd","latitude":41.6939723,"longitude":-70.6148478,"location":"Community Center","region":"Bourne","notes":"Zoom 87615878155\nPassword 2023","conference_url":"https://zoom.us/j/87615878155","url":"https://capecodaa.net/meetings/hit-the-deck-running/","group":"Hit the Deck Running","timezone":"America/New_York"},{"feed":"aaboston.org","slug":"never-alone-6","name":"Never Alone Again","day":0,"time":"08:30","types":["D","O","ONL"],"state":"MA","city":"Boston","latitude":42.3555076,"longitude":-71.0565364,"location":"Online","url":"https://aaboston.org/meetings/never-alone-6","timezone":"America/New_York"},{"feed":"aaboston.org","slug":"seaside-5","name":"Seaside","day":0,"time":"08:30","types":["D","LIT","O","ONL","TC"],"state":"MA","postal_code":"02066","city":"Scituate","address":"51 Cole Pkwy","latitude":42.1943081,"longitude":-70.7247655,"location":"South Shore Peer Recovery Center","url":"https://aaboston.org/meetings/seaside-5","timezone":"America/New_York"},{"feed":"capecodaa.net","slug":"sob1st-ala-zoom","name":"Sob1st ala Zoom","day":0,"time":"08:30","end_time":"09:30","types":["D","ONL"],"state":"MA","postal_code":"02601","city":"Barnstable","address":"Hyannis","latitude":41.6524911,"longitude":-70.2881124,"location":"Hyannis, Barnstable, MA 02601, USA","region":"Hyannis","notes":"Zoom ID: 649304568","conference_url":"https://zoom.us/j/649304568","url":"https://capecodaa.net/meetings/sob1st-ala-zoom/","timezone":"America/New_York"},{"feed":"aaboston.org","slug":"sobriety-first-7","name":"Sobriety First ala Zoom","day":0,"time":"08:30","types":["D","O","ONL"],"state":"MA","postal_code":"02655","city":"Osterville","latitude":41.6293481,"longitude":-70.3896327,"location":"Online","url":"https://aaboston.org/meetings/sobriety-first-7","timezone":"America/New_York"},{"feed":"capecodaa.net","slug":"sobriety-first-zoom","name":"Sobriety First - Zoom","day":0,"time":"08:30","end_time":"09:30","types":["D","O","ONL"],"state":"MA","postal_code":"02655","city":"Osterville","latitude":41.6293481,"longitude":-70.3896327,"location":"Osterville, Barnstable, MA 02655, USA","region":"Osterville","notes":"Zoom ID: 649304568","conference_url":"https://zoom.us/j/649304568","url":"https://capecodaa.net/meetings/sobriety-first-zoom/","group":"Sobriety First - Zoom","timezone":"America/New_York"},{"feed":"capecodaa.net","slug":"morning-group","name":"Morning Group","day":0,"time":"08:45","end_time":"09:45","types":["D","SP"],"state":"MA","postal_code":"02657","city":"Provincetown","address":"236 Commercial St","latitude":42.0505857,"longitude":-70.1884178,"location":"Unitarian Universalist Meeting House","region":"Provincetown","url":"https://capecodaa.net/meetings/morning-group/","group":"Provincetown Meetings","timezone":"America/New_York"},{"feed":"aaboston.org","slug":"substance","name":"Substance Beginners","day":0,"time":"08:45","types":["D","BE","O","X","XB"],"state":"MA","postal_code":"02445","city":"Brookline","address":"Brookline Public Safety Building, 350 Washington St","latitude":42.3337251,"longitude":-71.1214099,"location":"Police Station","url":"https://aaboston.org/meetings/substance","timezone":"America/New_York"},{"feed":"aaboston.org","slug":"sun-morn","name":"Sunday Morning","day":0,"time":"08:45","types":["O"],"state":"MA","postal_code":"02152","city":"Winthrop","address":"217 Lincoln St","latitude":42.3795404,"longitude":-70.9839611,"location":"St. Michael&#039;s of the Arc Angel","url":"https://aaboston.org/meetings/sun-morn","timezone":"America/New_York"},{"feed":"aaboston.org","slug":"a-league-of-their-own","name":"A League of Their Own","day":0,"time":"09:00","types":["D","O","SP","W"],"state":"MA","postal_code":"01952","city":"Salisbury","address":"58 Main St","latitude":42.8705261,"longitude":-70.8821822,"location":"The Catch All","url":"https://aaboston.org/meetings/a-league-of-their-own","timezone":"America/New_York"},{"feed":"aaboston.org","slug":"allston-mens","name":"Allston Men&#039;s","day":0,"time":"09:00","types":["C","M"],"state":"MA","postal_code":"02134","city":"Allston","address":"123 Antwerp St","latitude":42.3625034,"longitude":-71.138343,"location":"Charlesview Apts. CTR","url":"https://aaboston.org/meetings/allston-mens","timezone":"America/New_York"},{"feed":"aaboston.org","slug":"butteworth","name":"Butterworth Park","day":0,"time":"09:00","types":["D","O","X","XB"],"state":"MA","postal_code":"01702","city":"Framingham","address":"19 Concord St","latitude":42.2772643,"longitude":-71.4166307,"location":"Anchored In Recovery","url":"https://aaboston.org/meetings/butteworth","timezone":"America/New_York"},{"feed":"aaboston.org","slug":"conscious-contact-online","name":"Conscious Contact Online","day":0,"time":"09:00","types":["D","MED","BE","O","ONL"],"state":"MA","city":"Concord","latitude":42.4603719,"longitude":-71.3489484,"location":"Online","url":"https://aaboston.org/meetings/conscious-contact-online","timezone":"America/New_York"},{"feed":"aaboston.org","slug":"forge-fellowship","name":"Forge Fellowship","day":0,"time":"09:00","types":["D","O","X","XB"],"state":"MA","postal_code":"01886","city":"Westford","address":"20 Pleasant St","latitude":42.5789052,"longitude":-71.4839681,"location":"Cameron Senior Center","url":"https://aaboston.org/meetings/forge-fellowship","timezone":"America/New_York"},{"feed":"aaboston.org","slug":"kings-grant-a-m","name":"King&#039;s Grant","day":0,"time":"09:00","types":["D","O","SP"],"state":"MA","postal_code":"01960","city":"Peabody","address":"96 Main St","latitude":42.5248189,"longitude":-70.9237351,"location":"Knights of Columbus","url":"https://aaboston.org/meetings/kings-grant-a-m","timezone":"America/New_York"},{"feed":"aaboston.org","slug":"mens-6","name":"Men&#039;s","day":0,"time":"09:00","types":["C","D","M","SP"],"state":"MA","postal_code":"01952","city":"Salisbury","address":"37 Lafayette Rd","latitude":42.845966,"longitude":-70.8629528,"location":"Senior Center","url":"https://aaboston.org/meetings/mens-6","timezone":"America/New_York"},{"feed":"aaboston.org","slug":"prado-sunday","name":"Prado Sunday","day":0,"time":"09:00","types":["O","ST"],"state":"MA","postal_code":"02113","city":"Boston","address":"288 Hanover St","latitude":42.3640078,"longitude":-71.0544614,"location":"Ristorante Saraceno","url":"https://aaboston.org/meetings/prado-sunday","timezone":"America/New_York"},{"feed":"aaboston.org","slug":"reflections-18","name":"Daily Reflections","day":0,"time":"09:00","types":["C","D","LIT"],"state":"MA","postal_code":"01945","city":"Marblehead","address":"8 Anderson St","latitude":42.5013838,"longitude":-70.8582382,"location":"8 Anderson St.","url":"https://aaboston.org/meetings/reflections-18","timezone":"America/New_York"},{"feed":"aaboston.org","slug":"serenity-12","name":"Serenity","day":0,"time":"09:00","types":["O"],"state":"MA","postal_code":"01906","city":"Saugus","address":"190 Main St","latitude":42.4669049,"longitude":-71.0279547,"location":"V.F.W.","url":"https://aaboston.org/meetings/serenity-12","timezone":"America/New_York"},{"feed":"aaboston.org","slug":"sun-a-m-2","name":"Sunday Morning","day":0,"time":"09:00","types":["O","SP","ONL"],"state":"MA","postal_code":"01742","city":"Concord","address":"133 Old Rd to 9 Acre Corner","latitude":42.451819,"longitude":-71.375,"location":"Emerson Hospital","url":"https://aaboston.org/meetings/sun-a-m-2","timezone":"America/New_York"},{"feed":"aaboston.org","slug":"sun-a-m-steps","name":"Sunday Morning Steps","day":0,"time":"09:00","types":["C","D","ST"],"state":"MA","postal_code":"01463","city":"Pepperell","address":"55 Leighton St","latitude":42.6662875,"longitude":-71.563076,"location":"VFW","url":"https://aaboston.org/meetings/sun-a-m-steps","timezone":"America/New_York"},{"feed":"aaboston.org","slug":"sunday-morning-3","name":"Sunday Morning","day":0,"time":"09:00","types":["BE","O","ST"],"state":"MA","postal_code":"01453","city":"Leominster","address":"106 Carter St","latitude":42.5203301,"longitude":-71.7477036,"location":"Montachusett Recovery Center","url":"https://aaboston.org/meetings/sunday-morning-3","timezone":"America/New_York"},{"feed":"rhodeisland-aa.org","slug":"sunday-morning-discussion","name":"Sunday Morning Discussion","day":0,"time":"09:00","end_time":"10:00","types":["D","EN","O","X"],"state":"MA","postal_code":"02721","city":"Fall River","address":"170 William St","latitude":41.6985983,"longitude":-71.1689417,"location":"Frank Oliveria Housing","region":"Fall River, MA","url":"https://rhodeisland-aa.org/archives/meetings/sunday-morning-discussion/","timezone":"America/New_York"},{"feed":"aaboston.org","slug":"the-foundation-group","name":"Foundation Group","day":0,"time":"09:00","types":["D","O","ONL"],"state":"MA","city":"Boston","address":"Jamaica Plain","latitude":42.3132414,"longitude":-71.1141118,"location":"Online","url":"https://aaboston.org/meetings/the-foundation-group","timezone":"America/New_York"},{"feed":"aaboston.org","slug":"the-way-out-2","name":"The Way Out","day":0,"time":"09:00","types":["B","O","ST","X"],"state":"MA","postal_code":"02122","city":"Dorchester","address":"256 Freeport St","latitude":42.3034929,"longitude":-71.0528411,"location":"Electricians Hall","url":"https://aaboston.org/meetings/the-way-out-2","timezone":"America/New_York"},{"feed":"aaboston.org","slug":"valientes-2","name":"Valientes","day":0,"time":"09:00","types":["D","O","SP","S"],"state":"MA","postal_code":"02746","city":"New Bedford","address":"360 Coggeshall St","latitude":41.6556246,"longitude":-70.9284116,"location":"PAACA Services","url":"https://aaboston.org/meetings/valientes-2","timezone":"America/New_York"},{"feed":"aaboston.org","slug":"440","name":"440","day":0,"time":"09:30","types":["O","X"],"state":"MA","postal_code":"02458","city":"Newton","address":"295 California St","latitude":42.3657489,"longitude":-71.1995279,"location":"American Legion","url":"https://aaboston.org/meetings/440","timezone":"America/New_York"},{"feed":"aaboston.org","slug":"a-i-r-sundays-at-930-am","name":"Keep The Faith","day":0,"time":"09:30","types":["D","O"],"state":"MA","postal_code":"01510","city":"Clinton","address":"256 High St","latitude":42.419879,"longitude":-71.6845094,"location":"Clinton Alcoholism Information Center","url":"https://aaboston.org/meetings/a-i-r-sundays-at-930-am","timezone":"America/New_York"},{"feed":"aaboston.org","slug":"drop-in-center-6","name":"Drop In Center","day":0,"time":"09:30","types":["D","O"],"state":"MA","postal_code":"02554","city":"Nantucket","address":"16 Vesper Ln L5","latitude":41.2731704,"longitude":-70.1024856,"location":"Drop In Center","url":"https://aaboston.org/meetings/drop-in-center-6","timezone":"America/New_York"},{"feed":"aaboston.org","slug":"everybodys","name":"Everybody&#039;s","day":0,"time":"09:30","types":["O","SP"],"state":"MA","postal_code":"02171","city":"Quincy","address":"5 Hollis Ave","latitude":42.2754838,"longitude":-71.0269692,"location":"Knights of Columbus","url":"https://aaboston.org/meetings/everybodys","timezone":"America/New_York"},{"feed":"rhodeisland-aa.org","slug":"new-beginnings","name":"New Beginnings","day":0,"time":"09:30","end_time":"10:30","types":["D","EN","O","SP","X","XB"],"state":"MA","postal_code":"02093","city":"Wrentham","address":"400 Taunton St","latitude":42.0523485,"longitude":-71.3269058,"location":"Senior Center","region":"Wrentham,MA","url":"https://rhodeisland-aa.org/archives/meetings/new-beginnings/","timezone":"America/New_York"},{"feed":"aaboston.org","slug":"new-beginnings-12","name":"New Beginnings","day":0,"time":"09:30","types":["D","O","SP","X","XB"],"state":"MA","postal_code":"02093","city":"Wrentham","address":"400 Taunton St","latitude":42.0519381,"longitude":-71.3263339,"location":"Senior Center","url":"https://aaboston.org/meetings/new-beginnings-12","timezone":"America/New_York"},{"feed":"aaboston.org","slug":"ray-of-hope","name":"Ray of Hope","day":0,"time":"09:30","types":["O"],"state":"MA","postal_code":"01747","city":"Hopedale","address":"43 Hope St","latitude":42.1301595,"longitude":-71.5399854,"location":"Community House","url":"https://aaboston.org/meetings/ray-of-hope","timezone":"America/New_York"},{"feed":"capecodaa.net","slug":"sandwich-west-barnstable-sunday","name":"Sandwich West Barnstable Sunday Morning","day":0,"time":"09:30","end_time":"10:30","types":["O","SP","ONL"],"state":"MA","postal_code":"02563","city":"Sandwich","address":"175 Main St","latitude":41.7564776,"longitude":-70.4940788,"location":"DeWitt Clinton Lodge","region":"Barnstable","notes":"Zoom ID: 5239560213\nPasscode 386918","conference_url":"https://zoom.us/j/5239560213","url":"https://capecodaa.net/meetings/sandwich-west-barnstable-sunday/","timezone":"America/New_York"},{"feed":"aaboston.org","slug":"sing-beach-sob","name":"West Beach Big Book","day":0,"time":"09:30","types":["B","O","X","XB"],"state":"MA","postal_code":"01915","city":"Beverly","address":"14 Oak St","latitude":42.5623598,"longitude":-70.811572,"location":"Hastings House","url":"https://aaboston.org/meetings/sing-beach-sob","timezone":"America/New_York"},{"feed":"aaboston.org","slug":"sobriedad-4","name":"Sobriedad","day":0,"time":"09:30","types":["D","O","SP","S"],"state":"MA","postal_code":"02150","city":"Chelsea","address":"388 Broadway #2","latitude":42.3922119,"longitude":-71.0355377,"location":"A.K. Mann Building","url":"https://aaboston.org/meetings/sobriedad-4","timezone":"America/New_York"},{"feed":"aaboston.org","slug":"south-shore-friends-2","name":"South Shore Friends","day":0,"time":"09:30","types":["D","O","SP","X","XB"],"state":"MA","postal_code":"02359","city":"Pembroke","address":"199 Oak St","latitude":42.0976729,"longitude":-70.7644911,"location":"Pembroke Hospital","url":"https://aaboston.org/meetings/south-shore-friends-2","timezone":"America/New_York"},{"feed":"aaboston.org","slug":"sunday-morning","name":"Sunday Morning","day":0,"time":"09:30","types":["D","O","X","XB"],"state":"MA","postal_code":"02115","city":"Boston","address":"921 Boylston St","latitude":42.3483873,"longitude":-71.0845504,"location":"Berklee College of Music","url":"https://aaboston.org/meetings/sunday-morning","timezone":"America/New_York"},{"feed":"aaboston.org","slug":"sunday-morning-2","name":"Sunday Morning (Hybrid)","day":0,"time":"09:30","types":["O","SP","ONL"],"state":"MA","postal_code":"02668","city":"West Barnstable","address":"2377 Meetinghouse Way","latitude":41.7052897,"longitude":-70.3762656,"location":"West Barnstable Community Center","url":"https://aaboston.org/meetings/sunday-morning-2","timezone":"America/New_York"},{"feed":"aaboston.org","slug":"way-of-sobriety","name":"Way of Sobriety","day":0,"time":"09:30","types":["O","SP"],"state":"MA","postal_code":"01607","city":"Worcester","address":"267 Providence St","latitude":42.2373307,"longitude":-71.7915784,"location":"Vernon Hill American Legion Post","url":"https://aaboston.org/meetings/way-of-sobriety","timezone":"America/New_York"},{"feed":"aaboston.org","slug":"wide-awake","name":"Wide Awake","day":0,"time":"09:30","types":["O","SP","X"],"state":"MA","postal_code":"01830","city":"Haverhill","address":"576 Primrose St","latitude":42.7929102,"longitude":-71.0883572,"location":"Amvets Post","url":"https://aaboston.org/meetings/wide-awake","timezone":"America/New_York"},{"feed":"capecodaa.net","slug":"sunday-morning","name":"Sunday Morning","day":0,"time":"09:45","end_time":"11:00","types":["O","SP","ONL"],"state":"MA","postal_code":"02601","city":"Barnstable","address":"Hyannis","latitude":41.6524911,"longitude":-70.2881124,"location":"Hyannis, Barnstable, MA 02601, USA","region":"Hyannis","notes":"Zoom ID 93319642247\nPassword 862402","conference_url":"https://zoom.us/j/93319642247","url":"https://capecodaa.net/meetings/sunday-morning/","timezone":"America/New_York"},{"feed":"capecodaa.net","slug":"400-east-plaza-suite-101-sundays-at-10am","name":"Sunday Beginners","day":0,"time":"10:00","end_time":"11:00","types":["D","O","ONL"],"state":"MA","postal_code":"02645","city":"Harwich","address":"1421 Orleans-Harwich Rd","latitude":41.7067797,"longitude":-70.0224944,"location":"400 East Plaza Suite 101","region":"Harwich","notes":"In person and on zoom.\n\nZoom 539414978\nPassword 077898","conference_url":"https://zoom.us/j/539414978","url":"https://capecodaa.net/meetings/400-east-plaza-suite-101-sundays-at-10am/","timezone":"America/New_York"},{"feed":"aaboston.org","slug":"5-alive-9","name":"5 Alive","day":0,"time":"10:00","types":["D","O"],"state":"MA","postal_code":"02645","city":"Harwich","address":"1421 Orleans-Harwich Rd","latitude":41.7067797,"longitude":-70.0224944,"location":"Club Dry Dock","url":"https://aaboston.org/meetings/5-alive-9","timezone":"America/New_York"},{"feed":"aaboston.org","slug":"attitude-adjustment","name":"Attitude Adjustment","day":0,"time":"10:00","types":["C","D","SP"],"state":"MA","postal_code":"02038","city":"Franklin","address":"1034 Pond St","latitude":42.1255747,"longitude":-71.4312797,"location":"V.F.W.","url":"https://aaboston.org/meetings/attitude-adjustment","timezone":"America/New_York"},{"feed":"aaboston.org","slug":"beach-meeting-2","name":"Beach Meeting","day":0,"time":"10:00","types":["D","O","OUT"],"state":"MA","postal_code":"02568","city":"Oak Bluffs","address":"Beach Rd","latitude":41.4565534,"longitude":-70.5904765,"location":"Little Bridge","url":"https://aaboston.org/meetings/beach-meeting-2","timezone":"America/New_York"},{"feed":"aaboston.org","slug":"brattle","name":"Brattle (Hybrid)","day":0,"time":"10:00","types":["O","SP","X","XB","ONL"],"state":"MA","postal_code":"02139","city":"Cambridge","address":"7 Temple St","latitude":42.3666268,"longitude":-71.104212,"location":"YWCA","url":"https://aaboston.org/meetings/brattle","timezone":"America/New_York"},{"feed":"aaboston.org","slug":"breakfast","name":"Sunday Morning Breakfast Group","day":0,"time":"10:00","types":["O","SP"],"state":"MA","postal_code":"02540","city":"Falmouth","address":"874 Gifford St","latitude":41.5850823,"longitude":-70.6056352,"location":"Falmouth High School","url":"https://aaboston.org/meetings/breakfast","timezone":"America/New_York"},{"feed":"aaboston.org","slug":"brookfield-sunday-morning","name":"Brookfield Sunday Morning","day":0,"time":"10:00","types":["O","ST","X","XB"],"state":"MA","postal_code":"01506","city":"Brookfield","address":"6 Central St","latitude":42.2152402,"longitude":-72.1012877,"location":"Brookfield Town Hall","url":"https://aaboston.org/meetings/brookfield-sunday-morning","timezone":"America/New_York"},{"feed":"aaboston.org","slug":"center","name":"Center","day":0,"time":"10:00","types":["O","SP","X","XB"],"state":"MA","postal_code":"02359","city":"Pembroke","address":"144 Center St","latitude":42.0694298,"longitude":-70.8096261,"location":"Council on Aging","url":"https://aaboston.org/meetings/center","timezone":"America/New_York"},{"feed":"aaboston.org","slug":"eye-opener-14","name":"Eye Opener","day":0,"time":"10:00","types":["O","SP","X","XB"],"state":"MA","postal_code":"02184","city":"Braintree","address":"74 Pond St","latitude":42.2000781,"longitude":-71.0112043,"location":"Dianne Devanna Youth Center","url":"https://aaboston.org/meetings/eye-opener-14","timezone":"America/New_York"},{"feed":"aaboston.org","slug":"fire-house-sundays-at-1000-am","name":"Men&#039;s","day":0,"time":"10:00","types":["C","D","M"],"state":"MA","postal_code":"02155","city":"Medford","address":"Medford St &amp; Main St","latitude":42.4015968,"longitude":-71.1063024,"location":"Fire House 2","url":"https://aaboston.org/meetings/fire-house-sundays-at-1000-am","timezone":"America/New_York"},{"feed":"aaboston.org","slug":"first-day","name":"First Day","day":0,"time":"10:00","types":["O"],"state":"MA","postal_code":"02136","city":"Hyde Park","address":"12 Wolcott Ct","latitude":42.2381085,"longitude":-71.1311349,"location":"Knights of Columbus","url":"https://aaboston.org/meetings/first-day","timezone":"America/New_York"},{"feed":"aaboston.org","slug":"hispano-americano-8","name":"Hispano Americano","day":0,"time":"10:00","types":["D","O","SP","S"],"state":"MA","postal_code":"02150","city":"Chelsea","address":"63 Everett Ave","latitude":42.3930511,"longitude":-71.0387049,"location":"Grupo Hispano Americano","url":"https://aaboston.org/meetings/hispano-americano-8","timezone":"America/New_York"},{"feed":"aaboston.org","slug":"living-sober-8","name":"Living Sober","day":0,"time":"10:00","types":["D","O","X","XB"],"state":"MA","postal_code":"01570","city":"Webster","address":"68 Lake St","latitude":42.0484282,"longitude":-71.8733089,"location":"Holy Trinity Parish","url":"https://aaboston.org/meetings/living-sober-8","timezone":"America/New_York"},{"feed":"aaboston.org","slug":"melrosewakefield-hospital-sundays-at-1000-am","name":"Melrose/Wakefield Sunday Morning","day":0,"time":"10:00","types":["O","X","ONL","TC"],"state":"MA","postal_code":"02176","city":"Melrose","address":"585 Lebanon St","latitude":42.4604103,"longitude":-71.0610124,"location":"Melrose/Wakefield Hospital","url":"https://aaboston.org/meetings/melrosewakefield-hospital-sundays-at-1000-am","timezone":"America/New_York"},{"feed":"aaboston.org","slug":"mens","name":"Men&#039;s","day":0,"time":"10:00","types":["D","M","O","X","XB"],"state":"MA","postal_code":"02129","city":"Charlestown","address":"55 Bunker Hill St","latitude":42.3772903,"longitude":-71.0572036,"location":"Administration Building","url":"https://aaboston.org/meetings/mens","timezone":"America/New_York"},{"feed":"aaboston.org","slug":"morning-2","name":"Morning","day":0,"time":"10:00","types":["O","SP","X","XB"],"state":"MA","postal_code":"01581","city":"Westborough","address":"4 Rogers Rd","latitude":42.2754305,"longitude":-71.6039171,"location":"Senior Center","url":"https://aaboston.org/meetings/morning-2","timezone":"America/New_York"},{"feed":"aaboston.org","slug":"new-friends","name":"New Friends (Hybrid)","day":0,"time":"10:00","types":["D","O","X","XB","ONL"],"state":"MA","postal_code":"01760","city":"Natick","address":"67 Union St","latitude":42.2807802,"longitude":-71.3349368,"location":"Leonard Morse Hospital","url":"https://aaboston.org/meetings/new-friends","timezone":"America/New_York"},{"feed":"aaboston.org","slug":"new-life-4","name":"New Life","day":0,"time":"10:00","types":["O","X","XB"],"state":"MA","postal_code":"01876","city":"Tewksbury","address":"365 East St","latitude":42.6070547,"longitude":-71.2183791,"location":"Tewksbury State Hospital","url":"https://aaboston.org/meetings/new-life-4","timezone":"America/New_York"},{"feed":"aaboston.org","slug":"peace-of-mind","name":"Peace of Mind","day":0,"time":"10:00","types":["O","SP","X","XB"],"state":"MA","postal_code":"01880","city":"Wakefield","address":"370 Salem St","latitude":42.5138488,"longitude":-71.0483547,"location":"Masonic Temple","url":"https://aaboston.org/meetings/peace-of-mind","timezone":"America/New_York"},{"feed":"aaboston.org","slug":"renewal","name":"Renewal","day":0,"time":"10:00","types":["D","O"],"state":"MA","postal_code":"02190","city":"Weymouth","address":"19 Hollis St","latitude":42.1684866,"longitude":-70.9597418,"location":"American Legion","url":"https://aaboston.org/meetings/renewal","timezone":"America/New_York"},{"feed":"aaboston.org","slug":"sober-sunday","name":"Sober Sunday (Hybrid)","day":0,"time":"10:00","types":["D","LGBTQ","O","X","XB","ONL"],"state":"MA","postal_code":"02215","city":"Boston","address":"60 Kilmarnock St","latitude":42.3429115,"longitude":-71.0990346,"location":"60 Kilmarnock Street","url":"https://aaboston.org/meetings/sober-sunday","timezone":"America/New_York"},{"feed":"rhodeisland-aa.org","slug":"somerset-mens-group","name":"Somerset Mens","day":0,"time":"10:00","end_time":"11:00","types":["C","D","EN","M","X","XB"],"state":"MA","postal_code":"02726","city":"Somerset","address":"115 Wood St","latitude":41.7508273,"longitude":-71.141201,"location":"Somerset Council On Aging","region":"Somerset, MA","url":"https://rhodeisland-aa.org/archives/meetings/somerset-mens-group/","timezone":"America/New_York"},{"feed":"aaboston.org","slug":"stow-sunday-beginners","name":"Stow Sunday Beginners","day":0,"time":"10:00","types":["D","BE","O","X","XB"],"state":"MA","postal_code":"01775","city":"Stow","address":"509 Great Rd","latitude":42.4368527,"longitude":-71.5185479,"location":"Pompositticut Community Center","url":"https://aaboston.org/meetings/stow-sunday-beginners","timezone":"America/New_York"},{"feed":"aaboston.org","slug":"suburban","name":"Suburban","day":0,"time":"10:00","types":["O","SP"],"state":"MA","postal_code":"02148","city":"Malden","address":"787 Salem St","latitude":42.4336596,"longitude":-71.0429414,"location":"Club 24","url":"https://aaboston.org/meetings/suburban","timezone":"America/New_York"},{"feed":"aaboston.org","slug":"sun-a-m","name":"Brockton Sunday Morning","day":0,"time":"10:00","types":["*","O","X"],"state":"MA","postal_code":"02379","city":"West Bridgewater","address":"320 W Center St","latitude":42.0161968,"longitude":-71.0259582,"location":"24 South Clubhouse","url":"https://aaboston.org/meetings/sun-a-m","timezone":"America/New_York"},{"feed":"aaboston.org","slug":"sun-a-m-mens","name":"Blueberry Muffins","day":0,"time":"10:00","types":["C","M","X"],"state":"MA","postal_code":"01901","city":"Lynn","address":"25 Exchange St","latitude":42.4633903,"longitude":-70.9433951,"location":"Lynn Art","url":"https://aaboston.org/meetings/sun-a-m-mens","timezone":"America/New_York"},{"feed":"aaboston.org","slug":"sun-am","name":"Sunday Morning","day":0,"time":"10:00","types":["O","SP","X"],"state":"MA","postal_code":"02703","city":"Attleboro","address":"68 Falmouth St","latitude":41.9456255,"longitude":-71.2759035,"location":"Cameron Building","url":"https://aaboston.org/meetings/sun-am","timezone":"America/New_York"},{"feed":"rhodeisland-aa.org","slug":"sunday-morning-aa","name":"Sunday Morning AA","day":0,"time":"10:00","end_time":"11:00","types":["EN","O","SP","X"],"state":"MA","postal_code":"02703","city":"Attleboro","address":"68 Falmouth St","latitude":41.945608,"longitude":-71.2758902,"location":"Cameron Recovery Center","region":"Attleboro, MA","url":"https://rhodeisland-aa.org/archives/meetings/sunday-morning-aa/","timezone":"America/New_York"},{"feed":"capecodaa.net","slug":"sunday-morning-breakfast-group","name":"Sunday Morning Group","day":0,"time":"10:00","end_time":"11:00","types":["O","SP","X"],"state":"MA","postal_code":"02540","city":"Falmouth","address":"874 Gifford St","latitude":41.5850823,"longitude":-70.6056352,"location":"Falmouth High School","region":"Falmouth","url":"https://capecodaa.net/meetings/sunday-morning-breakfast-group/","timezone":"America/New_York"},{"feed":"aaboston.org","slug":"sunshine","name":"Sunshine","day":0,"time":"10:00","types":["O","SP"],"state":"MA","postal_code":"02601","city":"Hyannis","address":"895 Falmouth Rd","latitude":41.6591953,"longitude":-70.3205603,"location":"Barnstable Intermediate School","url":"https://aaboston.org/meetings/sunshine","timezone":"America/New_York"},{"feed":"capecodaa.net","slug":"sunshine-group","name":"Sunshine Group","day":0,"time":"10:00","end_time":"11:00","types":["O","SP","X"],"state":"MA","postal_code":"02601","city":"Hyannis","address":"895 Falmouth Rd","latitude":41.6591953,"longitude":-70.3205603,"location":"Barnstable Intermediate School","region":"Hyannis","notes":"beginners welcome :)","url":"https://capecodaa.net/meetings/sunshine-group/","timezone":"America/New_York"},{"feed":"aaboston.org","slug":"witch-city","name":"Witch City","day":0,"time":"10:00","types":["O","SP"],"state":"MA","postal_code":"01970","city":"Salem","address":"99 Harrison Rd","latitude":42.4931558,"longitude":-70.8950267,"location":"South Campus Cafe, Salem State College","url":"https://aaboston.org/meetings/witch-city","timezone":"America/New_York"},{"feed":"aaboston.org","slug":"womens-wisdom-in-recovery","name":"Women&#039;s Wisdom in Recovery","day":0,"time":"10:00","types":["D","O","W"],"state":"MA","postal_code":"01005","city":"Barre","address":"557 S Barre Rd","latitude":42.395275,"longitude":-72.0986628,"location":"Barre Senior Center","url":"https://aaboston.org/meetings/womens-wisdom-in-recovery","timezone":"America/New_York"},{"feed":"aaboston.org","slug":"sun-a-m-4","name":"Sunday Morning","day":0,"time":"10:15","types":["O","SP","X","XB"],"state":"MA","postal_code":"01420","city":"Fitchburg","address":"14 Wallace Ave","latitude":42.5841894,"longitude":-71.801968,"location":"Fitchburg Senior Center","url":"https://aaboston.org/meetings/sun-a-m-4","timezone":"America/New_York"},{"feed":"aaboston.org","slug":"always-aware","name":"Always Aware","day":0,"time":"10:30","types":["D","O","SP","X","XB"],"state":"MA","postal_code":"01852","city":"Lowell","address":"33 E Merrimack St","latitude":42.6444819,"longitude":-71.3043937,"location":"The Bridge Club","url":"https://aaboston.org/meetings/always-aware","timezone":"America/New_York"},{"feed":"aaboston.org","slug":"first-day-2","name":"First Day","day":0,"time":"10:30","types":["D","O","SP"],"state":"MA","postal_code":"02081","city":"Walpole","address":"109 Robbins Rd","latitude":42.1511668,"longitude":-71.2554366,"location":"VFW","url":"https://aaboston.org/meetings/first-day-2","timezone":"America/New_York"},{"feed":"rhodeisland-aa.org","slug":"pathfinders","name":"Pathfinders","day":0,"time":"10:30","end_time":"12:00","types":["O","SP","X","XB","EN"],"state":"MA","postal_code":"02747","city":"Dartmouth","address":"Birch Hall, 285 Old Westport Rd","latitude":41.6258644,"longitude":-71.0084067,"location":"Umass Dartmouth","region":"Dartmouth, MA","url":"https://rhodeisland-aa.org/archives/meetings/pathfinders/","timezone":"America/New_York"},{"feed":"aaboston.org","slug":"pathfinders-2","name":"Pathfinders","day":0,"time":"10:30","types":["O","SP","X","XB"],"state":"MA","postal_code":"02747","city":"North Dartmouth","address":"285 Old Westport Rd","latitude":41.6241061,"longitude":-71.0061254,"location":"U Mass., Campus Center, Parking Lot 5, Aud 006","url":"https://aaboston.org/meetings/pathfinders-2","timezone":"America/New_York"},{"feed":"aaboston.org","slug":"s-u-a-a-m","name":"S.U.A.A.M.","day":0,"time":"10:30","types":["B","C","ONL"],"state":"MA","city":"Newton","latitude":42.3370413,"longitude":-71.2092214,"location":"Online","url":"https://aaboston.org/meetings/s-u-a-a-m","timezone":"America/New_York"},{"feed":"aaboston.org","slug":"templeton-today","name":"Gardner Today","day":0,"time":"10:30","types":["D","O","SP"],"state":"MA","postal_code":"01440","city":"Gardner","address":"297 Central St","latitude":42.5765758,"longitude":-71.9950079,"location":"Alyssa&#039;s Place","url":"https://aaboston.org/meetings/templeton-today","timezone":"America/New_York"},{"feed":"aaboston.org","slug":"tnt","name":"TNT","day":0,"time":"10:30","types":["O","SP"],"state":"MA","postal_code":"02143","city":"Somerville","address":"9 New Washington St","latitude":42.3804184,"longitude":-71.0818345,"location":"Lions Club","url":"https://aaboston.org/meetings/tnt","timezone":"America/New_York"},{"feed":"capecodaa.net","slug":"you-are-not-alone","name":"You Are Not Alone","day":0,"time":"10:30","end_time":"11:30","types":["D"],"state":"MA","postal_code":"02653","city":"Orleans","address":"2 Namskaket Rd","latitude":41.7909003,"longitude":-69.9973952,"location":"Odd Fellows Hall","region":"Orleans","notes":"Indoor meeting with Covid Protocols - Outside weather permitting","url":"https://capecodaa.net/meetings/you-are-not-alone/","timezone":"America/New_York"},{"feed":"aaboston.org","slug":"24-hours","name":"24 Hours","day":0,"time":"11:00","types":["O","SP"],"state":"MA","postal_code":"01331","city":"Athol","address":"336 Main St","latitude":42.5941259,"longitude":-72.2329091,"location":"Masonic Lodge","url":"https://aaboston.org/meetings/24-hours","timezone":"America/New_York"},{"feed":"aaboston.org","slug":"community","name":"Community","day":0,"time":"11:00","types":["O","SP","X","XB"],"state":"MA","postal_code":"02025","city":"Cohasset","address":"208 Sohier St","latitude":42.237649,"longitude":-70.8164656,"location":"Deerhill School","url":"https://aaboston.org/meetings/community","timezone":"America/New_York"},{"feed":"aaboston.org","slug":"eye-opener-11","name":"Belmont Eye Opener","day":0,"time":"11:00","types":["O","SP"],"state":"MA","postal_code":"02458","city":"Newton","address":"295 California St","latitude":42.3657489,"longitude":-71.1995279,"location":"American Legion","url":"https://aaboston.org/meetings/eye-opener-11","timezone":"America/New_York"},{"feed":"aaboston.org","slug":"old-town-hall-sundays-at-1100-am","name":"Sunday Morning","day":0,"time":"11:00","types":["O","SP","X","XB"],"state":"MA","postal_code":"01775","city":"Stow","address":"509 Great Rd","latitude":42.4368527,"longitude":-71.5185479,"location":"Pompositticut Community Center","url":"https://aaboston.org/meetings/old-town-hall-sundays-at-1100-am","timezone":"America/New_York"},{"feed":"aaboston.org","slug":"open-speaker-discussion","name":"Open Speaker Discussion","day":0,"time":"11:00","types":["D","O","SP","X"],"state":"MA","postal_code":"02557","city":"Oak Bluffs","address":"21 Wamsutta Ave","latitude":41.4523997,"longitude":-70.5600987,"location":"Council on Aging","url":"https://aaboston.org/meetings/open-speaker-discussion","timezone":"America/New_York"},{"feed":"aaboston.org","slug":"sunday-am","name":"Sunday AM (Hybrid)","day":0,"time":"11:00","types":["O","ONL"],"state":"MA","postal_code":"01721","city":"Ashland","address":"162 W Union St","latitude":42.2456895,"longitude":-71.4753421,"location":"Community Center","url":"https://aaboston.org/meetings/sunday-am","timezone":"America/New_York"},{"feed":"aaboston.org","slug":"better-days","name":"Better Days","day":0,"time":"12:00","types":["D","O","X","XB"],"state":"MA","postal_code":"02045","city":"Hull","address":"7 Hadassah Wy","latitude":42.2871828,"longitude":-70.8751455,"location":"The Anchor","url":"https://aaboston.org/meetings/better-days","timezone":"America/New_York"},{"feed":"rhodeisland-aa.org","slug":"brothers-in-arms","name":"Brothers in Arms","day":0,"time":"12:00","end_time":"13:00","types":["C","EN","M","ST","X","XB"],"state":"MA","postal_code":"02746","city":"New Bedford","address":"360 Coggeshall St","latitude":41.6555839,"longitude":-70.928391,"location":"PAACA Services","region":"New Bedford, MA","url":"https://rhodeisland-aa.org/archives/meetings/brothers-in-arms/","timezone":"America/New_York"},{"feed":"aaboston.org","slug":"brothers-in-arms-2","name":"Brothers in Arms","day":0,"time":"12:00","types":["12x12","C","M"],"state":"MA","postal_code":"02746","city":"New Bedford","address":"360 Coggeshall St","latitude":41.6556246,"longitude":-70.9284116,"location":"PAACA Services","url":"https://aaboston.org/meetings/brothers-in-arms-2","timezone":"America/New_York"},{"feed":"aaboston.org","slug":"dark-side-of-the-noon","name":"Dark Side of The Noon","day":0,"time":"12:00","types":["C","D","SP","ONL"],"state":"MA","city":"Peabody","latitude":42.5278731,"longitude":-70.9286609,"location":"Online","url":"https://aaboston.org/meetings/dark-side-of-the-noon","timezone":"America/New_York"},{"feed":"aaboston.org","slug":"f-o-t-h-l-i","name":"F.O.T.H.L.I.","day":0,"time":"12:00","types":["D","O","ONL"],"state":"MA","city":"Boston","address":"Charlestown","latitude":42.3782065,"longitude":-71.0602131,"location":"Phone meeting","url":"https://aaboston.org/meetings/f-o-t-h-l-i","timezone":"America/New_York"},{"feed":"aaboston.org","slug":"fothli-telephone-only","name":"FOTHLI (Telephone meeting)","day":0,"time":"12:00","types":["D","O","ONL"],"state":"MA","city":"Boston","latitude":42.3555076,"longitude":-71.0565364,"location":"Online","url":"https://aaboston.org/meetings/fothli-telephone-only","timezone":"America/New_York"},{"feed":"aaboston.org","slug":"green-hill-noontime","name":"Green Hill Noontime","day":0,"time":"12:00","types":["D","O"],"state":"MA","postal_code":"01606","city":"Worcester","address":"215 Mountain St E","latitude":42.3180112,"longitude":-71.7747495,"location":"Salem Covenant Church","url":"https://aaboston.org/meetings/green-hill-noontime","timezone":"America/New_York"},{"feed":"aaboston.org","slug":"little-hall-15","name":"Little Hall","day":0,"time":"12:00","types":["D","O","SP","X","XB"],"state":"MA","postal_code":"01915","city":"Beverly","address":"9 Hale St","latitude":42.5484699,"longitude":-70.8776072,"location":"White Whale","url":"https://aaboston.org/meetings/little-hall-15","timezone":"America/New_York"},{"feed":"aaboston.org","slug":"never-alone-4","name":"Never Alone Again","day":0,"time":"12:00","types":["D","O","SP","ONL"],"state":"MA","city":"Boston","latitude":42.3555076,"longitude":-71.0565364,"location":"Online","url":"https://aaboston.org/meetings/never-alone-4","timezone":"America/New_York"},{"feed":"aaboston.org","slug":"new-norumbega-4","name":"Newton Zoom Group","day":0,"time":"12:00","types":["D","O","ONL"],"state":"MA","city":"Newton","latitude":42.3370413,"longitude":-71.2092214,"location":"Online","url":"https://aaboston.org/meetings/new-norumbega-4","timezone":"America/New_York"},{"feed":"aaboston.org","slug":"nooner-3","name":"Nooner","day":0,"time":"12:00","types":["D","O"],"state":"MA","postal_code":"01515","city":"East Brookfield","address":"267 E Main St","latitude":42.2261542,"longitude":-72.051307,"location":"Harrington Abuse Center","url":"https://aaboston.org/meetings/nooner-3","timezone":"America/New_York"},{"feed":"aaboston.org","slug":"north-shore-nooner-6","name":"North Shore Nooner","day":0,"time":"12:00","types":["C","D","ONL"],"state":"MA","city":"Salem","latitude":42.5197473,"longitude":-70.8954626,"location":"Online","url":"https://aaboston.org/meetings/north-shore-nooner-6","timezone":"America/New_York"},{"feed":"aaboston.org","slug":"norumbega-3","name":"Norumbega","day":0,"time":"12:00","types":["O","ST"],"state":"MA","postal_code":"02466","city":"Newton","address":"107 Charles St","latitude":42.3417888,"longitude":-71.2573117,"location":"The Shack","url":"https://aaboston.org/meetings/norumbega-3","timezone":"America/New_York"},{"feed":"aaboston.org","slug":"reflections-2","name":"Reflections","day":0,"time":"12:00","types":["D","O","X","XB"],"state":"MA","postal_code":"02129","city":"Charlestown","address":"55 Bunker Hill St","latitude":42.3772903,"longitude":-71.0572036,"location":"Administration Building","url":"https://aaboston.org/meetings/reflections-2","timezone":"America/New_York"},{"feed":"capecodaa.net","slug":"revelations-7","name":"Revelations","day":0,"time":"12:00","end_time":"13:00","types":["D","O","SP","ONL"],"state":"MA","city":"Falmouth","latitude":41.5532208,"longitude":-70.6085886,"location":"Falmouth, MA, USA","region":"Falmouth","notes":"Zoom ID 2123134567\nPassword : j2Apma","conference_url":"https://zoom.us/j/2123134567","url":"https://capecodaa.net/meetings/revelations-7/","group":"Revelations","timezone":"America/New_York"},{"feed":"aaboston.org","slug":"sobriety-101-zoom","name":"Sobriety 101 Zoom","day":0,"time":"12:00","types":["D","O","ONL"],"state":"MA","postal_code":"01826","city":"Dracut","latitude":42.6703687,"longitude":-71.3020052,"location":"Online","url":"https://aaboston.org/meetings/sobriety-101-zoom","timezone":"America/New_York"},{"feed":"aaboston.org","slug":"the-beginners-meeting-2","name":"The Beginners Meeting","day":0,"time":"12:00","types":["C","D","BE","SP","ONL"],"state":"MA","city":"Salem","latitude":42.5197473,"longitude":-70.8954626,"location":"Online","url":"https://aaboston.org/meetings/the-beginners-meeting-2","timezone":"America/New_York"},{"feed":"aaboston.org","slug":"the-nooner-4","name":"Original Dark Side Noon","day":0,"time":"12:00","types":["C","D"],"state":"MA","postal_code":"01945","city":"Marblehead","address":"8 Anderson St","latitude":42.5013838,"longitude":-70.8582382,"location":"8 Anderson St.","url":"https://aaboston.org/meetings/the-nooner-4","timezone":"America/New_York"},{"feed":"aaboston.org","slug":"beginners-steps-123","name":"Beginners Steps 1,2,3","day":0,"time":"13:00","types":["O","ST","X","XB"],"state":"MA","postal_code":"01852","city":"Lowell","address":"33 E Merrimack St","latitude":42.6444819,"longitude":-71.3043937,"location":"The Bridge Club","url":"https://aaboston.org/meetings/beginners-steps-123","timezone":"America/New_York"},{"feed":"aaboston.org","slug":"as-bill-sees-it-8","name":"As Bill Sees It","day":0,"time":"14:00","types":["D","O","X"],"state":"MA","postal_code":"02050","city":"Marshfield","address":"185 Plain St","latitude":42.097168,"longitude":-70.7263719,"location":"Sanctuary Church","url":"https://aaboston.org/meetings/as-bill-sees-it-8","timezone":"America/New_York"},{"feed":"aaboston.org","slug":"peace-thru-step-11","name":"Peace thru Step 11","day":0,"time":"14:00","types":["D","O","W"],"state":"MA","postal_code":"01966","city":"Rockport","address":"12 School St","latitude":42.6576801,"longitude":-70.6185889,"location":"First Congregational Church","url":"https://aaboston.org/meetings/peace-thru-step-11","timezone":"America/New_York"},{"feed":"aaboston.org","slug":"second-chance-5","name":"Second Chance","day":0,"time":"14:00","types":["O","SP","X"],"state":"MA","postal_code":"01915","city":"Beverly","address":"9 Hale St","latitude":42.5484699,"longitude":-70.8776072,"location":"White Whale","url":"https://aaboston.org/meetings/second-chance-5","timezone":"America/New_York"},{"feed":"aaboston.org","slug":"sunday-too","name":"Sunday Too","day":0,"time":"14:00","types":["D","O"],"state":"MA","postal_code":"02170","city":"Quincy","address":"48 Winthrop Ave","latitude":42.2628238,"longitude":-71.0199223,"location":"Wollaston Congregational Church","url":"https://aaboston.org/meetings/sunday-too","timezone":"America/New_York"},{"feed":"capecodaa.net","slug":"double-trouble","name":"\"Double Trouble\"","day":0,"time":"15:00","end_time":"16:00","types":["D"],"state":"MA","postal_code":"02631","city":"Brewster","address":"250 Underpass Rd","latitude":41.7582826,"longitude":-70.0665727,"location":"Pause A While","region":"Brewster","notes":"A meeting for people who are dually diagnosed.","url":"https://capecodaa.net/meetings/double-trouble/","timezone":"America/New_York"},{"feed":"aaboston.org","slug":"grupo-serenidad-2","name":"Grupo Serenidad","day":0,"time":"15:00","types":["D","O","SP","S"],"state":"MA","postal_code":"02141","city":"East Cambridge","address":"525 Cambridge St","latitude":42.3718186,"longitude":-71.0849855,"location":"Serenidad A.A.","url":"https://aaboston.org/meetings/grupo-serenidad-2","timezone":"America/New_York"},{"feed":"aaboston.org","slug":"daytime","name":"Daytime","day":0,"time":"15:30","types":["D","O"],"state":"MA","postal_code":"02148","city":"Malden","address":"787 Salem St","latitude":42.4336596,"longitude":-71.0429414,"location":"Club 24","url":"https://aaboston.org/meetings/daytime","timezone":"America/New_York"},{"feed":"aaboston.org","slug":"4-pm-zoom-3","name":"4 PM Zoom","day":0,"time":"16:00","types":["C","D","ONL"],"state":"MA","city":"Marblehead","latitude":42.4999582,"longitude":-70.8578024,"location":"Online","url":"https://aaboston.org/meetings/4-pm-zoom-3","timezone":"America/New_York"},{"feed":"aaboston.org","slug":"do-it-sober-4","name":"Do It Sober","day":0,"time":"16:00","types":["D","O","OUT"],"state":"MA","city":"Lynn","address":"Lynn Shore Dr","latitude":42.4618368,"longitude":-70.9290111,"location":"Red Rock Park","url":"https://aaboston.org/meetings/do-it-sober-4","timezone":"America/New_York"},{"feed":"aaboston.org","slug":"reawakened-10","name":"Reawakened","day":0,"time":"16:00","types":["C","D","SP","ONL"],"state":"MA","city":"Peabody","latitude":42.5278731,"longitude":-70.9286609,"location":"Online","url":"https://aaboston.org/meetings/reawakened-10","timezone":"America/New_York"},{"feed":"capecodaa.net","slug":"roots-and-causes-beginners-meeting","name":"Roots and Causes Beginners Meeting","day":0,"time":"16:00","end_time":"17:00","types":["LS","BE","Y"],"state":"MA","postal_code":"02559","city":"Pocasset","address":"298 Barlows Landing Rd","latitude":41.695247,"longitude":-70.6140659,"location":"First Baptist Church","region":"Bourne","url":"https://capecodaa.net/meetings/roots-and-causes-beginners-meeting/","timezone":"America/New_York"},{"feed":"aaboston.org","slug":"roots-causes-beginners","name":"Roots &amp; Causes Beginners","day":0,"time":"16:00","types":["D","BE","O"],"state":"MA","postal_code":"02559","city":"Pocasset","address":"298 Barlows Landing Rd","latitude":41.6944341,"longitude":-70.6135641,"location":"First Baptist Church","url":"https://aaboston.org/meetings/roots-causes-beginners","timezone":"America/New_York"},{"feed":"aaboston.org","slug":"5-alive","name":"5 Alive","day":0,"time":"17:00","types":["D","O"],"state":"MA","postal_code":"02645","city":"Harwich","address":"1421 Orleans-Harwich Rd","latitude":41.7067797,"longitude":-70.0224944,"location":"Club Dry Dock","url":"https://aaboston.org/meetings/5-alive","timezone":"America/New_York"},{"feed":"capecodaa.net","slug":"big-book-and-beyond-literature-study","name":"Big Book and Beyond Literature Study","day":0,"time":"17:00","end_time":"18:00","types":["B","ST","ONL"],"state":"MA","city":"Barnstable","latitude":41.7003208,"longitude":-70.3002024,"location":"Barnstable, MA, USA","region":"Barnstable","notes":"Zoom ID 3856886473","conference_url":"https://us02web.zoom.us/j/3856886473","url":"https://capecodaa.net/meetings/big-book-and-beyond-literature-study/","group":"Big Book and Beyond Literature Study","timezone":"America/New_York"},{"feed":"capecodaa.net","slug":"club-dry-dock","name":"5 Alive","day":0,"time":"17:00","end_time":"18:00","types":["D","O"],"state":"MA","postal_code":"02645","city":"Harwich","address":"1421 Orleans-Harwich Rd","latitude":41.7067797,"longitude":-70.0224944,"location":"400 East Plaza Suite 101","region":"Harwich","url":"https://capecodaa.net/meetings/club-dry-dock/","timezone":"America/New_York"},{"feed":"aaboston.org","slug":"drop-in-center-sundays-at-500-pm","name":"Pause A While","day":0,"time":"17:00","types":["D","O","X"],"state":"MA","postal_code":"02631","city":"Brewster","address":"250 Underpass Rd","latitude":41.758275,"longitude":-70.0667183,"location":"Pause A While","url":"https://aaboston.org/meetings/drop-in-center-sundays-at-500-pm","timezone":"America/New_York"},{"feed":"capecodaa.net","slug":"fellowship-works-7","name":"Fellowship Works","day":0,"time":"17:00","end_time":"18:00","types":["D"],"state":"MA","postal_code":"02668","city":"West Barnstable","address":"2049 Meetinghouse Way","latitude":41.6984804,"longitude":-70.3839113,"location":"West Parish Of Barnstable-Jenkins Hall","region":"Barnstable","url":"https://capecodaa.net/meetings/fellowship-works-7/","group":"Fellowship Works","timezone":"America/New_York"},{"feed":"rhodeisland-aa.org","slug":"fresh-start","name":"Fresh Start","day":0,"time":"17:00","end_time":"18:00","types":["C","EN","ST"],"state":"MA","postal_code":"02719","city":"Fairhaven","address":"16 Temple Pl","latitude":41.6414118,"longitude":-70.8916749,"location":"Trinity Lutheran Church","region":"Fairhaven,MA","url":"https://rhodeisland-aa.org/archives/meetings/fresh-start/","timezone":"America/New_York"},{"feed":"aaboston.org","slug":"fresh-start-3","name":"Fresh Start","day":0,"time":"17:00","types":["C","ST","X"],"state":"MA","postal_code":"02719","city":"Fairhaven","address":"16 Temple Pl","latitude":41.6414378,"longitude":-70.8916665,"location":"Trinity Lutheran Church","url":"https://aaboston.org/meetings/fresh-start-3","timezone":"America/New_York"},{"feed":"aaboston.org","slug":"happy-hour-12","name":"Happy Hour","day":0,"time":"17:00","types":["C","D","SP","ONL"],"state":"MA","postal_code":"01923","city":"Danvers","latitude":42.5750009,"longitude":-70.932122,"location":"Online","url":"https://aaboston.org/meetings/happy-hour-12","timezone":"America/New_York"},{"feed":"aaboston.org","slug":"it-all-starts-here-beginners","name":"It All Starts Here (Beginners)","day":0,"time":"17:00","types":["D","BE","O","X","XB"],"state":"MA","postal_code":"01604","city":"Worcester","address":"44 Temple St","latitude":42.2597413,"longitude":-71.7964012,"location":"St. John&#039;s Church","url":"https://aaboston.org/meetings/it-all-starts-here-beginners","timezone":"America/New_York"},{"feed":"aaboston.org","slug":"now-14","name":"Maynard Now","day":0,"time":"17:00","types":["D","GR","O"],"state":"MA","postal_code":"01754","city":"Maynard","address":"65 Nason St","latitude":42.4337686,"longitude":-71.4525907,"location":"Eagles Club","url":"https://aaboston.org/meetings/now-14","timezone":"America/New_York"},{"feed":"aaboston.org","slug":"nueva-vida-5","name":"Nueva Vida","day":0,"time":"17:00","types":["D","O","SP","S"],"state":"MA","postal_code":"02128","city":"Boston","address":"65 London St","latitude":42.3714805,"longitude":-71.0403209,"location":"Most Holy Redeemer Church","url":"https://aaboston.org/meetings/nueva-vida-5","timezone":"America/New_York"},{"feed":"aaboston.org","slug":"nuevo-futuro-4","name":"Nuevo Futuro","day":0,"time":"17:00","types":["D","O","SP","S"],"state":"MA","postal_code":"01603","city":"Worcester","address":"1114 Main St","latitude":42.2449721,"longitude":-71.8345495,"location":"Grupo Nuevo Futuro","url":"https://aaboston.org/meetings/nuevo-futuro-4","timezone":"America/New_York"},{"feed":"aaboston.org","slug":"paths-to-recovery","name":"BBSS Paths To Recovery","day":0,"time":"17:00","types":["12x12","B","O","X","XB"],"state":"MA","postal_code":"01752","city":"Marlborough","address":"33 Main St","latitude":42.3481654,"longitude":-71.544431,"location":"Addictions Referral Center","url":"https://aaboston.org/meetings/paths-to-recovery","timezone":"America/New_York"},{"feed":"capecodaa.net","slug":"pause-at-five","name":"Pause at Five","day":0,"time":"17:00","end_time":"18:00","types":["D","O","OUT","X"],"state":"MA","postal_code":"02631","city":"Brewster","address":"250 Underpass Rd","latitude":41.7582826,"longitude":-70.0665727,"location":"Pause A While","region":"Brewster","url":"https://capecodaa.net/meetings/pause-at-five/","timezone":"America/New_York"},{"feed":"aaboston.org","slug":"power-hour-bbss","name":"Power Hour BBSS","day":0,"time":"17:00","types":["12x12","B","O","X","XB"],"state":"MA","postal_code":"02668","city":"West Barnstable","address":"2049 Meetinghouse Way","latitude":41.6984711,"longitude":-70.3838907,"location":"Jenkins Hall","url":"https://aaboston.org/meetings/power-hour-bbss","timezone":"America/New_York"},{"feed":"aaboston.org","slug":"queer-ideas-of-fun","name":"Queer Ideas of Fun","day":0,"time":"17:00","types":["D","LGBTQ","NB","O","T","X","XB"],"state":"MA","postal_code":"02144","city":"Somerville","address":"89 College Ave","latitude":42.3990467,"longitude":-71.1191818,"location":"First Church UCC","url":"https://aaboston.org/meetings/queer-ideas-of-fun","timezone":"America/New_York"},{"feed":"aaboston.org","slug":"starting-over","name":"Starting Over","day":0,"time":"17:00","types":["D","O","X","XB"],"state":"MA","postal_code":"01570","city":"Webster","address":"68 Lake St","latitude":42.0484282,"longitude":-71.8733089,"location":"Holy Trinity Parish","url":"https://aaboston.org/meetings/starting-over","timezone":"America/New_York"},{"feed":"capecodaa.net","slug":"the-sunday-night-power-hour","name":"The Sunday Night Power Hour","day":0,"time":"17:00","end_time":"18:00","types":["B","ST"],"state":"MA","postal_code":"02668","city":"West Barnstable","address":"2049 Meetinghouse Way","latitude":41.6984804,"longitude":-70.3839113,"location":"West Parish Of Barnstable-Jenkins Hall","region":"Barnstable","notes":"BBSS Coed utilizing the \"Hyannis\" format","url":"https://capecodaa.net/meetings/the-sunday-night-power-hour/","timezone":"America/New_York"},{"feed":"aaboston.org","slug":"these-are-the-promises","name":"Promises: Women, Non-Binary &amp; Trans (Hybrid)","day":0,"time":"17:00","types":["C","D","LGBTQ","NB","SP","W","ONL"],"state":"MA","postal_code":"02130","city":"Boston","address":"6 Eliot St","latitude":42.3098766,"longitude":-71.1160577,"location":"First Church In Jamaica Plain","url":"https://aaboston.org/meetings/these-are-the-promises","timezone":"America/New_York"},{"feed":"aaboston.org","slug":"beginners-9","name":"Beginners","day":0,"time":"17:30","types":["D","O","SP"],"state":"MA","postal_code":"02655","city":"Osterville","address":"76 Wianno Ave","latitude":41.6265985,"longitude":-70.3826818,"location":"Assumption Church","url":"https://aaboston.org/meetings/beginners-9","timezone":"America/New_York"},{"feed":"capecodaa.net","slug":"beginners-group","name":"Beginners Group","day":0,"time":"17:30","end_time":"18:30","types":["O"],"state":"MA","postal_code":"02655","city":"Osterville","address":"76 Wianno Ave","latitude":41.6265985,"longitude":-70.3826818,"location":"Our Lady of the Assumption Church","region":"Osterville","notes":"Beginners meeting","url":"https://capecodaa.net/meetings/beginners-group/","timezone":"America/New_York"},{"feed":"capecodaa.net","slug":"easy-does-it","name":"Easy Does It","day":0,"time":"17:30","end_time":"18:30","types":["B","O"],"state":"MA","postal_code":"02657","city":"Provincetown","address":"44 Harry Kemp Way","latitude":42.0591586,"longitude":-70.1850302,"location":"Maushop Housing","region":"Provincetown","url":"https://capecodaa.net/meetings/easy-does-it/","timezone":"America/New_York"},{"feed":"aaboston.org","slug":"lost-and-found-2","name":"Lost &amp; Found","day":0,"time":"17:30","types":["C","D","SP","ONL"],"state":"MA","city":"Beverly","latitude":42.5584283,"longitude":-70.880049,"location":"Online","url":"https://aaboston.org/meetings/lost-and-found-2","timezone":"America/New_York"},{"feed":"capecodaa.net","slug":"roots-and-causes","name":"Roots and causes","day":0,"time":"17:30","end_time":"18:30","types":["12x12","B","O","ST","ONL"],"state":"MA","postal_code":"02559","city":"Pocasset","address":"298 Barlows Landing Rd","latitude":41.695247,"longitude":-70.6140659,"location":"First Baptist Church","region":"Bourne","conference_url":"https://us02web.zoom.us/j/5534303415","url":"https://capecodaa.net/meetings/roots-and-causes/","group":"Roots and Causes","timezone":"America/New_York"},{"feed":"aaboston.org","slug":"roots-causes-4","name":"Roots &amp; Causes","day":0,"time":"17:30","types":["B","D","O","ONL"],"state":"MA","postal_code":"02559","city":"Pocasset","address":"298 Barlows Landing Rd","latitude":41.6944341,"longitude":-70.6135641,"location":"First Baptist Church","url":"https://aaboston.org/meetings/roots-causes-4","timezone":"America/New_York"},{"feed":"aaboston.org","slug":"second-chance-12","name":"Second Chance","day":0,"time":"17:30","types":["C","D","SP","X"],"state":"MA","postal_code":"01915","city":"Beverly","address":"9 Hale St","latitude":42.5484699,"longitude":-70.8776072,"location":"White Whale","url":"https://aaboston.org/meetings/second-chance-12","timezone":"America/New_York"},{"feed":"aaboston.org","slug":"serenity-now","name":"Serenity Now","day":0,"time":"17:30","types":["C","D"],"state":"MA","postal_code":"02066","city":"Scituate","address":"55 First Parish Rd","latitude":42.1917757,"longitude":-70.7306465,"location":"Harbor United Methodist Church","url":"https://aaboston.org/meetings/serenity-now","timezone":"America/New_York"},{"feed":"aaboston.org","slug":"womens-meeting","name":"Women&#039;s Meeting","day":0,"time":"17:30","types":["D","O","W"],"state":"MA","postal_code":"02554","city":"Nantucket","address":"16 Vesper Ln L5","latitude":41.2731704,"longitude":-70.1024856,"location":"Drop In Center","url":"https://aaboston.org/meetings/womens-meeting","timezone":"America/New_York"},{"feed":"aaboston.org","slug":"beginners-info-to-a-a-meeting","name":"Beginners Info To A.A. Meeting","day":0,"time":"18:00","types":["D","LS","BE","O","X","XB"],"state":"MA","postal_code":"01606","city":"Worcester","address":"215 Mountain St E","latitude":42.3180112,"longitude":-71.7747495,"location":"Salem Covenant Church","url":"https://aaboston.org/meetings/beginners-info-to-a-a-meeting","timezone":"America/New_York"},{"feed":"aaboston.org","slug":"concepcion-5","name":"Concepcion","day":0,"time":"18:00","types":["D","O","SP","S"],"state":"MA","postal_code":"01840","city":"Lawrence","address":"15 Union St","latitude":42.708399,"longitude":-71.1531139,"location":"15 Union Street","url":"https://aaboston.org/meetings/concepcion-5","timezone":"America/New_York"},{"feed":"aaboston.org","slug":"early","name":"Early","day":0,"time":"18:00","types":["O"],"state":"MA","postal_code":"01983","city":"Topsfield","address":"124 River Rd","latitude":42.633221,"longitude":-70.9674506,"location":"Episcopal, Church","url":"https://aaboston.org/meetings/early","timezone":"America/New_York"},{"feed":"aaboston.org","slug":"how-are-you-today","name":"How Are You Today? (Hybrid)","day":0,"time":"18:00","types":["D","LGBTQ","O","X","XB","ONL"],"state":"MA","postal_code":"02215","city":"Boston","address":"60 Kilmarnock St","latitude":42.3429115,"longitude":-71.0990346,"location":"60 Kilmarnock Street","url":"https://aaboston.org/meetings/how-are-you-today","timezone":"America/New_York"},{"feed":"aaboston.org","slug":"how-it-works-6","name":"How It Works","day":0,"time":"18:00","types":["B","CF","O","X","XB"],"state":"MA","postal_code":"02379","city":"West Bridgewater","address":"320 W Center St","latitude":42.0161968,"longitude":-71.0259582,"location":"24 South Clubhouse","url":"https://aaboston.org/meetings/how-it-works-6","timezone":"America/New_York"},{"feed":"aaboston.org","slug":"jekyll-hyde","name":"Jekyll + Hyde","day":0,"time":"18:00","types":["D","O","X","XB"],"state":"MA","postal_code":"01821","city":"Billerica","address":"18 Andover Rd","latitude":42.5609644,"longitude":-71.2675181,"location":"First Congregational Church","url":"https://aaboston.org/meetings/jekyll-hyde","timezone":"America/New_York"},{"feed":"aaboston.org","slug":"just-dont-drink-3","name":"Just Don&#039;t Drink","day":0,"time":"18:00","types":["B","C"],"state":"MA","postal_code":"01876","city":"Tewksbury","address":"1351 Main St","latitude":42.6021106,"longitude":-71.2232307,"location":"St. William&#039;s","url":"https://aaboston.org/meetings/just-dont-drink-3","timezone":"America/New_York"},{"feed":"aaboston.org","slug":"libertad-5","name":"Libertad","day":0,"time":"18:00","types":["D","O","SP","S"],"state":"MA","postal_code":"01840","city":"Lawrence","address":"599 Canal St","latitude":42.7037904,"longitude":-71.1659965,"location":"Lorenzo Building","url":"https://aaboston.org/meetings/libertad-5","timezone":"America/New_York"},{"feed":"aaboston.org","slug":"light-the-way","name":"Light The Way","day":0,"time":"18:00","types":["D","O","X","XB","TC"],"state":"MA","postal_code":"02339","city":"Hanover","address":"580 Webster St","latitude":42.146011,"longitude":-70.8681412,"location":"Baptist Church","url":"https://aaboston.org/meetings/light-the-way","timezone":"America/New_York"},{"feed":"aaboston.org","slug":"living-sober-16","name":"Living Sober","day":0,"time":"18:00","types":["D","O","ONL"],"state":"MA","postal_code":"02568","city":"Vineyard Haven","address":"56 Short Hill Rd","latitude":41.4435372,"longitude":-70.617156,"location":"Vineyard House","url":"https://aaboston.org/meetings/living-sober-16","timezone":"America/New_York"},{"feed":"capecodaa.net","slug":"mens-sunday-night-steps","name":"Men's Sunday Night Steps","day":0,"time":"18:00","end_time":"19:00","types":["12x12","M"],"state":"MA","postal_code":"02641","city":"East Dennis","address":"16 Center St","latitude":41.7482398,"longitude":-70.1470653,"location":"Grace Church","region":"Dennis","url":"https://capecodaa.net/meetings/mens-sunday-night-steps/","timezone":"America/New_York"},{"feed":"aaboston.org","slug":"new-beginnings-6","name":"New Beginnings","day":0,"time":"18:00","types":["D","O","SP","X","XB"],"state":"MA","postal_code":"02458","city":"Newton","address":"474 Centre St","latitude":42.354388,"longitude":-71.1857435,"location":"Eliot Church","url":"https://aaboston.org/meetings/new-beginnings-6","timezone":"America/New_York"},{"feed":"aaboston.org","slug":"new-community","name":"New Commonwealth","day":0,"time":"18:00","types":["O","ST","ONL"],"state":"MA","city":"Boston","latitude":42.3555076,"longitude":-71.0565364,"location":"Online","url":"https://aaboston.org/meetings/new-community","timezone":"America/New_York"},{"feed":"aaboston.org","slug":"on-awakening-11","name":"On Awakening 3rd Step","day":0,"time":"18:00","types":["D","O","SP","ST","ONL"],"state":"MA","city":"Quincy","latitude":42.2513961,"longitude":-71.0023737,"location":"Online","url":"https://aaboston.org/meetings/on-awakening-11","timezone":"America/New_York"},{"feed":"aaboston.org","slug":"our-common-ground","name":"Our Common Ground","day":0,"time":"18:00","types":["B","O","W"],"state":"MA","postal_code":"01880","city":"Wakefield","address":"1 Church St","latitude":42.5073709,"longitude":-71.0731189,"location":"Congregational Church","url":"https://aaboston.org/meetings/our-common-ground","timezone":"America/New_York"},{"feed":"aaboston.org","slug":"our-primary-purpose","name":"Ipswich Big Book","day":0,"time":"18:00","types":["B","O"],"state":"MA","postal_code":"01938","city":"Ipswich","address":"45 Central St","latitude":42.6811409,"longitude":-70.8386825,"location":"Baptist Church","url":"https://aaboston.org/meetings/our-primary-purpose","timezone":"America/New_York"},{"feed":"aaboston.org","slug":"out-of-the-basement-big-book","name":"Out of the Basement Big Book","day":0,"time":"18:00","types":["B","O","X","XB"],"state":"MA","postal_code":"02116","city":"Boston","address":"15 Newbury St","latitude":42.3526225,"longitude":-71.0723869,"location":"Emmanuel Church","url":"https://aaboston.org/meetings/out-of-the-basement-big-book","timezone":"America/New_York"},{"feed":"aaboston.org","slug":"pass-it-on","name":"Pass It On","day":0,"time":"18:00","types":["D","O","SP","X","XB"],"state":"MA","postal_code":"01440","city":"Gardner","address":"135 Nichols St","latitude":42.5735759,"longitude":-71.9987933,"location":"Holy Rosary Church","url":"https://aaboston.org/meetings/pass-it-on","timezone":"America/New_York"},{"feed":"rhodeisland-aa.org","slug":"principles-before-personalites","name":"Principles Before Personalites","day":0,"time":"18:00","end_time":"19:00","types":["B","C","EN","X","XB"],"state":"MA","postal_code":"02703","city":"Attleboro","address":"505 N Main St","latitude":41.9572958,"longitude":-71.2872719,"location":"Murray Universalist Church","region":"Attleboro, MA","url":"https://rhodeisland-aa.org/archives/meetings/principles-before-personalites/","timezone":"America/New_York"},{"feed":"aaboston.org","slug":"principles-before-personalities-2","name":"Principles Before Personalities","day":0,"time":"18:00","types":["B","C"],"state":"MA","postal_code":"02703","city":"Attleboro","address":"505 N Main St","latitude":41.9572958,"longitude":-71.2872719,"location":"Murray Unitarian Universalist Church","url":"https://aaboston.org/meetings/principles-before-personalities-2","timezone":"America/New_York"},{"feed":"aaboston.org","slug":"sober-after-supper","name":"Sober After Supper","day":0,"time":"18:00","types":["B","C"],"state":"MA","postal_code":"01923","city":"Danvers","address":"46 Cherry St","latitude":42.5632546,"longitude":-70.9400978,"location":"All Saints Episcopal Church","url":"https://aaboston.org/meetings/sober-after-supper","timezone":"America/New_York"},{"feed":"capecodaa.net","slug":"spiritual-not-religious","name":"Spiritual Not Religious","day":0,"time":"18:00","end_time":"19:00","types":["D","O"],"state":"MA","postal_code":"02543","city":"Falmouth","address":"72 Water St","latitude":41.5242863,"longitude":-70.6706828,"location":"Woods Hole Old Firehouse","region":"Falmouth","url":"https://capecodaa.net/meetings/spiritual-not-religious/","timezone":"America/New_York"},{"feed":"aaboston.org","slug":"steps-to-serenity-2","name":"Steps To Serenity","day":0,"time":"18:00","types":["12x12","C","W"],"state":"MA","postal_code":"02032","city":"East Walpole","address":"55 Rhoades Ave","latitude":42.1597117,"longitude":-71.2144026,"location":"Union Congregational Church","url":"https://aaboston.org/meetings/steps-to-serenity-2","timezone":"America/New_York"},{"feed":"aaboston.org","slug":"sunday-6pm","name":"No Name","day":0,"time":"18:00","types":["12x12","O"],"state":"MA","postal_code":"02466","city":"Newton","address":"107 Charles St","latitude":42.3417888,"longitude":-71.2573117,"location":"The Shack","url":"https://aaboston.org/meetings/sunday-6pm","timezone":"America/New_York"},{"feed":"aaboston.org","slug":"village-beginners","name":"Village","day":0,"time":"18:00","types":["D","O","SP","X","XB"],"state":"MA","postal_code":"02026","city":"Dedham","address":"670 High St","latitude":42.2491608,"longitude":-71.1776785,"location":"First Church &amp; Parish","url":"https://aaboston.org/meetings/village-beginners","timezone":"America/New_York"},{"feed":"aaboston.org","slug":"westwood-new-beginners","name":"Westwood New Beginners","day":0,"time":"18:00","types":["D","BE","O"],"state":"MA","postal_code":"02090","city":"Westwood","address":"157 Washington St","latitude":42.223641,"longitude":-71.1875834,"location":"St. Denis Church","url":"https://aaboston.org/meetings/westwood-new-beginners","timezone":"America/New_York"},{"feed":"aaboston.org","slug":"women-helping-women-4","name":"Women Helping Women","day":0,"time":"18:00","types":["C","D","W","ONL"],"state":"MA","city":"Peabody","latitude":42.5278731,"longitude":-70.9286609,"location":"Online","url":"https://aaboston.org/meetings/women-helping-women-4","timezone":"America/New_York"},{"feed":"aaboston.org","slug":"you-are-not-alone-womens-zoom-7","name":"You Are Not Alone Women&#039;s Zoom","day":0,"time":"18:00","types":["D","O","W","ONL"],"state":"MA","city":"Orleans","latitude":41.7898354,"longitude":-69.9897323,"location":"Online","url":"https://aaboston.org/meetings/you-are-not-alone-womens-zoom-7","timezone":"America/New_York"},{"feed":"capecodaa.net","slug":"you-are-not-alone-womens-zoom-group-6","name":"You Are Not Alone Women's Zoom Group","day":0,"time":"18:00","end_time":"19:00","types":["D","O","ONL"],"state":"MA","postal_code":"02601","city":"Barnstable","address":"Hyannis","latitude":41.6524911,"longitude":-70.2881124,"location":"Hyannis, Barnstable, MA 02601, USA","region":"Hyannis","notes":"Zoom ID 86422872687\nPW 689077","conference_url":"https://zoom.us/j/86422872687","url":"https://capecodaa.net/meetings/you-are-not-alone-womens-zoom-group-6/","timezone":"America/New_York"},{"feed":"aaboston.org","slug":"naukeag","name":"Naukeag","day":0,"time":"18:15","types":["O","SP"],"state":"MA","postal_code":"01431","city":"Ashby","address":"47 Erickson Rd","latitude":42.6831964,"longitude":-71.8378584,"location":"Maja Hall","url":"https://aaboston.org/meetings/naukeag","timezone":"America/New_York"},{"feed":"aaboston.org","slug":"bb-step-study-3","name":"Big Book Step Study","day":0,"time":"18:30","types":["B","O","ST","X"],"state":"MA","postal_code":"01940","city":"Lynnfield","address":"708 Lowell St","latitude":42.5581763,"longitude":-71.0624487,"location":"Lutheran Church","url":"https://aaboston.org/meetings/bb-step-study-3","timezone":"America/New_York"},{"feed":"aaboston.org","slug":"big-book-step-study","name":"Big Book Step Study","day":0,"time":"18:30","types":["12x12","B","O"],"state":"MA","postal_code":"02360","city":"Plymouth","address":"149 Court St","latitude":41.9626314,"longitude":-70.6736736,"location":"Christ Church Parish Hall","url":"https://aaboston.org/meetings/big-book-step-study","timezone":"America/New_York"},{"feed":"aaboston.org","slug":"boiled-owls","name":"Boiled Owls","day":0,"time":"18:30","types":["D","O"],"state":"MA","postal_code":"01515","city":"East Brookfield","address":"267 E Main St","latitude":42.2261542,"longitude":-72.051307,"location":"Harrington Abuse Center","url":"https://aaboston.org/meetings/boiled-owls","timezone":"America/New_York"},{"feed":"aaboston.org","slug":"farm","name":"Farm","day":0,"time":"18:30","types":["D","O","ONL","TC"],"state":"MA","postal_code":"02186","city":"Milton","address":"158 Blue Hills Pkwy","latitude":42.261537,"longitude":-71.0930614,"location":"Parkway United Methodist Church","url":"https://aaboston.org/meetings/farm","timezone":"America/New_York"},{"feed":"aaboston.org","slug":"into-action","name":"Into Action","day":0,"time":"18:30","types":["B","O","X","XB"],"state":"MA","postal_code":"02446","city":"Brookline","address":"25 Monmouth St","latitude":42.3442332,"longitude":-71.1089691,"location":"Church of Our Saviour","url":"https://aaboston.org/meetings/into-action","timezone":"America/New_York"},{"feed":"aaboston.org","slug":"kitchen-table-aa","name":"Kitchen Table AA","day":0,"time":"18:30","types":["B","C","D"],"state":"MA","postal_code":"02067","city":"Sharon","address":"59 Cottage St","latitude":42.1174436,"longitude":-71.1723301,"location":"Our Lady of Sorrows Bullock Center","url":"https://aaboston.org/meetings/kitchen-table-aa","timezone":"America/New_York"},{"feed":"aaboston.org","slug":"mens-8","name":"Men&#039;s","day":0,"time":"18:30","types":["C","D","M","X"],"state":"MA","postal_code":"02043","city":"Hingham","address":"20 Fearing Rd","latitude":42.2436745,"longitude":-70.8906892,"location":"St. Paul&#039;s White House","url":"https://aaboston.org/meetings/mens-8","timezone":"America/New_York"},{"feed":"aaboston.org","slug":"milton-hospital-sundays-at-630-pm","name":"Women&#039;s Sunday Night Step","day":0,"time":"18:30","types":["12x12","C","ST","W","ONL","TC"],"state":"MA","postal_code":"02186","city":"Milton","address":"92 Highland St","latitude":42.251331,"longitude":-71.077158,"location":"Medical Center","url":"https://aaboston.org/meetings/milton-hospital-sundays-at-630-pm","timezone":"America/New_York"},