[{"feed":"baltimoreaa.org","slug":"columbia-dawn-patrol","name":"Columbia Dawn Patrol (Online)","day":0,"time":"06:00","types":["D","O","ONL"],"state":"MD","city":"Baltimore","latitude":39.2903848,"longitude":-76.6121893,"region":"Online Only","notes":"-Meeting ID: 947 132 2414\n- Passcode: 1212","conference_url":"https://us02web.zoom.us/j/9471322414","url":"https://baltimoreaa.org/meetings/columbia-dawn-patrol/","timezone":"America/New_York"},{"feed":"baltimoreaa.org","slug":"columbia-dawn-patrol-14","name":"Columbia Dawn Patrol","day":0,"time":"06:00","end_time":"07:00","types":["O"],"state":"MD","postal_code":"21045","city":"Columbia","address":"9231 Rumsey Rd","latitude":39.2347695,"longitude":-76.8244332,"location":"Alano Club","region":"Columbia","url":"https://baltimoreaa.org/meetings/columbia-dawn-patrol-14/","timezone":"America/New_York"},{"feed":"baltimoreaa.org","slug":"wake-up","name":"Wake-Up East","day":0,"time":"06:00","types":["D","O","X","ONL"],"state":"MD","postal_code":"21146","city":"Severna Park","address":"617 Baltimore Annapolis Blvd","latitude":39.0709089,"longitude":-76.5454589,"location":"Holy Grounds Youth Ctr.","region":"Severna Park","notes":"-Zoom meeting meets separately\n-Zoom Passcode: 111111\n-Meeting ID: 862 4262 7887","conference_url":"https://us02web.zoom.us/j/86242627887","url":"https://baltimoreaa.org/meetings/wake-up/","timezone":"America/New_York"},{"feed":"baltimoreaa.org","slug":"wake-up-west","name":"Wake Up West","day":0,"time":"06:00","types":["D","O"],"state":"MD","postal_code":"21146","city":"Severna Park","address":"579 Baltimore Annapolis Blvd","latitude":39.0737437,"longitude":-76.5458334,"location":"Park Books Place Community Center","region":"Severna Park","notes":"-Zoom and In-person are co-occurring, but separate.\n-Meeting ID: 873 158 153\n-Zoom Passcode: 8675309","url":"https://baltimoreaa.org/meetings/wake-up-west/","timezone":"America/New_York"},{"feed":"baltimoreaa.org","slug":"wake-up-world-2","name":"Wake Up World (Online)","day":0,"time":"06:00","end_time":"07:00","types":["DR","D","O","ONL"],"state":"MD","city":"Baltimore","latitude":39.2903848,"longitude":-76.6121893,"region":"Online Only","notes":"ID - 873158153\npwd - 8675309\nWe read from Daily Reflections, and we share.","conference_url":"https://us02web.zoom.us/j/873158153?pwd=Y0pKQ1JkYi9hLzBtOTJKcWUwbG51dz09","url":"https://baltimoreaa.org/meetings/wake-up-world-2/","timezone":"America/New_York"},{"feed":"aa-dc.org","slug":"came-to-believe-3","name":"Came to Believe","day":0,"time":"06:45","end_time":"07:45","types":["C","IPM"],"state":"MD","postal_code":"20770","city":"Greenbelt","address":"143 Centerway","latitude":39.0015997,"longitude":-76.8756364,"location":"Greenbelt Step Club","region":"Maryland","url":"https://aa-dc.org/meetings/came-to-believe-3","timezone":"America/New_York"},{"feed":"aa-dc.org","slug":"del-ray-sunrise-sobriety-sunday","name":"Sunrise Zoom","day":0,"time":"06:45","end_time":"07:45","types":["O","ONL"],"state":"MD","city":"Bethesda","latitude":38.984652,"longitude":-77.0947092,"location":"Bethesda","region":"Maryland","notes":"Zoom Meeting and Phone Passcode: 583713\nDial-in number: (301) 715-8592, Meeting ID: 82712135196\nPress *6 to mute/share, *9 to raise hand\nSee below for One Click Dial-in and/or Online Meeting links","conference_url":"https://zoom.us/j/82712135196#","url":"https://aa-dc.org/meetings/del-ray-sunrise-sobriety-sunday","group":"Global Sunrise Zoom","timezone":"America/New_York"},{"feed":"westcentralaa.org","slug":"early-bird-group","name":"Early Bird Group","day":0,"time":"06:45","end_time":"07:45","types":["O","ONL"],"state":"MD","city":"Frederick","latitude":39.4142688,"longitude":-77.4105409,"location":"Online","region":"Online Only","conference_url":"https://us04web.zoom.us/j/773703874","url":"https://westcentralaa.org/meetings/early-bird-group/","group":"Early Bird","timezone":"America/New_York"},{"feed":"aa-dc.org","slug":"greenbelt-step","name":"Came to Believe","day":0,"time":"06:45","types":["C","ONL"],"state":"MD","city":"Greenbelt","latitude":39.0045544,"longitude":-76.8755282,"location":"Greenbelt, MD","region":"Maryland","notes":"Zoom Meeting ID#: 919226699; Password: 061035\nDial-in number: (301) 715-8592;\nPress *6 to mute/share, *9 to raise hand\nSee below for One Click Dial-in and/or Online Meeting links","conference_url":"https://zoom.us/j/919226699","url":"https://aa-dc.org/meetings/greenbelt-step","group":"Greenbelt Step Club 6:45AM","timezone":"America/New_York"},{"feed":"hagerstownaa.org","slug":"on-awakening","name":"On Awakening","day":0,"time":"06:45","end_time":"07:45","types":["D","O","X"],"state":"MD","postal_code":"21740","city":"Hagerstown","address":"108 E Franklin St","latitude":39.642297,"longitude":-77.7165031,"location":"Otterbein United Methodist Church","region":"Hagerstown","notes":"Please bring your own literature, books available for sale.","url":"https://hagerstownaa.org/meetings/on-awakening/","timezone":"America/New_York"},{"feed":"aa-dc.org","slug":"sunrise-sobriety-in-person-5","name":"Sunrise Sobriety","day":0,"time":"06:45","end_time":"07:45","types":["O"],"state":"MD","postal_code":"20814","city":"Bethesda","address":"7611 Clarendon Rd","latitude":38.9867951,"longitude":-77.1003733,"location":"Bethesda Presbyterian Church - Del Ray Club","region":"Maryland","notes":"The Promises","url":"https://aa-dc.org/meetings/sunrise-sobriety-in-person-5","group":"Sunrise Sobriety","timezone":"America/New_York"},{"feed":"baltimoreaa.org","slug":"agape","name":"Agape Online","day":0,"time":"07:00","types":["D","O","ONL"],"state":"MD","city":"Baltimore","latitude":39.2903848,"longitude":-76.6121893,"region":"Online Only","notes":"Virtual Room ID: 813 1502 4996\nPassword: 196409","conference_url":"https://us04web.zoom.us/j/81315024996","url":"https://baltimoreaa.org/meetings/agape/","timezone":"America/New_York"},{"feed":"baltimoreaa.org","slug":"agape-live-2","name":"Agape Live","day":0,"time":"07:00","end_time":"08:00","types":["D","O","X"],"state":"MD","postal_code":"21204","city":"Towson","address":"1 Friends Ln","latitude":39.3927316,"longitude":-76.6232822,"location":"Sheppard Pratt, Gibson Bldg","region":"Towson","url":"https://baltimoreaa.org/meetings/agape-live-2/","timezone":"America/New_York"},{"feed":"baltimoreaa.org","slug":"captains-table-2","name":"Captain's Table (Online)","day":0,"time":"07:00","types":["O","SP","ONL"],"state":"MD","city":"Baltimore","latitude":39.2903848,"longitude":-76.6121893,"region":"Online Only","notes":"-Zoom Meeting ID: 555 518 9178\n-Zoom Passcode: 110516","conference_url":"https://zoom.us/j/5555189178","url":"https://baltimoreaa.org/meetings/captains-table-2/","timezone":"America/New_York"},{"feed":"baltimoreaa.org","slug":"captains-table-25","name":"Captain's Table","day":0,"time":"07:00","end_time":"08:00","types":["D","O"],"state":"MD","postal_code":"21286","city":"Towson","address":"8240 Loch Raven Blvd","latitude":39.3891159,"longitude":-76.5723856,"location":"Babcock Presbyterian Church","region":"Towson","url":"https://baltimoreaa.org/meetings/captains-table-25/","timezone":"America/New_York"},{"feed":"ndiaa.org","slug":"first-light-maryland-8","name":"First Light - Maryland","day":0,"time":"07:00","end_time":"08:00","state":"MD","postal_code":"21921","city":"Elkton","address":"227 Howard St","latitude":39.60934,"longitude":-75.8239497,"location":"Voices of Hope","url":"https://ndiaa.org/meetings/first-light-maryland-8/","timezone":"America/New_York"},{"feed":"aa-dc.org","slug":"on-awakening-group-7","name":"On Awakening Group","day":0,"time":"07:00","end_time":"08:00","types":["D","MED","O","ONL"],"state":"MD","city":"Silver Spring","latitude":38.9906657,"longitude":-77.026088,"location":"Silver Spring","region":"Maryland","notes":"Zoom Meeting and Passcode: 061520\nDial-in number (301) 715-8592 , Meeting ID: 81926448621\nPress *6 to mute/share, *9 to raise hand\nSee below for One Click Dial-in and/or Online Meeting links","conference_url":"https://us02web.zoom.us/j/81926448621?pwd=SGhXV3c2ZmxOZDZZRHlCVHlPemRpUT09","url":"https://aa-dc.org/meetings/on-awakening-group-7","group":"On Awakening","timezone":"America/New_York"},{"feed":"aa-dc.org","slug":"sunrise-at-cabin-john","name":"Pillars in the Park","day":0,"time":"07:00","end_time":"08:00","types":["IPM","O","OUT"],"state":"MD","postal_code":"20817","city":"Bethesda","address":"7400 Tuckerman Ln","latitude":39.0343536,"longitude":-77.1504655,"location":"Cabin John","region":"Maryland","url":"https://aa-dc.org/meetings/sunrise-at-cabin-john","timezone":"America/New_York"},{"feed":"baltimoreaa.org","slug":"westminster-fresh-start","name":"Westminster Fresh Start","day":0,"time":"07:00","end_time":"08:00","types":["DR","O","TOP"],"state":"MD","postal_code":"21157","city":"Westminster","address":"895 Leidy Rd","latitude":39.5600826,"longitude":-76.9654696,"location":"Crossroads Community Church","region":"Westminster","url":"https://baltimoreaa.org/meetings/westminster-fresh-start/","timezone":"America/New_York"},{"feed":"baltimoreaa.org","slug":"a-little-slice-of-heaven","name":"A Little Slice of Heaven (Online)","day":0,"time":"08:00","end_time":"09:00","types":["C","D","ONL"],"state":"MD","city":"Baltimore","latitude":39.2903848,"longitude":-76.6121893,"region":"Online Only","notes":"-Meeting ID: 871 4993 6129\n-Passcode: 123456","conference_url":"https://us02web.zoom.us/j/87149936129","url":"https://baltimoreaa.org/meetings/a-little-slice-of-heaven/","timezone":"America/New_York"},{"feed":"baltimoreaa.org","slug":"hopkins-7","name":"Hopkins (Online)","day":0,"time":"08:00","types":["D","O","X","ONL"],"state":"MD","city":"Baltimore","latitude":39.2903848,"longitude":-76.6121893,"region":"Online Only","notes":"-Meeting ID: 310 409 232","conference_url":"https://zoom.us/j/310409232","url":"https://baltimoreaa.org/meetings/hopkins-7/","timezone":"America/New_York"},{"feed":"aa-dc.org","slug":"new-beginnings-without-borders","name":"New Beginnings Without Borders","day":0,"time":"08:00","end_time":"09:00","types":["C","D","BE","ONL"],"state":"MD","city":"Silver Spring","latitude":38.9906657,"longitude":-77.026088,"location":"Silver Spring","region":"Maryland","notes":"Zoom Meeting ID: 87881644100; Passcode: 442873\nDial-in number (301) 715-8592\nPress *6 to mute/share, *9 to raise hand","conference_url":"https://us06web.zoom.us/j/87881644100?pwd=YvFBTbPWwxfKWTQPDyOPynDGMn12s8.1","url":"https://aa-dc.org/meetings/new-beginnings-without-borders","timezone":"America/New_York"},{"feed":"aa-dc.org","slug":"rockville-metro","name":"The Pink Cloud","day":0,"time":"08:00","types":["D","O","X","ONL"],"state":"MD","city":"Rockville","latitude":39.0839973,"longitude":-77.1527578,"location":"Rockville MD","region":"Maryland","notes":"Zoom Meeting and Phone Password: 003335\nDial-in number: (301) 715 8592, Meeting ID: 400982182#\nPress *6 to mute/share, *9 to raise hand\nSee below for One Click Dial-in and/or Online Meeting links","conference_url":"https://us02web.zoom.us/j/400982182","url":"https://aa-dc.org/meetings/rockville-metro","group":"Rockville Metro","timezone":"America/New_York"},{"feed":"baltimoreaa.org","slug":"sunday-hopkins-live","name":"Sunday Hopkins Live","day":0,"time":"08:00","end_time":"09:00","types":["D","O"],"state":"MD","postal_code":"21210","city":"Baltimore","address":"530 W University Pkwy","latitude":39.3376423,"longitude":-76.6250815,"location":"The Church of Christ","region":"Baltimore","url":"https://baltimoreaa.org/meetings/sunday-hopkins-live/","timezone":"America/New_York"},{"feed":"aa-dc.org","slug":"sunday-morning-breakfast-club","name":"Sunday Morning Breakfast Club","day":0,"time":"08:00","types":["H","D","O","ONL"],"state":"MD","city":"Silver Spring","latitude":38.9906657,"longitude":-77.026088,"location":"Silver Spring","region":"Maryland","notes":"Zoom Meeting ID#84954194008; Phone Password: 216297\nDial-in number: (301) 715-8592\nPress *6 to mute/share, *9 to raise hand\nSee below for One Click Dial-in and/or Online Meeting links","conference_url":"https://us02web.zoom.us/j/84954194008?pwd=Y8q9vWoJUbQF95bEMfoWm7KEWKiOBQ.1","url":"https://aa-dc.org/meetings/sunday-morning-breakfast-club","timezone":"America/New_York"},{"feed":"aa-dc.org","slug":"yacht-club","name":"Yacht Club","day":0,"time":"08:00","types":["ABSI","C"],"state":"MD","postal_code":"20874","city":"Germantown","address":"18301 Waring Station Rd","latitude":39.1561933,"longitude":-77.253604,"location":"Izaak Walton League","region":"Maryland","url":"https://aa-dc.org/meetings/yacht-club","timezone":"America/New_York"},{"feed":"aa-dc.org","slug":"180-degree-11th-step-candlelight","name":"180 Degree - 11th Step Candlelight","day":0,"time":"08:30","types":["O","ST"],"state":"MD","postal_code":"20781","city":"Hyattsville","address":"4318 Hamilton St","latitude":38.9537383,"longitude":-76.941181,"location":"180 Club","region":"Maryland","url":"https://aa-dc.org/meetings/180-degree-11th-step-candlelight","timezone":"America/New_York"},{"feed":"baltimoreaa.org","slug":"do-no-harm","name":"Do No Harm (HYBRID)","day":0,"time":"08:30","types":["HYB","X","ONL"],"state":"MD","postal_code":"21045","city":"Columbia","address":"9650 Basket Ring Rd","latitude":39.2139531,"longitude":-76.8459919,"location":"The Serenity Center","region":"Columbia","notes":"-Hybrid\n-Zoom Meeting ID: 882 3871 7683\n-Zoom Passcode: 609306","conference_url":"https://us02web.zoom.us/j/88238717683","url":"https://baltimoreaa.org/meetings/do-no-harm/","timezone":"America/New_York"},{"feed":"baltimoreaa.org","slug":"over-the-rainbow-23","name":"Over the Rainbow","day":0,"time":"08:30","types":["D","LIT","O","X"],"state":"MD","postal_code":"21221","city":"Essex","address":"6 N Taylor Ave","latitude":39.3086663,"longitude":-76.4767674,"location":"6 N. Taylor Avenue","region":"Essex","url":"https://baltimoreaa.org/meetings/over-the-rainbow-23/","timezone":"America/New_York"},{"feed":"westcentralaa.org","slug":"a-a-new-way-of-living-4","name":"A.A. New Way Of Living","day":0,"time":"08:45","end_time":"09:45","types":["O","SP","EN","ONL"],"state":"MD","postal_code":"21787","city":"Taneytown","latitude":39.6578773,"longitude":-77.1744279,"location":"Online","region":"Online Only","conference_url":"https://us04web.zoom.us/j/89942181956","url":"https://westcentralaa.org/meetings/a-a-new-way-of-living-4/","timezone":"America/New_York"},{"feed":"baltimoreaa.org","slug":"agape-2","name":"Agape Online","day":0,"time":"09:00","types":["D","O","X","ONL"],"state":"MD","city":"Baltimore","latitude":39.2903848,"longitude":-76.6121893,"region":"Online Only","notes":"-Meeting ID: 571 447 597\n-Zoom Passcode: 184479","conference_url":"https://us02web.zoom.us/j/571447597","url":"https://baltimoreaa.org/meetings/agape-2/","timezone":"America/New_York"},{"feed":"aa-dc.org","slug":"daily-reflections","name":"Daily Reflections","day":0,"time":"09:00","types":["C","D","IPM"],"state":"MD","postal_code":"20720","city":"Bowie","address":"8610 Railroad Ave","latitude":39.0080763,"longitude":-76.7801958,"location":"Unity Place","region":"Maryland","url":"https://aa-dc.org/meetings/daily-reflections","timezone":"America/New_York"},{"feed":"ocaa.org","slug":"happy-risers","name":"Happy Risers","day":0,"time":"09:00","types":["CF","O","X","XB"],"state":"MD","postal_code":"21842","city":"Ocean City","address":"11827 Ocean Gateway","latitude":38.3378473,"longitude":-75.1436385,"location":"Joan W. Jenkins Center/Atlantic Club","region":"Ocean City","notes":"Reads from 12 & 12\n\nStep, Tradtion","url":"https://ocaa.org/meetings/happy-risers","timezone":"America/New_York"},{"feed":"baltimoreaa.org","slug":"hunt-valley-sunday-morning","name":"Hunt Valley Sunday Morning","day":0,"time":"09:00","types":["D","O","X"],"state":"MD","postal_code":"21030","city":"Cockeysville","address":"1114 Shawan Rd","latitude":39.5031809,"longitude":-76.6856207,"location":"Balto. Co. Agriculture Ctr.","region":"Cockeysville","url":"https://baltimoreaa.org/meetings/hunt-valley-sunday-morning/","timezone":"America/New_York"},{"feed":"baltimoreaa.org","slug":"hunt-valley-sunday-online-only","name":"Hunt Valley Sunday ONLINE Only","day":0,"time":"09:00","end_time":"10:00","types":["D","ONL"],"state":"MD","latitude":39.0457549,"longitude":-76.6412712,"location":"Baltimore","region":"Online Only","notes":"Meeting ID: 882 0999 0642\nPasscode: sunrise","conference_url":"https://zoom.us/j/88209990642","url":"https://baltimoreaa.org/meetings/hunt-valley-sunday-online-only/","timezone":"America/New_York"},{"feed":"aa-dc.org","slug":"laurel-recovery","name":"Laurel Recovery","day":0,"time":"09:00","types":["11","C","ONL"],"state":"MD","city":"Laurel","latitude":39.0992752,"longitude":-76.8483061,"location":"Laurel","region":"Maryland","notes":"Zoom Meeting Passcode: ODAT2022: Phone Passcode: 19699472#\nDial-in number: (301) 715-8592, Meeting ID: 83369156023\nPress *6 to mute/share, *9 to raise hand\nSee below for One Click Dial-in and/or Online Meeting links","conference_url":"https://us02web.zoom.us/j/83369156023?pwd=bnFhSnhQQmVpNzlYTkpEUk5qNTZKUT09","url":"https://aa-dc.org/meetings/laurel-recovery","group":"Laurel Recovery Online Meetings","timezone":"America/New_York"},{"feed":"aa-dc.org","slug":"laurel-recovery-4","name":"Laurel Recovery","day":0,"time":"09:00","end_time":"10:00","types":["11","C","TC"],"state":"MD","postal_code":"20707","city":"Laurel","address":"368 Main St","latitude":39.1052836,"longitude":-76.8467908,"location":"Laurel Recovery","region":"Maryland","url":"https://aa-dc.org/meetings/laurel-recovery-4","group":"Laurel Recovery","timezone":"America/New_York"},{"feed":"baltimoreaa.org","slug":"sober-moms","name":"Sober Moms (Online)","day":0,"time":"09:00","end_time":"10:00","types":["O","SP","W","ONL"],"state":"MD","city":"Baltimore","latitude":39.2903848,"longitude":-76.6121893,"region":"Online Only","notes":"-Zoom meeting ID: 870 9288 2829\n-Password: serenity","conference_url":"https://zoom.us/j/87092882829","url":"https://baltimoreaa.org/meetings/sober-moms/","timezone":"America/New_York"},{"feed":"baltimoreaa.org","slug":"sunday-morning-alcohol-recovery","name":"Westminster Alcohol Recovery","day":0,"time":"09:00","end_time":"10:00","types":["D","O"],"state":"MD","postal_code":"21157","city":"Westminster","address":"320 Crest Ln","latitude":39.5447072,"longitude":-76.985762,"location":"Seventh Day Adventist Church","region":"Westminster","url":"https://baltimoreaa.org/meetings/sunday-morning-alcohol-recovery/","timezone":"America/New_York"},{"feed":"baltimoreaa.org","slug":"chance-to-grow","name":"Chance To Grow (HYBRID)","day":0,"time":"09:30","types":["D","HYB","O","ONL"],"state":"MD","postal_code":"21206","city":"Baltimore","address":"4414 Frankford Ave","latitude":39.3352741,"longitude":-76.5478974,"location":"St. Anthony's Church","region":"Hamilton","notes":"-Meeting ID: 892 5021 0368\n-Zoom Passcode: 174959","conference_url":"https://us04web.zoom.us/j/89250210368","url":"https://baltimoreaa.org/meetings/chance-to-grow/","timezone":"America/New_York"},{"feed":"hagerstownaa.org","slug":"fellowship-hall","name":"Fellowship Hall","day":0,"time":"09:30","types":["C","D"],"state":"MD","postal_code":"21740","city":"Hagerstown","address":"6 N Mulberry St","latitude":39.6402618,"longitude":-77.7159776,"location":"N Mulberry & E Washington","region":"Hagerstown","url":"https://hagerstownaa.org/meetings/fellowship-hall/","timezone":"America/New_York"},{"feed":"aa-dc.org","slug":"fireside-spirituality","name":"Fireside Spirituality","day":0,"time":"09:30","types":["C","ST"],"state":"MD","postal_code":"20841","city":"Boyds","address":"19510 White Ground Rd","latitude":39.1760418,"longitude":-77.3219652,"location":"The Old Negro School","region":"Maryland","url":"https://aa-dc.org/meetings/fireside-spirituality","timezone":"America/New_York"},{"feed":"baltimoreaa.org","slug":"grupo-tres-legados-8","name":"Grupo Tres Legados","day":0,"time":"09:30","end_time":"11:30","types":["D","O","X","S"],"state":"MD","postal_code":"21221","city":"Essex","address":"429 Eastern Blvd","latitude":39.3074739,"longitude":-76.4775944,"location":"Building","region":"Essex","url":"https://baltimoreaa.org/meetings/grupo-tres-legados-8/","timezone":"America/New_York"},{"feed":"baltimoreaa.org","slug":"mustard-seed","name":"Mustard Seed","day":0,"time":"09:45","end_time":"11:00","types":["D","O","X"],"state":"MD","postal_code":"21215","city":"Baltimore","address":"5224 Reisterstown Rd","latitude":39.3432943,"longitude":-76.6842865,"region":"Park Heights","url":"https://baltimoreaa.org/meetings/mustard-seed/","timezone":"America/New_York"},{"feed":"aa-dc.org","slug":"all-for-one-agnostics-aa-group","name":"All for One Agnostics AA Group","day":0,"time":"10:00","end_time":"11:00","types":["A","D","O","ONL"],"state":"MD","city":"Hyattsville","latitude":38.9559442,"longitude":-76.9455301,"location":"Hyattsville","region":"Maryland","notes":"Zoom Meeting ID: 89506974496, Zoom Meeting Passcode: A41\nDial-in number: (301) 715-8592, Meeting ID: 89506974496\nPress *6 to mute/share, *9 to raise hand\nSee below for One Click Dial-in and/or Online Meeting links","conference_url":"https://us02web.zoom.us/j/89506974496?pwd=Tsy4rP9hSKjmsWXgJ8OcincDbofe8F.1","url":"https://aa-dc.org/meetings/all-for-one-agnostics-aa-group","group":"All for One Agnostics AA Group","timezone":"America/New_York"},{"feed":"aa-dc.org","slug":"andrews","name":"Andrews","day":0,"time":"10:00","types":["IPM","O","ONL"],"state":"MD","postal_code":"20746","city":"Suitland","address":"6016 Allentown Rd","latitude":38.8061279,"longitude":-76.9032832,"location":"Bells United Methodist Church","region":"Maryland","notes":"Came to Believe\nUnified phone Meeting & In-Person\nDial-in number: (425) 436-6304, Access code: 445855#\nPress *6 to mute/share\nSee below for One Click Dial-in","url":"https://aa-dc.org/meetings/andrews","group":"Andrews Group","timezone":"America/New_York"},{"feed":"baltimoreaa.org","slug":"el-lenguaje-del-corazon-7","name":"El Grupo Lenguaje del Corazon","day":0,"time":"10:00","end_time":"12:00","types":["D","O","S"],"state":"MD","postal_code":"21061","city":"Glen Burnie","address":"7578 Ritchie Hwy","latitude":39.1590657,"longitude":-76.6209511,"location":"Building","region":"Glen Burnie","url":"https://baltimoreaa.org/meetings/el-lenguaje-del-corazon-7/","timezone":"America/New_York"},{"feed":"westcentralaa.org","slug":"keystone-group-spirituality-meeting","name":"Keystone Group - Spirituality Meeting","day":0,"time":"10:00","end_time":"11:00","types":["O","SP","X"],"state":"MD","postal_code":"21701","city":"Frederick","address":"205b Bucheimer Rd","latitude":39.4094665,"longitude":-77.3861771,"location":"The Club","region":"Frederick","url":"https://westcentralaa.org/meetings/keystone-group-spirituality-meeting/","timezone":"America/New_York"},{"feed":"aa-dc.org","slug":"nuevo-amanecer","name":"Nuevo Amanecer","day":0,"time":"10:00","types":["C","D","IPM","S"],"state":"MD","postal_code":"20850","city":"Rockville","address":"1085 Taft St","latitude":39.0931472,"longitude":-77.1363067,"location":"Grupo AA Nuevo Amanacer","region":"Maryland","url":"https://aa-dc.org/meetings/nuevo-amanecer","group":"Nuevo Amanecer","timezone":"America/New_York"},{"feed":"aa-dc.org","slug":"open-discussion-11","name":"Open Discussion","day":0,"time":"10:00","end_time":"11:00","types":["D","O"],"state":"MD","postal_code":"20781","city":"Hyattsville","address":"4318 Hamilton St","latitude":38.9537383,"longitude":-76.941181,"location":"180 Club","region":"Maryland","url":"https://aa-dc.org/meetings/open-discussion-11","timezone":"America/New_York"},{"feed":"baltimoreaa.org","slug":"phelps-luck-18","name":"Phelps Luck Online","day":0,"time":"10:00","end_time":"11:00","types":["D","LIT","O","ONL"],"state":"MD","latitude":39.0457549,"longitude":-76.6412712,"location":"Baltimore","region":"Online Only","notes":"-24 Hour a Day Book\n-Meeting ID: 910 6756 5136","conference_url":"https://us02web.zoom.us/j/91067565136","url":"https://baltimoreaa.org/meetings/phelps-luck-18/","timezone":"America/New_York"},{"feed":"baltimoreaa.org","slug":"phelps-luck-live-daily-reflections","name":"Phelps Luck - 24 Hours a Day","day":0,"time":"10:00","end_time":"11:00","types":["D","LIT","X"],"state":"MD","postal_code":"21045","city":"Columbia","address":"9231 Rumsey Rd","latitude":39.2347695,"longitude":-76.8244332,"location":"Alano Club","region":"Columbia","notes":"-24 Hour a Day Book","url":"https://baltimoreaa.org/meetings/phelps-luck-live-daily-reflections/","timezone":"America/New_York"},{"feed":"aa-dc.org","slug":"solo-por-hoy","name":"Solo Por Hoy","day":0,"time":"10:00","types":["C","D","S"],"state":"MD","postal_code":"20737","city":"Riverdale","address":"5811 Riverdale Rd","latitude":38.9591328,"longitude":-76.9164538,"location":"Solo por Hoy","region":"Maryland","url":"https://aa-dc.org/meetings/solo-por-hoy","group":"Solo Por Hoy","timezone":"America/New_York"},{"feed":"baltimoreaa.org","slug":"sunday-morning-big-book","name":"Sunday Morning Big Book","day":0,"time":"10:00","types":["B","C","D"],"state":"MD","postal_code":"21227","city":"Halethorpe","address":"901 Courtney Rd","latitude":39.2634717,"longitude":-76.7008592,"location":"The Church of the Holy Apostles and St. Stephen","region":"Halethorpe","notes":"-Doors open at 9:45 a.m.","url":"https://baltimoreaa.org/meetings/sunday-morning-big-book/","timezone":"America/New_York"},{"feed":"westcentralaa.org","slug":"sunday-morning-special-group","name":"Sunday Morning Special Group","day":0,"time":"10:00","end_time":"11:00","types":["C"],"state":"MD","postal_code":"21788","city":"Thurmont","address":"15601 Catoctin Mountain Hwy","latitude":39.6268374,"longitude":-77.3795925,"location":"Catoctin View 7th Day Adventist Church","region":"Thurmont","url":"https://westcentralaa.org/meetings/sunday-morning-special-group/","timezone":"America/New_York"},{"feed":"baltimoreaa.org","slug":"sunday-morning-sykesville","name":"Sunday Morning Sykesville","day":0,"time":"10:00","end_time":"11:00","types":["O","SP"],"state":"MD","postal_code":"21784","city":"Sykesville","address":"4th St","latitude":39.3858896,"longitude":-76.96229,"location":"Springfield Hospital","region":"Sykesville","url":"https://baltimoreaa.org/meetings/sunday-morning-sykesville/","timezone":"America/New_York"},{"feed":"aa-dc.org","slug":"sunday-morning-brunch-group","name":"Sunday Morning Brunch Group","day":0,"time":"10:15","end_time":"11:15","types":["LIT","O","X"],"state":"MD","postal_code":"20904","city":"Silver Spring","address":"1700 April Ln","latitude":39.0458019,"longitude":-76.9752874,"location":"White Oak Rec Center","region":"Maryland","notes":"Meeting is upstairs","url":"https://aa-dc.org/meetings/sunday-morning-brunch-group","timezone":"America/New_York"},{"feed":"aa-dc.org","slug":"del-ray-women-2","name":"Del Ray Women Steps","day":0,"time":"10:30","types":["D","O","ST","W","EN","ONL"],"state":"MD","city":"Bethesda","latitude":38.984652,"longitude":-77.0947092,"location":"Bethesda","region":"Maryland","notes":"Zoom Meeting ID#: 871 4658 3019; Passcode: 061970\nDial-in number: (301) 715-8592\nPress *6 to mute/share, *9 to raise hand\nSee below for One Click Dial-in and/or Online Meeting links","conference_url":"https://us02web.zoom.us/j/87146583019","url":"https://aa-dc.org/meetings/del-ray-women-2","timezone":"America/New_York"},{"feed":"baltimoreaa.org","slug":"in-gods-care","name":"In God's Care (Hybrid)","day":0,"time":"10:30","types":["11","D","HYB","O","ST","ONL"],"state":"MD","postal_code":"21045","city":"Columbia","address":"9650 Basket Ring Rd","latitude":39.2139531,"longitude":-76.8459919,"location":"The Serenity Center","region":"Columbia","notes":"-Meeting ID 898 0801 2013\n-Password 361741","conference_url":"https://us02web.zoom.us/j/89808012013?pwd=VVRnY2U3cmZDNmdlVU1pdHNwZ1lYUT09","url":"https://baltimoreaa.org/meetings/in-gods-care/","timezone":"America/New_York"},{"feed":"aa-dc.org","slug":"ladies-of-the-lot-steps-meeting","name":"Women's Step Meeting","day":0,"time":"10:30","types":["BE","O","ST","W"],"state":"MD","postal_code":"20814","city":"Bethesda","address":"7611 Clarendon Rd","latitude":38.9867951,"longitude":-77.1003733,"location":"Bethesda Presbyterian Church - Del Ray Club","region":"Maryland","url":"https://aa-dc.org/meetings/ladies-of-the-lot-steps-meeting","timezone":"America/New_York"},{"feed":"baltimoreaa.org","slug":"sunday-morning-agape","name":"Sunday Morning Agape","day":0,"time":"10:30","types":["D","O","X"],"state":"MD","postal_code":"21122","city":"Pasadena","address":"7859 Tick Neck Rd","latitude":39.1358088,"longitude":-76.5327479,"location":"St. Andrew's Episcopal Church","region":"Pasadena","url":"https://baltimoreaa.org/meetings/sunday-morning-agape/","timezone":"America/New_York"},{"feed":"aa-dc.org","slug":"tools-of-recovery","name":"Tools of Recovery","day":0,"time":"10:30","end_time":"11:30","types":["D","O"],"state":"MD","postal_code":"20770","city":"Greenbelt","address":"143 Centerway","latitude":39.0015997,"longitude":-76.8756364,"location":"Greenbelt Step Club","region":"Maryland","url":"https://aa-dc.org/meetings/tools-of-recovery","timezone":"America/New_York"},{"feed":"aa-dc.org","slug":"coffee-and-donut","name":"Virtual Coffee & Donuts","day":0,"time":"11:00","types":["D","O","ONL"],"state":"MD","postal_code":"20720","city":"Bowie","latitude":38.9855738,"longitude":-76.7855866,"location":"Bowie","region":"Maryland","notes":"Zoom Meeting Password: UnityCD20\nDial-in number: (929) 436-2866, Meeting ID#: 82992043391, Phone Password: 976587136\nPress *6 to mute/share, *9 to raise hand\nSee below for One Click Dial-in and/or Online Meeting links","conference_url":"https://us02web.zoom.us/j/82992043391?pwd=RHdpREtFL1U5SVlhbUhVWXZOUlBzUT09","url":"https://aa-dc.org/meetings/coffee-and-donut","timezone":"America/New_York"},{"feed":"aa-dc.org","slug":"coffee-and-donut-2","name":"Coffee and Donuts","day":0,"time":"11:00","types":["IPM","O","ST","Y"],"state":"MD","postal_code":"20720","city":"Bowie","address":"8610 Railroad Ave","latitude":39.0080763,"longitude":-76.7801958,"location":"Unity Place","region":"Maryland","url":"https://aa-dc.org/meetings/coffee-and-donut-2","timezone":"America/New_York"},{"feed":"baltimoreaa.org","slug":"evergreen","name":"Evergreen","day":0,"time":"11:00","types":["D","O","SP"],"state":"MD","postal_code":"21210","city":"Baltimore","address":"Loyola University Maryland : Alumni Memorial Chapel, 4501 N Charles St","latitude":39.3461942,"longitude":-76.62138,"location":"Knott Hall, Loyola College","region":"Govans/Rogers Forge","notes":"Due to scheduled building maintenance, on June 7, 2026, at 11:00 AM, that date only, the Evergreen Group will meet in Sellinger Hall, Room 008. Sellinger Hall is located one building down from our regular meeting room in Knott Hall.","url":"https://baltimoreaa.org/meetings/evergreen/","timezone":"America/New_York"},{"feed":"aa-dc.org","slug":"lesbian-book-study","name":"Lesbian Book Study","day":0,"time":"11:00","end_time":"12:00","types":["12x12","C","L","LIT","ONL"],"state":"MD","city":"Bethesda","latitude":38.984652,"longitude":-77.0947092,"location":"Bethesda","region":"Maryland","notes":"Participants are required to show themselves on video\nupon entrance so the host(s) can mitigate zoom bombing instances.\n\nZoom Meeting ID: 86507650164, Zoom meeting Passcode: sobriety!\n(There is no dial-in access to this meeting)","conference_url":"https://us06web.zoom.us/j/86507650164?pwd=rlebKteb6CZlQBZtR3SRZon4a4YF98.1","url":"https://aa-dc.org/meetings/lesbian-book-study","timezone":"America/New_York"},{"feed":"baltimoreaa.org","slug":"wyman-park-group","name":"Wyman Park Group","day":0,"time":"11:00","end_time":"12:00","types":["D","O","OUT"],"state":"MD","postal_code":"21211","city":"Baltimore","address":"3000 Huntingdon Ave","latitude":39.3225137,"longitude":-76.624529,"location":"Greater Faith Baptist Church","region":"Baltimore","notes":"Outdoor meeting. Go to playground around back of the church. **This address is used for an approximate location for Meeting Guide - does not meet at the church!** | Topic","url":"https://baltimoreaa.org/meetings/wyman-park-group/","timezone":"America/New_York"},{"feed":"aa-dc.org","slug":"user-friendly-mens","name":"Sunday Men's Step Meeting","day":0,"time":"11:15","types":["M","ST","ONL"],"state":"MD","postal_code":"20901","city":"Silver Spring","address":"1000 Forest Glen Rd","latitude":39.0177065,"longitude":-77.0263653,"location":"Schweinhaut Senior Center","region":"Maryland","notes":"Hybrid: Zoom Meeting ID: 5888506903, Passcode: AA1935.\nDial-in number: (301) 715-8592; Dial-in Passcode: 485364\nPress *6 to mute/share, *9 to raise hand\nSee below for One Click Dial-in and/or Online Meeting links","conference_url":"https://us02web.zoom.us/j/5888506903","url":"https://aa-dc.org/meetings/user-friendly-mens","timezone":"America/New_York"},{"feed":"baltimoreaa.org","slug":"gods-grace","name":"God's Grace","day":0,"time":"11:30","types":["D","O"],"state":"MD","postal_code":"21218","city":"Baltimore","address":"2613 N Calvert St","latitude":39.3198676,"longitude":-76.6140471,"location":"Chip House","region":"Waverly/Charles Village","url":"https://baltimoreaa.org/meetings/gods-grace/","timezone":"America/New_York"},{"feed":"aa-dc.org","slug":"laurel-recovery-women-2","name":"Laurel Recovery Women","day":0,"time":"11:30","end_time":"12:30","types":["C","D","W","TC"],"state":"MD","postal_code":"20707","city":"Laurel","address":"368 Main St","latitude":39.1052836,"longitude":-76.8467908,"location":"Laurel Recovery","region":"Maryland","url":"https://aa-dc.org/meetings/laurel-recovery-women-2","group":"Laurel Recovery","timezone":"America/New_York"},{"feed":"baltimoreaa.org","slug":"sunday-breakfast-at-857-club","name":"Sunday Morning Breakfast","day":0,"time":"11:30","end_time":"12:30","types":["D","NB","O"],"state":"MD","postal_code":"21224","city":"Baltimore","address":"100 S Haven St","latitude":39.291296,"longitude":-76.562973,"location":"857 Club","region":"Canton/Highlandtown","url":"https://baltimoreaa.org/meetings/sunday-breakfast-at-857-club/","timezone":"America/New_York"},{"feed":"baltimoreaa.org","slug":"agape-3","name":"Agape - Main Room","day":0,"time":"12:00","types":["D","O","X"],"state":"MD","postal_code":"21204","city":"Towson","address":"1 Friends Ln","latitude":39.3927316,"longitude":-76.6232822,"location":"Sheppard Pratt, Gibson Bldg","region":"Towson","url":"https://baltimoreaa.org/meetings/agape-3/","timezone":"America/New_York"},{"feed":"baltimoreaa.org","slug":"agape-36","name":"Agape - Small Room (ONLINE)","day":0,"time":"12:00","end_time":"13:00","types":["D","O","ONL","TC"],"state":"MD","postal_code":"21204","city":"Towson","address":"1 Friends Ln","latitude":39.3927316,"longitude":-76.6232822,"location":"Sheppard Pratt, Gibson Bldg","region":"Towson","notes":"ID: 848 4907 5311\nPassword: 545354","conference_url":"https://zoom.us/j/84849075311","url":"https://baltimoreaa.org/meetings/agape-36/","timezone":"America/New_York"},{"feed":"aa-dc.org","slug":"footprints-at-noon","name":"Footprints at Noon","day":0,"time":"12:00","end_time":"13:00","types":["C","D","BE","ONL"],"state":"MD","city":"Silver Spring","latitude":38.9906657,"longitude":-77.026088,"location":"Silver Spring","region":"Maryland","notes":"Zoom Meeting ID#: 89947485828: Passcode: 630598#\nDial-in number (301) 715-8592\nPress *6 to mute/share, *9 to raise hand","conference_url":"https://us06web.zoom.us/j/89947485828?pwd=wyaONBso3OwjzQTHSkb7sk9rtnzq6I.1","url":"https://aa-dc.org/meetings/footprints-at-noon","timezone":"America/New_York"},{"feed":"baltimoreaa.org","slug":"make-your-sobriety-sparkle","name":"Make Your Sobriety Sparkle (Online)","day":0,"time":"12:00","end_time":"13:00","types":["W","ONL"],"state":"MD","city":"Baltimore","latitude":39.2903848,"longitude":-76.6121893,"region":"Online Only","notes":"Meeting ID: 836 1334 9378\nPasscode: 159733","conference_url":"https://us06web.zoom.us/j/83613349378?pwd=OTB0azk1R2VPQXl2bTU1YTRZY0g5Zz09","url":"https://baltimoreaa.org/meetings/make-your-sobriety-sparkle/","timezone":"America/New_York"},{"feed":"aa-dc.org","slug":"open-discussion","name":"Open Discussion","day":0,"time":"12:00","types":["D","O"],"state":"MD","postal_code":"20781","city":"Hyattsville","address":"4318 Hamilton St","latitude":38.9537383,"longitude":-76.941181,"location":"180 Club","region":"Maryland","url":"https://aa-dc.org/meetings/open-discussion","timezone":"America/New_York"},{"feed":"baltimoreaa.org","slug":"s-o-s-liberty-road","name":"SOS Liberty Road (HYBRID)","day":0,"time":"12:00","types":["D","HYB","O","SP","X","ONL"],"state":"MD","postal_code":"21244","city":"Windsor Mill","address":"3605 Coronado Rd","latitude":39.3507655,"longitude":-76.747456,"location":"One God One Thought Center","region":"Windsor Mill","notes":"-Meeting ID: 759 3025 5756\n-Zoom Passcode: 110016\n\n**9/14/25 - Meeting has moved back to the original room at the rear of the building. Parking is in the rear and side of the building. Access to room is available at 11:30am on Sunday.","conference_url":"https://zoom.us/j/75930255756","url":"https://baltimoreaa.org/meetings/s-o-s-liberty-road/","timezone":"America/New_York"},{"feed":"baltimoreaa.org","slug":"secular-sunday","name":"Secular Sunday","day":0,"time":"12:00","types":["C","A","TR"],"state":"MD","postal_code":"21045","city":"Columbia","address":"9231 Rumsey Rd","latitude":39.2347695,"longitude":-76.8244332,"location":"Alano Club","region":"Columbia","url":"https://baltimoreaa.org/meetings/secular-sunday/","timezone":"America/New_York"},{"feed":"baltimoreaa.org","slug":"st-anthonys-midday-7","name":"St. Anthony's Midday","day":0,"time":"12:00","end_time":"13:00","types":["D","O"],"state":"MD","postal_code":"21206","city":"Baltimore","address":"4414 Frankford Ave","latitude":39.3352741,"longitude":-76.5478974,"location":"St. Anthony's Church","region":"Hamilton","notes":"-The meeting is in the Scout Room Annex building of the church on the side by the garages. Use the same parking lot as before.","url":"https://baltimoreaa.org/meetings/st-anthonys-midday-7/","timezone":"America/New_York"},{"feed":"baltimoreaa.org","slug":"un-nuevo-despertar-8","name":"Un Nuevo Despertar","day":0,"time":"12:00","end_time":"14:00","types":["D","BE","O","S"],"state":"MD","postal_code":"21231","city":"Baltimore","address":"230 S Broadway","latitude":39.2883091,"longitude":-76.5940024,"location":"Building","region":"Fells Point","url":"https://baltimoreaa.org/meetings/un-nuevo-despertar-8/","timezone":"America/New_York"},{"feed":"baltimoreaa.org","slug":"over-the-rainbow-3","name":"Over the Rainbow","day":0,"time":"12:30","types":["D","O","X"],"state":"MD","postal_code":"21221","city":"Essex","address":"6 N Taylor Ave","latitude":39.3086663,"longitude":-76.4767674,"location":"6 N. Taylor Avenue","region":"Essex","url":"https://baltimoreaa.org/meetings/over-the-rainbow-3/","timezone":"America/New_York"},{"feed":"aa-dc.org","slug":"primero-de-marzo","name":"Primero de Marzo","day":0,"time":"12:30","end_time":"14:30","types":["C","D","S"],"state":"MD","postal_code":"20783","city":"Hyattsville","address":"8020 New Hampshire Ave #105","latitude":38.9913509,"longitude":-76.9886529,"location":"Primero de Marzo","region":"Maryland","notes":"BSMT","url":"https://aa-dc.org/meetings/primero-de-marzo","timezone":"America/New_York"},{"feed":"aa-dc.org","slug":"del-ray-sunday-matinee","name":"Del Ray Beginners","day":0,"time":"13:00","types":["D","BE","O","ONL"],"state":"MD","city":"Bethesda","latitude":38.984652,"longitude":-77.0947092,"location":"Bethesda","region":"Maryland","notes":"Zoom Meeting ID#: 7134221222; Password: Sobriety\nDial-in number: (301) 715-8592, Phone passcode: 72295717\nPress *6 to mute/share, *9 to raise hand\nSee below for One Click Dial-in and/or Online Meeting links","conference_url":"https://us02web.zoom.us/j/7134221222","url":"https://aa-dc.org/meetings/del-ray-sunday-matinee","timezone":"America/New_York"},{"feed":"aa-dc.org","slug":"del-ray-sunday-matinee-2","name":"Del Ray Beginners","day":0,"time":"13:00","types":["D","BE","O"],"state":"MD","postal_code":"20814","city":"Bethesda","address":"7611 Clarendon Rd","latitude":38.9867951,"longitude":-77.1003733,"location":"Bethesda Presbyterian Church - Del Ray Club","region":"Maryland","url":"https://aa-dc.org/meetings/del-ray-sunday-matinee-2","timezone":"America/New_York"},{"feed":"westcentralaa.org","slug":"girls-that-get-it","name":"Girls That Get It","day":0,"time":"13:00","end_time":"14:00","types":["D","O","X","W"],"state":"MD","postal_code":"21701","city":"Frederick","address":"205b Bucheimer Rd","latitude":39.4094665,"longitude":-77.3861771,"location":"The Club","region":"Frederick","url":"https://westcentralaa.org/meetings/girls-that-get-it/","timezone":"America/New_York"},{"feed":"aa-dc.org","slug":"latinos-de-maryland","name":"Latinos de Maryland","day":0,"time":"13:00","end_time":"15:00","types":["IPM","O","S","SP"],"state":"MD","postal_code":"20877","city":"Gaithersburg","address":"28 S Frederick Ave","latitude":39.1398899,"longitude":-77.1971751,"location":"28 S Frederick Ave","region":"Maryland","url":"https://aa-dc.org/meetings/latinos-de-maryland","group":"Latinos de Maryland","timezone":"America/New_York"},{"feed":"baltimoreaa.org","slug":"lighthouse","name":"Lighthouse","day":0,"time":"13:30","types":["D","O"],"state":"MD","postal_code":"21228","city":"Catonsville","address":"6 Melvin Ave","latitude":39.2715885,"longitude":-76.7368085,"location":"Catonsville Methodist Church","region":"Catonsville","url":"https://baltimoreaa.org/meetings/lighthouse/","timezone":"America/New_York"},{"feed":"baltimoreaa.org","slug":"sunday-alano-club-2","name":"Sunday Hope","day":0,"time":"13:30","end_time":"14:30","types":["D","O"],"state":"MD","postal_code":"21045","city":"Columbia","address":"9231 Rumsey Rd","latitude":39.2347695,"longitude":-76.8244332,"location":"Alano Club","region":"Columbia","url":"https://baltimoreaa.org/meetings/sunday-alano-club-2/","timezone":"America/New_York"},{"feed":"westcentralaa.org","slug":"byoc-bring-your-own-coffee","name":"BYOC (Bring Your Own Coffee)","day":0,"time":"14:00","end_time":"15:00","types":["D","LIT","O","X"],"state":"MD","postal_code":"21701","city":"Frederick","address":"705 W Patrick St","latitude":39.4153722,"longitude":-77.4320823,"location":"Trinity United Methodist Church","region":"Frederick","notes":"Came To Believe, Living Sober\n(Coffee Served)","url":"https://westcentralaa.org/meetings/byoc-bring-your-own-coffee/","timezone":"America/New_York"},{"feed":"aa-dc.org","slug":"dios-no-ayudo","name":"Dios Nos Ayudo","day":0,"time":"14:00","types":["C","D","S"],"state":"MD","postal_code":"20707","city":"Laurel","address":"312 Second St","latitude":39.100867,"longitude":-76.8450909,"location":"312 Second","region":"Maryland","url":"https://aa-dc.org/meetings/dios-no-ayudo","group":"Dios Nos Ayudo","timezone":"America/New_York"},{"feed":"baltimoreaa.org","slug":"dios-nos-ayudo-7","name":"Dios Nos Ayudo","day":0,"time":"14:00","end_time":"15:00","types":["O","S"],"state":"MD","postal_code":"20707","city":"Laurel","address":"312 Second St","latitude":39.1008807,"longitude":-76.8451039,"location":"Millennium Hair","region":"Laurel","url":"https://baltimoreaa.org/meetings/dios-nos-ayudo-7/","timezone":"America/New_York"},{"feed":"aa-dc.org","slug":"rockville-metro-2","name":"Rockville Metro","day":0,"time":"14:00","end_time":"15:00","types":["H","O","SP","X","ONL"],"state":"MD","postal_code":"20850","city":"Rockville","address":"109 S Washington St","latitude":39.0823463,"longitude":-77.1531505,"location":"Christ Episcopal Church","region":"Maryland","notes":"Hybrid: In-person and zoom meeting are combined. Phone Password: 003335\nDial-in number: (301) 715 8592, Meeting ID: 400982182#\nPress *6 to mute/share, *9 to raise hand\nSee below for One Click Dial-in and/or Online Meeting links\nCLOSED CAPTION AVAILABLE UPON REQUEST","conference_url":"https://us02web.zoom.us/j/400982182","url":"https://aa-dc.org/meetings/rockville-metro-2","timezone":"America/New_York"},{"feed":"baltimoreaa.org","slug":"westminster-s-o-s","name":"Westminster S.O.S. (HYBRID)","day":0,"time":"14:30","end_time":"15:30","types":["D","HYB","BE","O","X","ONL"],"state":"MD","postal_code":"21157","city":"Westminster","address":"895 Leidy Rd","latitude":39.5600826,"longitude":-76.9654696,"location":"Crossroads Community Church","region":"Westminster","notes":"-Zoom Meeting ID: 209 006 5275\n-Zoom Passcode: fellowship","conference_url":"https://us02web.zoom.us/j/2090065275","url":"https://baltimoreaa.org/meetings/westminster-s-o-s/","timezone":"America/New_York"},{"feed":"baltimoreaa.org","slug":"language-of-the-heart-midtown","name":"Language of the Heart-Midtown Online","day":0,"time":"15:00","types":["D","O","X","ONL"],"state":"MD","city":"Baltimore","latitude":39.2903848,"longitude":-76.6121893,"region":"Online Only","notes":"-Meeting ID: 516 873 6381\nPassword Together","conference_url":"https://zoom.us/j/5168736381","url":"https://baltimoreaa.org/meetings/language-of-the-heart-midtown/","timezone":"America/New_York"},{"feed":"baltimoreaa.org","slug":"miracles-happen-1st-and-2nd-sundays-of-the-month-only","name":"Miracles Happen","day":0,"time":"15:00","end_time":"16:00","types":["12x12","BE","O","SP","ST","Y"],"state":"MD","postal_code":"21229","city":"Baltimore","address":"100 S Rock Glen Rd","latitude":39.2828677,"longitude":-76.7005731,"location":"Miracle City Church","region":"Baltimore","url":"https://baltimoreaa.org/meetings/miracles-happen-1st-and-2nd-sundays-of-the-month-only/","timezone":"America/New_York"},{"feed":"baltimoreaa.org","slug":"spiritually-sober","name":"Spiritually Sober","day":0,"time":"15:00","types":["D","O","X"],"state":"MD","postal_code":"21029","city":"Clarksville","address":"12101 Linden Linthicum Ln","latitude":39.2134105,"longitude":-76.9348444,"location":"Linden Linthicum Utd Meth Church","region":"Clarksville","url":"https://baltimoreaa.org/meetings/spiritually-sober/","timezone":"America/New_York"},{"feed":"baltimoreaa.org","slug":"grupo-tres-legados","name":"Grupo Tres Legados","day":0,"time":"16:00","types":["D","O","S","X"],"state":"MD","postal_code":"21221","city":"Essex","address":"429 Eastern Blvd","latitude":39.3074739,"longitude":-76.4775944,"location":"Building","region":"Essex","url":"https://baltimoreaa.org/meetings/grupo-tres-legados/","timezone":"America/New_York"},{"feed":"baltimoreaa.org","slug":"reencuentro-4","name":"Reencuentro","day":0,"time":"16:00","types":["D","O","S","X"],"state":"MD","postal_code":"21045","city":"Columbia","address":"9650 Basket Ring Rd","latitude":39.2139531,"longitude":-76.8459919,"location":"The Serenity Center","region":"Columbia","url":"https://baltimoreaa.org/meetings/reencuentro-4/","timezone":"America/New_York"},{"feed":"baltimoreaa.org","slug":"we-had-enough","name":"We Had Enough","day":0,"time":"16:00","end_time":"17:00","types":["CF","O","X"],"state":"MD","postal_code":"21205","city":"Baltimore","address":"501 N Caroline St","latitude":39.2963916,"longitude":-76.5971094,"location":"St. Phillip's Lutheran Church","region":"Baltimore","url":"https://baltimoreaa.org/meetings/we-had-enough/","timezone":"America/New_York"},{"feed":"baltimoreaa.org","slug":"the-elevator-is-broken-use-the-steps","name":"The Elevator is Broken-Use The Steps","day":0,"time":"16:30","types":["D","O","ST"],"state":"MD","postal_code":"21093","city":"Lutherville-Timonium","address":"216 W Seminary Ave","latitude":39.4214051,"longitude":-76.624898,"location":"St. John's United Methodist Church","region":"Lutherville/Timonium","notes":"-Chip\n-Meeting will be held in the upstairs hall (not wheelchair accessible).","url":"https://baltimoreaa.org/meetings/the-elevator-is-broken-use-the-steps/","timezone":"America/New_York"},{"feed":"baltimoreaa.org","slug":"mustard-seed-2","name":"Mustard Seed (Hybrid)","day":0,"time":"16:45","end_time":"18:00","types":["D","HYB","BE","O","X","ONL"],"state":"MD","postal_code":"21215","city":"Baltimore","address":"5224 Reisterstown Rd","latitude":39.3432943,"longitude":-76.6842865,"region":"Park Heights","notes":"Beg, Chip\n\nHybrid meeting ID: 637 232 6284","conference_url":"https://zoom.us/j/6372326284","url":"https://baltimoreaa.org/meetings/mustard-seed-2/","timezone":"America/New_York"},{"feed":"aa-dc.org","slug":"11-de-febrero","name":"11 de Febrero","day":0,"time":"17:00","types":["O","S","SP"],"state":"MD","postal_code":"20912","city":"Takoma Park","address":"6809 Red Top Rd","latitude":38.9742987,"longitude":-76.9907001,"location":"11 De Febrero","region":"Maryland","url":"https://aa-dc.org/meetings/11-de-febrero","group":"11 de Febrero","timezone":"America/New_York"},{"feed":"aa-dc.org","slug":"13-de-enero","name":"13 de Enero","day":0,"time":"17:00","types":["D","O","S"],"state":"MD","postal_code":"20895","city":"Kensington","address":"5030 Nicholson Ln","latitude":39.0463543,"longitude":-77.1034884,"location":"13 de Enero","region":"Maryland","url":"https://aa-dc.org/meetings/13-de-enero","group":"13 de Enero","timezone":"America/New_York"},{"feed":"baltimoreaa.org","slug":"break-the-chain","name":"Break The Chain (HYBRID)","day":0,"time":"17:00","types":["HYB","O","SP","ST","ONL"],"state":"MD","postal_code":"21201","city":"Baltimore","address":"25 W Preston St","latitude":39.3042369,"longitude":-76.6177412,"location":"Preston Hall","region":"Downtown Baltimore","notes":"Meeting ID: 881 3107 9754\n\nPasscode: 281789","conference_url":"https://us02web.zoom.us/j/88131079754?pwd=QN0YqnxqI31hyyYDbewnlPd2xPi2sI.1","url":"https://baltimoreaa.org/meetings/break-the-chain/","timezone":"America/New_York"},{"feed":"baltimoreaa.org","slug":"hopkins-8","name":"Hopkins (Online)","day":0,"time":"17:00","end_time":"18:00","types":["D","O","ONL"],"state":"MD","city":"Baltimore","latitude":39.2903848,"longitude":-76.6121893,"region":"Online Only","notes":"-Zoom Meeting ID: 310 409 232","conference_url":"https://zoom.us/j/310409232","url":"https://baltimoreaa.org/meetings/hopkins-8/","timezone":"America/New_York"},{"feed":"aa-dc.org","slug":"potomac-women","name":"Potomac Women","day":0,"time":"17:00","types":["C","D","ST","W","ONL"],"state":"MD","city":"Potomac","latitude":39.0181651,"longitude":-77.2085914,"location":"Potomac, MD","region":"Maryland","notes":"Step discussion on 1st Sunday only.\nZoom Meeting ID: 83460022597 ; Passcode: 610276\nDial-in number (301) 715-8592\nPress *6 to mute/share, *9 to raise hand\nSee below for One Click Dial-in and/or Online Meeting links","conference_url":"https://us02web.zoom.us/j/83460022597?pwd=NkU3SlV1U2pjbm9kWGVaTWM4MUVvZz09","url":"https://aa-dc.org/meetings/potomac-women","timezone":"America/New_York"},{"feed":"aa-dc.org","slug":"potomac-women-2","name":"Potomac Women","day":0,"time":"17:00","types":["C","D","W"],"state":"MD","postal_code":"20854","city":"Rockville","address":"11815 Seven Locks Rd","latitude":39.0502937,"longitude":-77.1630475,"location":"St. James Episcopal Church","region":"Maryland","url":"https://aa-dc.org/meetings/potomac-women-2","timezone":"America/New_York"},{"feed":"aa-dc.org","slug":"tenleytown-just-let-go","name":"Just Let Go","day":0,"time":"17:00","end_time":"18:00","types":["0","D","LIT","O","X"],"state":"MD","postal_code":"20816","city":"Bethesda","address":"1 Westmoreland Cir NW","latitude":38.9495526,"longitude":-77.1020406,"location":"Westmoreland Congregational Church","region":"Maryland","url":"https://aa-dc.org/meetings/tenleytown-just-let-go","timezone":"America/New_York"},{"feed":"westcentralaa.org","slug":"commuter-group","name":"5:15 Commuter Group","day":0,"time":"17:15","end_time":"18:15","types":["D","O","SP"],"state":"MD","postal_code":"21701","city":"Frederick","address":"115 W 2nd St","latitude":39.417029,"longitude":-77.4126451,"location":"Frederick Presbyterian Church","region":"Frederick","url":"https://westcentralaa.org/meetings/commuter-group/","group":"Commuter","timezone":"America/New_York"},{"feed":"ocaa.org","slug":"assateague-group","name":"Assateague Group","day":0,"time":"18:00","types":["CF","AL-AN","D","LIT","O","X","XB"],"state":"MD","postal_code":"21842","city":"Ocean City","address":"11827 Ocean Gateway","latitude":38.3378473,"longitude":-75.1436385,"location":"Joan W. Jenkins Center/Atlantic Club","region":"Ocean City","notes":"Reads from \u201cLiving Sober\u201d","url":"https://ocaa.org/meetings/assateague-group","timezone":"America/New_York"},{"feed":"aa-dc.org","slug":"del-ray-contingent","name":"Del Ray Contingent","day":0,"time":"18:00","types":["D","O","ONL"],"state":"MD","city":"Bethesda","latitude":38.984652,"longitude":-77.0947092,"location":"Bethesda","region":"Maryland","notes":"Zoom Meeting Password: Sobriety\nDial-in number: (301) 715-8592, Meeting ID#: 7134221222, Phone passcode: 72295717\nPress *6 to mute/share, *9 to raise hand\nSee below for One Click Dial-in and/or Online Meeting links","conference_url":"https://us02web.zoom.us/j/7134221222","url":"https://aa-dc.org/meetings/del-ray-contingent","group":"Del Ray 6PM","timezone":"America/New_York"},{"feed":"aa-dc.org","slug":"del-ray-contingent-in-person","name":"Del Ray Contingent","day":0,"time":"18:00","types":["D","O"],"state":"MD","postal_code":"20814","city":"Bethesda","address":"7611 Clarendon Rd","latitude":38.9867951,"longitude":-77.1003733,"location":"Bethesda Presbyterian Church - Del Ray Club","region":"Maryland","url":"https://aa-dc.org/meetings/del-ray-contingent-in-person","group":"Del Ray 6PM","timezone":"America/New_York"},{"feed":"hagerstownaa.org","slug":"fellowship-hall-2","name":"Fellowship Hall","day":0,"time":"18:00","types":["O","ST"],"state":"MD","postal_code":"21740","city":"Hagerstown","address":"6 N Mulberry St","latitude":39.6402618,"longitude":-77.7159776,"location":"N Mulberry & E Washington","region":"Hagerstown","notes":"Tradition study on 4th Sunday","url":"https://hagerstownaa.org/meetings/fellowship-hall-2/","timezone":"America/New_York"},{"feed":"baltimoreaa.org","slug":"meditation-on-the-hill-2","name":"Meditation on the Hill","day":0,"time":"18:00","end_time":"19:00","types":["B","D","O","X"],"state":"MD","postal_code":"21217","city":"Baltimore","address":"1316 Park Ave","latitude":39.3064936,"longitude":-76.6237659,"location":"Brown Memorial Presbyterian Church","region":"Bolton Hill","url":"https://baltimoreaa.org/meetings/meditation-on-the-hill-2/","timezone":"America/New_York"},{"feed":"hagerstownaa.org","slug":"new-paths-group","name":"New Paths Group","day":0,"time":"18:00","types":["D","O"],"state":"MD","postal_code":"21783","city":"Smithsburg","address":"13218 Brook Ln","latitude":39.6786144,"longitude":-77.6086404,"location":"Brook Lane Chapel","region":"Smithsburg","url":"https://hagerstownaa.org/meetings/new-paths-group/","timezone":"America/New_York"},{"feed":"westcentralaa.org","slug":"the-next-episode","name":"The Next Episode","day":0,"time":"18:00","end_time":"19:00","types":["GR","O","X"],"state":"MD","postal_code":"21701","city":"Frederick","address":"205b Bucheimer Rd","latitude":39.4094665,"longitude":-77.3861771,"location":"The Club","region":"Frederick","url":"https://westcentralaa.org/meetings/the-next-episode/","timezone":"America/New_York"},{"feed":"aa-dc.org","slug":"travilah-2","name":"Travilah","day":0,"time":"18:00","types":["BE","O","ST"],"state":"MD","postal_code":"20877","city":"Gaithersburg","address":"119 N Frederick Ave","latitude":39.1438695,"longitude":-77.200589,"location":"Grace Methodist Church","region":"Maryland","url":"https://aa-dc.org/meetings/travilah-2","group":"Into Action Group","timezone":"America/New_York"},{"feed":"baltimoreaa.org","slug":"triple-twelve-2","name":"Triple Twelve","day":0,"time":"18:00","end_time":"19:00","types":["D","O","ONL"],"state":"MD","city":"Baltimore","latitude":39.2903848,"longitude":-76.6121893,"region":"Online Only","notes":"-Meeting ID: 824 3669 4223\n-Zoom Passcode: 387968","conference_url":"https://us02web.zoom.us/j/82436694223?pwd=SXZSQVkyOG1TREtFb0dFRE96M0UrUT09","url":"https://baltimoreaa.org/meetings/triple-twelve-2/","timezone":"America/New_York"},{"feed":"aa-dc.org","slug":"veirs-mill","name":"Veirs Mill","day":0,"time":"18:00","end_time":"19:00","types":["BE","O","SP"],"state":"MD","postal_code":"20851","city":"Rockville","address":"1605 Veirs Mill Rd","latitude":39.0766783,"longitude":-77.1233929,"location":"Living Faith Lutheran Church","region":"Maryland","notes":"Celebration; Beginners meeting every other Sunday","url":"https://aa-dc.org/meetings/veirs-mill","timezone":"America/New_York"},{"feed":"baltimoreaa.org","slug":"arbutus-sunday-night","name":"Arbutus Sunday Night","day":0,"time":"18:30","end_time":"19:30","types":["D","O"],"state":"MD","postal_code":"21227","city":"Arbutus","address":"5421 East Dr","latitude":39.2479461,"longitude":-76.6935026,"location":"Matt's House Church","region":"Arbutus","url":"https://baltimoreaa.org/meetings/arbutus-sunday-night/","timezone":"America/New_York"},{"feed":"baltimoreaa.org","slug":"elkridge-sunday","name":"Elkridge Sunday","day":0,"time":"18:30","types":["D","O","ONL"],"state":"MD","city":"Baltimore","latitude":39.2903848,"longitude":-76.6121893,"region":"Online Only","notes":"-Zoom Meeting ID: 292 990 546","conference_url":"https://us04web.zoom.us/j/292990546","url":"https://baltimoreaa.org/meetings/elkridge-sunday/","timezone":"America/New_York"},{"feed":"baltimoreaa.org","slug":"getting-honest","name":"Getting Honest","day":0,"time":"18:30","types":["D","O","SP"],"state":"MD","postal_code":"21206","city":"Baltimore","address":"4414 Frankford Ave","latitude":39.3352741,"longitude":-76.5478974,"location":"St. Anthony's Church","region":"Hamilton","notes":"-Scout Room Annex building of the church on the side by the garages. Use the same parking lot as before.","url":"https://baltimoreaa.org/meetings/getting-honest/","timezone":"America/New_York"},{"feed":"baltimoreaa.org","slug":"keep-it-simple-group","name":"Keep It Simple 11th Step","day":0,"time":"18:30","types":["11","DB","D","HYB","MED","O","X","XB","ONL"],"state":"MD","postal_code":"21228","city":"Catonsville","address":"5820 Edmondson Ave","latitude":39.2820397,"longitude":-76.716592,"location":"Christian Temple Church","region":"Catonsville","notes":"-Use the front entrance of the church since the meeting has moved to the front of the church. Wheelchair ramp and bathrooms available\n-Zoom Meeting ID: 872 8916 2530\n-Zoom Passcode: 1959","conference_url":"https://zoom.us/j/87289162530","url":"https://baltimoreaa.org/meetings/keep-it-simple-group/","timezone":"America/New_York"},{"feed":"baltimoreaa.org","slug":"phelps-luck","name":"Phelps Luck - How It Works","day":0,"time":"18:30","types":["D","O","X"],"state":"MD","postal_code":"21045","city":"Columbia","address":"9231 Rumsey Rd","latitude":39.2347695,"longitude":-76.8244332,"location":"Alano Club","region":"Columbia","url":"https://baltimoreaa.org/meetings/phelps-luck/","timezone":"America/New_York"},{"feed":"baltimoreaa.org","slug":"putty-hill","name":"Putty Hill (HYBRID)","day":0,"time":"18:30","types":["D","HYB","O","SP","X","ONL"],"state":"MD","postal_code":"21286","city":"Towson","address":"8600 Loch Raven Blvd","latitude":39.3947569,"longitude":-76.5638659,"location":"Loch Raven Baptist Church","region":"Towson","notes":"-Zoom Meeting ID: 335 705 5297\n-Zoom Passcode: 417417","conference_url":"https://zoom.us/j/3357055297","url":"https://baltimoreaa.org/meetings/putty-hill/","timezone":"America/New_York"},{"feed":"baltimoreaa.org","slug":"a-brief-history-of-aa","name":"Big Book Study","day":0,"time":"19:00","end_time":"20:00","types":["D","LIT","O"],"state":"MD","postal_code":"21224","city":"Baltimore","address":"100 S Haven St","latitude":39.291296,"longitude":-76.562973,"location":"857 Club","region":"Canton/Highlandtown","notes":"-Meeting format is to read and discuss Big Book","url":"https://baltimoreaa.org/meetings/a-brief-history-of-aa/","timezone":"America/New_York"},{"feed":"baltimoreaa.org","slug":"abc","name":"ABC","day":0,"time":"19:00","types":["D","BE","O","ST","X"],"state":"MD","postal_code":"21218","city":"Baltimore","address":"3807 N Charles St","latitude":39.3354031,"longitude":-76.6175815,"location":"First English Lutheran Church","region":"Waverly/Charles Village","url":"https://baltimoreaa.org/meetings/abc/","timezone":"America/New_York"},{"feed":"baltimoreaa.org","slug":"agape-31","name":"Agape (HYBRID)","day":0,"time":"19:00","types":["D","HYB","LIT","O","X","ONL"],"state":"MD","postal_code":"21204","city":"Towson","address":"1 Friends Ln","latitude":39.3927316,"longitude":-76.6232822,"location":"Sheppard Pratt, Gibson Bldg","region":"Towson","notes":"-Grapevine\n-Zoom Meeting ID: 120 784 691","conference_url":"https://us04web.zoom.us/j/120784691","url":"https://baltimoreaa.org/meetings/agape-31/","timezone":"America/New_York"},{"feed":"aa-dc.org","slug":"andrews-3","name":"Andrews","day":0,"time":"19:00","types":["D","O","ONL"],"state":"MD","postal_code":"20746","city":"Suitland","latitude":38.8370963,"longitude":-76.9239727,"location":"Suitland","region":"Maryland","notes":"Dial-in number: (301) 715-8592, Meeting ID#: 2866016932; Passcode: aafg; Phone Passcode: 812950#\nPress *6 to mute/share\nSee below for One Click Dial-in","conference_url":"https://us02web.zoom.us/j/2866016932","url":"https://aa-dc.org/meetings/andrews-3","group":"Andrews Group","timezone":"America/New_York"},{"feed":"westcentralaa.org","slug":"by-the-book","name":"By the Book","day":0,"time":"19:00","end_time":"20:00","types":["O","ST"],"state":"MD","postal_code":"21771","city":"Mt Airy","address":"403 S Main St","latitude":39.3744338,"longitude":-77.1563354,"location":"Calvary United Methodist Church","region":"Mt. Airy","url":"https://westcentralaa.org/meetings/by-the-book/","timezone":"America/New_York"},{"feed":"baltimoreaa.org","slug":"by-the-book-mt-airy","name":"By The Book- Mt. Airy","day":0,"time":"19:00","end_time":"20:00","types":["O"],"state":"MD","postal_code":"21771","city":"Mt Airy","address":"403 S Main St","latitude":39.3744338,"longitude":-77.1563354,"location":"Calvary United Methodist Church","region":"Mt. Airy","url":"https://baltimoreaa.org/meetings/by-the-book-mt-airy/","timezone":"America/New_York"},{"feed":"baltimoreaa.org","slug":"catonsville-courage-to-change","name":"Catonsville Courage To Change","day":0,"time":"19:00","end_time":"20:00","types":["D","O","X","XB"],"state":"MD","postal_code":"21228","city":"Catonsville","address":"905 Frederick Rd","latitude":39.2708707,"longitude":-76.7357714,"location":"Salem Lutheran Church","region":"Catonsville","notes":"Wheelchair access with elevator, wheelchair accessible bathrooms","url":"https://baltimoreaa.org/meetings/catonsville-courage-to-change/","timezone":"America/New_York"},{"feed":"baltimoreaa.org","slug":"cowenton","name":"Cowenton","day":0,"time":"19:00","types":["O","SP"],"state":"MD","postal_code":"21162","city":"White Marsh","address":"10838 Red Lion Rd","latitude":39.3824479,"longitude":-76.4262318,"location":"Cowenton United Methodist Church","region":"White Marsh","url":"https://baltimoreaa.org/meetings/cowenton/","timezone":"America/New_York"},{"feed":"baltimoreaa.org","slug":"experience-strength-and-hope","name":"Experience, Strength, and Hope","day":0,"time":"19:00","types":["B","D","O","X"],"state":"MD","postal_code":"21120","city":"Parkton","address":"19200 York Rd","latitude":39.6512174,"longitude":-76.6547401,"location":"St. James Episcopal Church","region":"Parkton","url":"https://baltimoreaa.org/meetings/experience-strength-and-hope/","timezone":"America/New_York"},{"feed":"aa-dc.org","slug":"fe-y-accion-2","name":"Fe y Acci\u00f3n","day":0,"time":"19:00","end_time":"21:00","types":["IPM","O","S","SP"],"state":"MD","postal_code":"20910","city":"Silver Spring","address":"7930 Georgia Ave","latitude":38.9857531,"longitude":-77.0270524,"location":"Fe y Acci\u00f3n","region":"Maryland","url":"https://aa-dc.org/meetings/fe-y-accion-2","group":"Fe Y Acci\u00f3n","timezone":"America/New_York"},{"feed":"baltimoreaa.org","slug":"get-in-the-car","name":"Get In the Car","day":0,"time":"19:00","end_time":"20:00","types":["C","D"],"state":"MD","postal_code":"21222","city":"Baltimore","address":"6714 Youngstown Ave","latitude":39.2782576,"longitude":-76.531985,"location":"Graceland United Methodist Church","region":"Dundalk","url":"https://baltimoreaa.org/meetings/get-in-the-car/","timezone":"America/New_York"},{"feed":"baltimoreaa.org","slug":"gods-grace-2","name":"God's Grace","day":0,"time":"19:00","types":["D","O"],"state":"MD","postal_code":"21218","city":"Baltimore","address":"2613 N Calvert St","latitude":39.3198676,"longitude":-76.6140471,"location":"Chip House","region":"Waverly/Charles Village","url":"https://baltimoreaa.org/meetings/gods-grace-2/","timezone":"America/New_York"},{"feed":"baltimoreaa.org","slug":"grupo-la-ultima-copa-2","name":"Grupo La Ultima Copa","day":0,"time":"19:00","types":["O","D","S"],"state":"MD","postal_code":"21227","city":"Halethorpe","address":"1913 Lansdowne Rd l","latitude":39.2519841,"longitude":-76.6659969,"location":"1913 Lansdowne Road, Suite L","region":"Halethorpe","notes":"Spanish","url":"https://baltimoreaa.org/meetings/grupo-la-ultima-copa-2/","timezone":"America/New_York"},{"feed":"baltimoreaa.org","slug":"guide-to-recovery-12-step","name":"Guide to Recovery 12 Step","day":0,"time":"19:00","types":["D","O","ST"],"state":"MD","postal_code":"21224","city":"Baltimore","address":"2736 O'Donnell St","latitude":39.2804336,"longitude":-76.577156,"location":"St. Casimir's Meeting Room","region":"Canton/Highlandtown","url":"https://baltimoreaa.org/meetings/guide-to-recovery-12-step/","timezone":"America/New_York"},{"feed":"baltimoreaa.org","slug":"just-the-ink","name":"Just The Ink **NEW TEMPORARY LOCATION**","day":0,"time":"19:00","types":["D","O"],"state":"MD","postal_code":"21131","city":"Phoenix","address":"3701 Sweet Air Rd","latitude":39.512671,"longitude":-76.5499521,"location":"Chestnut Grove Presbyterian Church","region":"Jacksonville","url":"https://baltimoreaa.org/meetings/just-the-ink/","timezone":"America/New_York"},{"feed":"aa-dc.org","slug":"la-mesa-del-capitan-6","name":"La Mesa del Capitan","day":0,"time":"19:00","end_time":"21:00","types":["C","D","S","ONL"],"state":"MD","postal_code":"20910","city":"Silver Spring","address":"9419 Georgia Ave","latitude":39.0092272,"longitude":-77.0399625,"location":"La Mesa del Capitan","region":"Maryland","notes":"Virtual and Presencial - Hybrid Zoom Meeting ID: 8269085836\nPasscode: Capitan1","conference_url":"https://zoom.us/j/8269085836","url":"https://aa-dc.org/meetings/la-mesa-del-capitan-6","group":"La Mesa del Capitan","timezone":"America/New_York"},{"feed":"aa-dc.org","slug":"latinos-de-maryland-2","name":"Latinos de Maryland","day":0,"time":"19:00","end_time":"20:00","types":["D","BE","O","S"],"state":"MD","postal_code":"20877","city":"Gaithersburg","address":"28 S Frederick Ave","latitude":39.1398899,"longitude":-77.1971751,"location":"28 S Frederick Ave","region":"Maryland","url":"https://aa-dc.org/meetings/latinos-de-maryland-2","group":"Latinos de Maryland","timezone":"America/New_York"},{"feed":"hagerstownaa.org","slug":"leitersburg-group","name":"Leitersburg Group","day":0,"time":"19:00","types":["O","D"],"state":"MD","postal_code":"21742","city":"Hagerstown","address":"21513 Leitersburg Smithsburg Rd","latitude":39.6918265,"longitude":-77.6221315,"location":"St. Paul's Lutheran Church","region":"Leitersburg","url":"https://hagerstownaa.org/meetings/leitersburg-group/","timezone":"America/New_York"},{"feed":"aa-dc.org","slug":"men-in-recovery","name":"Men In Recovery","day":0,"time":"19:00","types":["B","LIT","M","O","ST"],"state":"MD","postal_code":"20854","city":"Potomac","address":"11931 Seven Locks Rd","latitude":39.0543104,"longitude":-77.1625796,"location":"Geneva Presbyterian Church","region":"Maryland","url":"https://aa-dc.org/meetings/men-in-recovery","timezone":"America/New_York"},{"feed":"aa-dc.org","slug":"mt-rainier","name":"Mt Rainier","day":0,"time":"19:00","end_time":"20:00","types":["C","ST","TR"],"state":"MD","postal_code":"20712","city":"Mt Rainier","address":"4001 33rd St","latitude":38.9384501,"longitude":-76.9617406,"location":"Emmanuel Seventh-Day Adventist Church","region":"Maryland","url":"https://aa-dc.org/meetings/mt-rainier","timezone":"America/New_York"},{"feed":"aa-dc.org","slug":"new-hope","name":"New Hope Steps 123","day":0,"time":"19:00","types":["C","ST","ONL"],"state":"MD","postal_code":"20721","city":"Bowie","address":"700 St Michaels Dr","latitude":38.8997091,"longitude":-76.8003154,"location":"St Michael's Church","region":"Maryland","notes":"Hybrid: In-person and zoom meeting are combined. Zoom Meeting ID: 99160484254\nZoom Passcode: 855602\nDial-in number 301-715-8592 , Meeting ID: 99360928491, Phone Passcode: 855602\nPress *6 to mute/share, *9 to raise hand\nSee below for One Click Dial-in and/or Online Meeting links","conference_url":"https://zoom.us/j/99160484254?pwd=MW5mK0pYVnFycmQxV21YMUVWQmxtdz09","url":"https://aa-dc.org/meetings/new-hope","timezone":"America/New_York"},{"feed":"aa-dc.org","slug":"new-meeting-sunday-700-pm","name":"Just 4-2 Day","day":0,"time":"19:00","end_time":"20:00","types":["O","SP","X"],"state":"MD","postal_code":"20853","city":"Rockville","address":"4629 Aspen Hill Rd","latitude":39.0758674,"longitude":-77.0939932,"location":"St John's Church","region":"Maryland","notes":"We will do \u201ccelebrations\u201d when available. If you want to celebrate on another day of the week, we also have \u201ccelebrations\u201d meeting on Monday\u2019s @ 8:30pm w/ cake provided. See a \u201chome-group\u201d member for more information. Hot coffee, tea, and sweets provided.","url":"https://aa-dc.org/meetings/new-meeting-sunday-700-pm","timezone":"America/New_York"},{"feed":"aa-dc.org","slug":"no-hard-terms","name":"No Hard Terms","day":0,"time":"19:00","types":["D","BE","O","ONL"],"state":"MD","city":"College Park","latitude":38.9896967,"longitude":-76.93776,"location":"College Park","region":"Maryland","notes":"Zoom Meeting and Phone Password: 399411\nDial-in number: (301) 715-8592, Meeting ID: 99576866908#\nPress *6 to mute/share, *9 to raise hand\nSee below for One Click Dial-in and/or Online Meeting links","conference_url":"https://zoom.us/j/99576866908?pwd=jngLthyGcQI0qjacSaJHcJ2jFme7mQ.1","url":"https://aa-dc.org/meetings/no-hard-terms","timezone":"America/New_York"},{"feed":"baltimoreaa.org","slug":"nu-women-2","name":"Nu Women","day":0,"time":"19:00","end_time":"20:00","types":["C","D","LIT","OUT","W"],"state":"MD","postal_code":"21204","city":"Towson","address":"7308 York Rd","latitude":39.3848822,"longitude":-76.6081127,"location":"Central Presbyterian Church","region":"Towson","notes":"The group will meet outside from May through October if the temperature is at least 65 degrees.","url":"https://baltimoreaa.org/meetings/nu-women-2/","timezone":"America/New_York"},{"feed":"aa-dc.org","slug":"nueva-ilusion","name":"Nueva Ilusion","day":0,"time":"19:00","types":["O","S","SP"],"state":"MD","postal_code":"20748","city":"Temple Hills","address":"6505 Old Branch Ave","latitude":38.7999884,"longitude":-76.9038051,"location":"Nueva Ilusion","region":"Maryland","url":"https://aa-dc.org/meetings/nueva-ilusion","group":"Nueva Ilusion","timezone":"America/New_York"},{"feed":"aa-dc.org","slug":"nuevo-amanecer-2","name":"Nuevo Amanecer","day":0,"time":"19:00","types":["C","D","IPM","S"],"state":"MD","postal_code":"20850","city":"Rockville","address":"1085 Taft St","latitude":39.0931472,"longitude":-77.1363067,"location":"Grupo AA Nuevo Amanacer","region":"Maryland","url":"https://aa-dc.org/meetings/nuevo-amanecer-2","group":"Nuevo Amanecer","timezone":"America/New_York"},{"feed":"baltimoreaa.org","slug":"personality-change-new-meeting-starting-march-16","name":"Personality Change","day":0,"time":"19:00","end_time":"20:00","types":["D","O","SP"],"state":"MD","postal_code":"21202","city":"Baltimore","address":"1029 E Baltimore St","latitude":39.2904962,"longitude":-76.6021128,"location":"Helping Up Mission","region":"Downtown Baltimore","url":"https://baltimoreaa.org/meetings/personality-change-new-meeting-starting-march-16/","timezone":"America/New_York"},{"feed":"westcentralaa.org","slug":"primary-purpose","name":"Primary Purpose","day":0,"time":"19:00","end_time":"20:00","types":["O","ST"],"state":"MD","postal_code":"21769","city":"Middletown","address":"107 W Main St","latitude":39.444208,"longitude":-77.5470719,"location":"Zion Lutheran Church","region":"Middletown","url":"https://westcentralaa.org/meetings/primary-purpose/","timezone":"America/New_York"},{"feed":"baltimoreaa.org","slug":"retread","name":"Retread","day":0,"time":"19:00","end_time":"20:00","types":["BE","O","ST"],"state":"MD","postal_code":"21219","city":"Sparrows Point","address":"3011 Ross Ave","latitude":39.2407698,"longitude":-76.4493916,"location":"Edgemere Bible Church","region":"Sparrows Point","notes":"-Beginner's Step meeting","url":"https://baltimoreaa.org/meetings/retread/","timezone":"America/New_York"},{"feed":"aa-dc.org","slug":"solo-por-hoy-2","name":"Solo Por Hoy","day":0,"time":"19:00","types":["O","S","SP"],"state":"MD","postal_code":"20737","city":"Riverdale","address":"5811 Riverdale Rd","latitude":38.9591328,"longitude":-76.9164538,"location":"Solo por Hoy","region":"Maryland","url":"https://aa-dc.org/meetings/solo-por-hoy-2","group":"Solo Por Hoy","timezone":"America/New_York"},{"feed":"baltimoreaa.org","slug":"south-carroll-sunday-night","name":"South Carroll Sunday Night","day":0,"time":"19:00","end_time":"20:00","types":["B","D","O"],"state":"MD","postal_code":"21771","city":"Mt Airy","address":"2927 Gillis Falls Rd","latitude":39.4032615,"longitude":-77.0984666,"location":"Mt. Olive United Methodist Church","region":"Mt. Airy","url":"https://baltimoreaa.org/meetings/south-carroll-sunday-night/","timezone":"America/New_York"},{"feed":"baltimoreaa.org","slug":"texas-7","name":"Texas","day":0,"time":"19:00","end_time":"20:00","types":["D","O","SP"],"state":"MD","postal_code":"21030","city":"Cockeysville","address":"7 Galloway Ave","latitude":39.4605389,"longitude":-76.6359916,"location":"Texas United Methodist Church","region":"Cockeysville","notes":"Steps 1,2,3","url":"https://baltimoreaa.org/meetings/texas-7/","timezone":"America/New_York"},{"feed":"baltimoreaa.org","slug":"twenty-four-hours","name":"Twenty Four Hours","day":0,"time":"19:00","types":["D","O"],"state":"MD","postal_code":"21221","city":"Essex","address":"1131 Mace Ave","latitude":39.326466,"longitude":-76.469228,"location":"Holy Trinity Episcopal Church","region":"Essex","url":"https://baltimoreaa.org/meetings/twenty-four-hours/","timezone":"America/New_York"},{"feed":"baltimoreaa.org","slug":"twenty-four-hours-online","name":"Twenty Four Hours Online","day":0,"time":"19:00","end_time":"20:00","types":["D","O","ONL"],"state":"MD","latitude":39.0457549,"longitude":-76.6412712,"location":"Baltimore","region":"Online Only","notes":"Meeting ID: 570 356 9300\nPasscode: 24hrgp\n\nAn in-person meets at the same time, but separately","conference_url":"https://zoom.us/j/5703569300","url":"https://baltimoreaa.org/meetings/twenty-four-hours-online/","timezone":"America/New_York"},{"feed":"baltimoreaa.org","slug":"un-nuevo-despertar","name":"Un Nuevo Despertar","day":0,"time":"19:00","types":["O","D","S"],"state":"MD","postal_code":"21231","city":"Baltimore","address":"230 S Broadway","latitude":39.2883091,"longitude":-76.5940024,"location":"Building","region":"Fells Point","notes":"Spanish","url":"https://baltimoreaa.org/meetings/un-nuevo-despertar/","timezone":"America/New_York"},{"feed":"aa-dc.org","slug":"young-people","name":"Young People","day":0,"time":"19:00","end_time":"20:00","types":["D","IPM","O","Y"],"state":"MD","postal_code":"20720","city":"Bowie","address":"8610 Railroad Ave","latitude":39.0080763,"longitude":-76.7801958,"location":"Unity Place","region":"Maryland","url":"https://aa-dc.org/meetings/young-people","timezone":"America/New_York"},{"feed":"baltimoreaa.org","slug":"mustard-seed-3","name":"Mustard Seed","day":0,"time":"19:15","end_time":"20:30","types":["D","O","X","ONL"],"state":"MD","postal_code":"21215","city":"Baltimore","address":"5224 Reisterstown Rd","latitude":39.3432943,"longitude":-76.6842865,"region":"Park Heights","notes":"-Virtual co-occurring, but separate","conference_url":"https://zoom.us/j/6372326284","url":"https://baltimoreaa.org/meetings/mustard-seed-3/","timezone":"America/New_York"},{"feed":"baltimoreaa.org","slug":"mustard-seed-online-4","name":"Mustard Seed (Online)","day":0,"time":"19:15","end_time":"20:30","types":["D","HYB","LIT","BE","NB","O","ONL"],"state":"MD","city":"Baltimore","latitude":39.2903848,"longitude":-76.6121893,"region":"Online Only","notes":"-Virtual co-occurring, but separate","conference_url":"https://zoom.us/j/6372326284","url":"https://baltimoreaa.org/meetings/mustard-seed-online-4/","timezone":"America/New_York"},{"feed":"aa-dc.org","slug":"as-bill-sees-it","name":"As Bill Sees It","day":0,"time":"19:30","end_time":"20:30","types":["ABSI","O"],"state":"MD","postal_code":"20781","city":"Hyattsville","address":"4318 Hamilton St","latitude":38.9537383,"longitude":-76.941181,"location":"180 Club","region":"Maryland","url":"https://aa-dc.org/meetings/as-bill-sees-it","timezone":"America/New_York"},{"feed":"westcentralaa.org","slug":"bottomless","name":"Bottomless","day":0,"time":"19:30","end_time":"20:30","types":["C","LIT"],"state":"MD","postal_code":"21710","city":"Adamstown","address":"5603 Mountville Rd","latitude":39.3095204,"longitude":-77.4734038,"location":"Adamstown Community Church","region":"Adamstown","url":"https://westcentralaa.org/meetings/bottomless/","timezone":"America/New_York"},{"feed":"aa-dc.org","slug":"clinton","name":"Clinton Sunday Night","day":0,"time":"19:30","types":["LIT","LS","O"],"state":"MD","postal_code":"20735","city":"Clinton","address":"8710 Old Branch Ave","latitude":38.7692966,"longitude":-76.8996553,"location":"Christ Episcopal Church","region":"Maryland","url":"https://aa-dc.org/meetings/clinton","timezone":"America/New_York"},{"feed":"aa-dc.org","slug":"del-ray-woodmont-4","name":"Del Ray Woodmont","day":0,"time":"19:30","end_time":"20:30","types":["D","O"],"state":"MD","postal_code":"20814","city":"Bethesda","address":"7611 Clarendon Rd","latitude":38.9867951,"longitude":-77.1003733,"location":"Bethesda Presbyterian Church - Del Ray Club","region":"Maryland","url":"https://aa-dc.org/meetings/del-ray-woodmont-4","group":"Del Ray 8:30 PM","timezone":"America/New_York"},{"feed":"westcentralaa.org","slug":"downtown-step-group","name":"Downtown Step Group","day":0,"time":"19:30","end_time":"20:30","types":["O","ST"],"state":"MD","postal_code":"21701","city":"Frederick","address":"118 E 2nd St","latitude":39.4159904,"longitude":-77.4076226,"location":"St John the Evangelist Roman Catholic Church","region":"Frederick","notes":"Through the parking lot behind the church. Lower level of adjacent building. Down three steps into a brick paved outdoor 'corridor'. Meeting is at the end through the door on the left.","url":"https://westcentralaa.org/meetings/downtown-step-group/","timezone":"America/New_York"},{"feed":"aa-dc.org","slug":"happy-joyous-and-free-young-peoples-group","name":"Happy Joyous and Free Young People's Group","day":0,"time":"19:30","end_time":"20:30","types":["O","Y","ONL"],"state":"MD","city":"Silver Spring","latitude":38.9906657,"longitude":-77.026088,"location":"Silver Spring","region":"Maryland","notes":"Zoom Meeting Password: hjfypg\nDial-in number: (301) 715-8592, Meeting ID: 590249771#\nPress *6 to mute/share, *9 to raise hand\nSee below for One Click Dial-in and/or Online Meeting links","conference_url":"https://us04web.zoom.us/j/590249771","url":"https://aa-dc.org/meetings/happy-joyous-and-free-young-peoples-group","timezone":"America/New_York"},{"feed":"aa-dc.org","slug":"laurel-recovery-plain-language-big-book","name":"Laurel Recovery Plain Language Big Book","day":0,"time":"19:30","end_time":"20:30","types":["B","D","O","ONL"],"state":"MD","city":"Laurel","latitude":39.0992752,"longitude":-76.8483061,"location":"Laurel","region":"Maryland","notes":"Zoom Meeting Passcode: ODAT2022: Phone Passcode: 19699472#\nDial-in number: (301) 715-8592, Meeting ID: 83369156023\nPress *6 to mute/share, *9 to raise hand\nSee below for One Click Dial-in and/or Online Meeting links","conference_url":"https://us02web.zoom.us/j/83369156023?pwd=bnFhSnhQQmVpNzlYTkpEUk5qNTZKUT09","url":"https://aa-dc.org/meetings/laurel-recovery-plain-language-big-book","group":"Laurel Recovery Online Meetings","timezone":"America/New_York"},{"feed":"aa-dc.org","slug":"midtown","name":"Midtown","day":0,"time":"19:30","end_time":"21:00","types":["H","BE","O","SP","ONL"],"state":"MD","postal_code":"20895","city":"Kensington","address":"4001 Franklin St","latitude":39.0185829,"longitude":-77.0787812,"location":"Christ Episcopal Church","region":"Maryland","notes":"Anniversary\nHybrid: In-person and zoom meeting is combined. Password: midtown\nDial-in number: (301) 715-8592, Meeting ID: 312111011, Phone Password: 064136#","conference_url":"https://zoom.us/j/312111011?pwd=cWpjWDRZR1ZHRGlLOVpCR1VQWjRIdz09","url":"https://aa-dc.org/meetings/midtown","timezone":"America/New_York"},{"feed":"aa-dc.org","slug":"nueva-vida","name":"Nueva Vida","day":0,"time":"19:30","end_time":"21:30","types":["C","D","S"],"state":"MD","postal_code":"20877","city":"Gaithersburg","address":"615 S Frederick Ave","latitude":39.1292495,"longitude":-77.1856749,"location":"Nueva Vida","region":"Maryland","url":"https://aa-dc.org/meetings/nueva-vida","group":"Nueva Vida","timezone":"America/New_York"},{"feed":"baltimoreaa.org","slug":"old-lutherville","name":"Old Lutherville (HYBRID)","day":0,"time":"19:30","end_time":"20:30","types":["D","HYB","O","ONL"],"state":"MD","postal_code":"21204","city":"Towson","address":"120 Allegheny Ave","latitude":39.4023285,"longitude":-76.605934,"location":"Trinity Episcopal Church","region":"Towson","notes":"-Bathrooms available\n-Zoom Meeting ID: 835 7033 1679\n-Zoom Passcode: 345678","conference_url":"https://us02web.zoom.us/j/83570331679","url":"https://baltimoreaa.org/meetings/old-lutherville/","timezone":"America/New_York"},{"feed":"baltimoreaa.org","slug":"queer-ideas-of-fun","name":"Queer Ideas of Fun","day":0,"time":"19:30","end_time":"20:30","types":["D","LGBTQ","NB","O","T","X","EN"],"state":"MD","postal_code":"21211","city":"Baltimore","address":"2631 Huntingdon Ave","latitude":39.3197602,"longitude":-76.6216754,"location":"Church of the Guardian Angel","region":"Hampden","url":"https://baltimoreaa.org/meetings/queer-ideas-of-fun/","timezone":"America/New_York"},{"feed":"baltimoreaa.org","slug":"riviera-beach","name":"Riviera Beach","day":0,"time":"19:30","types":["D","O"],"state":"MD","postal_code":"21122","city":"Riviera Beach","address":"8499 Virginia Ave","latitude":39.1610381,"longitude":-76.5120963,"location":"St. Jane Frances Church","region":"Pasadena","url":"https://baltimoreaa.org/meetings/riviera-beach/","timezone":"America/New_York"},{"feed":"westcentralaa.org","slug":"sunday-evening-with-the-big-book","name":"Sunday Evening with the Big Book","day":0,"time":"19:30","end_time":"20:30","types":["B","O"],"state":"MD","postal_code":"20872","city":"Damascus","address":"9700 New Church St","latitude":39.285597,"longitude":-77.1996411,"location":"Damascus United Methodist Church","region":"Damascus","url":"https://westcentralaa.org/meetings/sunday-evening-with-the-big-book/","timezone":"America/New_York"},{"feed":"westcentralaa.org","slug":"uptown-downtown","name":"Uptown-Downtown","day":0,"time":"19:30","end_time":"20:30","types":["B","O","ST","ONL"],"state":"MD","city":"Damascus","latitude":39.2884381,"longitude":-77.2038716,"location":"Online","region":"Online Only","conference_url":"https://us04web.zoom.us/j/81776580393","url":"https://westcentralaa.org/meetings/uptown-downtown/","timezone":"America/New_York"},{"feed":"aa-dc.org","slug":"uptowndowntown","name":"Uptown/Downtown","day":0,"time":"19:30","end_time":"20:30","types":["B","O","ONL"],"state":"MD","postal_code":"20872","city":"Damascus","latitude":39.286427,"longitude":-77.2290193,"location":"Damascus","region":"Maryland","notes":"Zoom Meeting Passcode: 039256\nDial-in number: (301) 715-8592, Meeting ID: 81776580393#\nPress *6 to mute/share, *9 to raise hand\nSee below for One Click Dial-in and/or Online Meeting links","conference_url":"https://us02web.zoom.us/j/81776580393","url":"https://aa-dc.org/meetings/uptowndowntown","timezone":"America/New_York"},{"feed":"aa-dc.org","slug":"bethesda-youth","name":"Bethesda Youth","day":0,"time":"20:00","end_time":"21:00","types":["D","O","X"],"state":"MD","postal_code":"20814","city":"Bethesda","address":"6030 Grosvenor Ln","latitude":39.0221275,"longitude":-77.1222692,"location":"St Luke's Episcopal","region":"Maryland","url":"https://aa-dc.org/meetings/bethesda-youth","timezone":"America/New_York"},{"feed":"baltimoreaa.org","slug":"bond-green","name":"Bond & Green","day":0,"time":"20:00","end_time":"21:00","types":["O","ST"],"state":"MD","postal_code":"21157","city":"Westminster","address":"17 Bond St","latitude":39.5755765,"longitude":-76.9982336,"location":"St. Paul's Church of Christ","region":"Westminster","url":"https://baltimoreaa.org/meetings/bond-green/","timezone":"America/New_York"},{"feed":"baltimoreaa.org","slug":"hampstead-sunday-night","name":"Hampstead Sunday Night","day":0,"time":"20:00","types":["B","D","O"],"state":"MD","postal_code":"21074","city":"Hampstead","address":"1205 N Main St","latitude":39.6071474,"longitude":-76.850587,"location":"St. John's United Methodist Church","region":"Hampstead","url":"https://baltimoreaa.org/meetings/hampstead-sunday-night/","timezone":"America/New_York"},{"feed":"aa-dc.org","slug":"how-it-works-2","name":"How It Works","day":0,"time":"20:00","end_time":"21:00","types":["D","O","ONL"],"state":"MD","postal_code":"20874","city":"Germantown","address":"13421 Clopper Rd","latitude":39.1607529,"longitude":-77.2778245,"location":"United Church of Christ of Seneca valley","region":"Maryland","notes":"Hybrid: In-person and zoom meeting are combined. Zoom meeting ID: 89514716069\nDial-in number (301) 715-8592\nPress *6 to mute/share, *9 to raise hand\nSee below for One Click Dial-in and/or Online Meeting links","conference_url":"https://us02web.zoom.us/j/89514716069","url":"https://aa-dc.org/meetings/how-it-works-2","timezone":"America/New_York"},{"feed":"aa-dc.org","slug":"latinos-de-maryland-3","name":"Latinos de Maryland","day":0,"time":"20:00","end_time":"22:00","types":["D","IPM","O","S"],"state":"MD","postal_code":"20877","city":"Gaithersburg","address":"28 S Frederick Ave","latitude":39.1398899,"longitude":-77.1971751,"location":"28 S Frederick Ave","region":"Maryland","url":"https://aa-dc.org/meetings/latinos-de-maryland-3","group":"Latinos de Maryland","timezone":"America/New_York"},{"feed":"aa-dc.org","slug":"nada-podemos-solos","name":"Nada Podemos Solos","day":0,"time":"20:00","end_time":"22:00","types":["C","D","S"],"state":"MD","postal_code":"20903","city":"Silver Spring","address":"8108 Tahona Dr","latitude":38.992713,"longitude":-76.9893975,"location":"Nada Podemos Solos","region":"Maryland","url":"https://aa-dc.org/meetings/nada-podemos-solos","group":"Nada Podemos Solos","timezone":"America/New_York"},{"feed":"aa-dc.org","slug":"new-beginnings-aa-group-6","name":"New Beginnings AA Group","day":0,"time":"20:00","end_time":"21:00","types":["D","LS","O","ONL"],"state":"MD","city":"Hyattsville","latitude":38.9559442,"longitude":-76.9455301,"location":"Hyattsville","region":"Maryland","notes":"Zoom Meeting ID: 87014973689, Zoom meeting Passcode: NB2024\nDial-in number: (301) 715-8592\nPress *6 to mute/share, *9 to raise hand\nSee below for One Click Dial-in and/or Online Meeting links","conference_url":"https://us02web.zoom.us/j/87014973689?pwd=B7vKWWkObBhUUb4aG35U1uSKIaZaFl.1","url":"https://aa-dc.org/meetings/new-beginnings-aa-group-6","group":"New Beginnings","timezone":"America/New_York"},{"feed":"aa-dc.org","slug":"olney-farm","name":"Olney Farms","day":0,"time":"20:00","types":["C","D","X"],"state":"MD","postal_code":"20833","city":"Brookeville","address":"12 High St","latitude":39.1793189,"longitude":-77.0584477,"location":"Salem United Methodist Church","region":"Maryland","url":"https://aa-dc.org/meetings/olney-farm","timezone":"America/New_York"},{"feed":"baltimoreaa.org","slug":"over-the-rainbow-21","name":"Over the Rainbow","day":0,"time":"20:00","end_time":"21:00","types":["B","D","O","X"],"state":"MD","postal_code":"21221","city":"Essex","address":"6 N Taylor Ave","latitude":39.3086663,"longitude":-76.4767674,"location":"6 N. Taylor Avenue","region":"Essex","url":"https://baltimoreaa.org/meetings/over-the-rainbow-21/","timezone":"America/New_York"},{"feed":"aa-dc.org","slug":"primero-de-marzo-2","name":"Primero de Marzo","day":0,"time":"20:00","end_time":"22:00","types":["O","S","SP"],"state":"MD","postal_code":"20783","city":"Hyattsville","address":"2340 University Blvd E","latitude":38.9852212,"longitude":-76.9701569,"location":"Primero de Marzo","region":"Maryland","notes":"BSMT","url":"https://aa-dc.org/meetings/primero-de-marzo-2","timezone":"America/New_York"},{"feed":"baltimoreaa.org","slug":"reisterstown-sunday-night-12-step","name":"Reisterstown Sunday Night 12 Step","day":0,"time":"20:00","types":["C","D","ST"],"state":"MD","postal_code":"21136","city":"Reisterstown","address":"3738 Butler Rd","latitude":39.5026256,"longitude":-76.780578,"location":"St. John's Church Parish House","region":"Glyndon","url":"https://baltimoreaa.org/meetings/reisterstown-sunday-night-12-step/","timezone":"America/New_York"},{"feed":"baltimoreaa.org","slug":"sunday-surrender","name":"Sunday Surrender (Online)","day":0,"time":"20:00","end_time":"21:00","types":["D","O","SP","ONL"],"state":"MD","city":"Baltimore","latitude":39.2903848,"longitude":-76.6121893,"region":"Online Only","notes":"-Zoom Meeting ID: 949 761 663\n-Zoom Passcode: Orioles","conference_url":"https://zoom.us/j/949761663","url":"https://baltimoreaa.org/meetings/sunday-surrender/","timezone":"America/New_York"},{"feed":"aa-dc.org","slug":"un-dia-a-la-vez","name":"Un Dia a La Vez","day":0,"time":"20:00","types":["O","S","SP"],"state":"MD","postal_code":"20902","city":"Silver Spring","address":"11212 Grandview Ave","latitude":39.0388064,"longitude":-77.0524937,"location":"11212 Grandview Ave","region":"Maryland","notes":"SUITE 105","url":"https://aa-dc.org/meetings/un-dia-a-la-vez","group":"Un Dia a La Vez","timezone":"America/New_York"},{"feed":"westcentralaa.org","slug":"young-dumb-full-of-aa","name":"Young, Dumb & Full of AA","day":0,"time":"20:00","end_time":"21:00","types":["O","ST","Y"],"state":"MD","postal_code":"21701","city":"Frederick","address":"115 W 2nd St","latitude":39.417029,"longitude":-77.4126451,"location":"Frederick Presbyterian Church","region":"Frederick","url":"https://westcentralaa.org/meetings/young-dumb-full-of-aa/","timezone":"America/New_York"},{"feed":"aa-dc.org","slug":"colesville-sunday-nite","name":"Colesville Sunday Nite","day":0,"time":"20:30","types":["D","O","ONL"],"state":"MD","postal_code":"20904","city":"Silver Spring","address":"52 Randolph Rd","latitude":39.0732744,"longitude":-77.0069206,"location":"Colesville Methodist Church","region":"Maryland","notes":"Hybrid meeting: In Person & Online are combined.\nZoom Meeting ID#: 88927769460; Password: 202998\nDial-in number: (301) 715-8592\nPress *6 to mute/share, *9 to raise hand\nSee below for One Click Dial-in and/or Online Meeting links","conference_url":"https://zoom.us/j/88927769460?pwd=PbhkKPPmvxzbSaz1gqb24cq7eMcsCR","url":"https://aa-dc.org/meetings/colesville-sunday-nite","timezone":"America/New_York"},{"feed":"aa-dc.org","slug":"del-ray-woodmont","name":"Del Ray Woodmont","day":0,"time":"20:30","types":["D","O","ONL"],"state":"MD","city":"Bethesda","latitude":38.984652,"longitude":-77.0947092,"location":"Bethesda","region":"Maryland","notes":"Zoom Meeting Phone Password: Sobriety\nDial-in number: (301) 715-8592, Meeting ID: 7134221222#, Phone passcode: 72295717\nPress *6 to mute/share, *9 to raise hand\nSee below for One Click Dial-in and/or Online Meeting links","conference_url":"https://us02web.zoom.us/j/7134221222","url":"https://aa-dc.org/meetings/del-ray-woodmont","group":"Del Ray 8:30 PM","timezone":"America/New_York"},{"feed":"hagerstownaa.org","slug":"fellowship-hall-3","name":"Fellowship Hall","day":0,"time":"20:30","end_time":"21:30","types":["C","ST"],"state":"MD","postal_code":"21740","city":"Hagerstown","address":"6 N Mulberry St","latitude":39.6402618,"longitude":-77.7159776,"location":"N Mulberry & E Washington","region":"Hagerstown","url":"https://hagerstownaa.org/meetings/fellowship-hall-3/","timezone":"America/New_York"},{"feed":"westcentralaa.org","slug":"living-sober-for-dummies","name":"Buddhism and the Twelve Steps","day":0,"time":"20:30","end_time":"21:30","types":["CF","LIT","BE","O","X"],"state":"MD","postal_code":"21701","city":"Frederick","address":"205b Bucheimer Rd","latitude":39.4094665,"longitude":-77.3861771,"location":"The Club","region":"Frederick","url":"https://westcentralaa.org/meetings/living-sober-for-dummies/","timezone":"America/New_York"},{"feed":"baltimoreaa.org","slug":"oakdale","name":"Oakdale","day":0,"time":"20:30","types":["D","O"],"state":"MD","postal_code":"21210","city":"Baltimore","address":"4700 Roland Ave","latitude":39.3479139,"longitude":-76.6364587,"location":"St. David's Church","region":"Roland Park","url":"https://baltimoreaa.org/meetings/oakdale/","timezone":"America/New_York"},{"feed":"aa-dc.org","slug":"potomac-speakers","name":"Potomac Group","day":0,"time":"20:30","types":["O","SP","X","ONL"],"state":"MD","city":"Potomac","latitude":39.0181651,"longitude":-77.2085914,"location":"Potomac, MD","region":"Maryland","notes":"Zoom Meeting ID#: 86276588077; Passcode: 3654477\nDial-in number: (312) 626-6799,\nPress *6 to mute/share, *9 to raise hand\nSee below for One Click Dial-in and/or Online Meeting links","conference_url":"https://us02web.zoom.us/j/86276588077?pwd=RFRBbS9FVGEzRlhLSkhJdFVzTmNmdz09","url":"https://aa-dc.org/meetings/potomac-speakers","timezone":"America/New_York"},{"feed":"aa-dc.org","slug":"rockville-metro-24","name":"Rockville Metro","day":0,"time":"20:30","end_time":"22:00","types":["D","O","ONL"],"state":"MD","postal_code":"20852","city":"Rockville","latitude":39.0542102,"longitude":-77.1197521,"location":"Rockville Metro Club","region":"Maryland","notes":"Zoom Meeting ID: 400982182; Phone Password: 003335\nDial-in number: (301) 715 8592, Press *6 to mute/share, *9 to raise hand\nSee below for One Click Dial-in and/or Online Meeting links","conference_url":"https://zoom.us/j/400982182","url":"https://aa-dc.org/meetings/rockville-metro-24","timezone":"America/New_York"},{"feed":"aa-dc.org","slug":"silver-spring-group-2","name":"Silver Spring Group","day":0,"time":"20:30","types":["BE","O","ST","ONL"],"state":"MD","city":"Silver Spring","latitude":38.9906657,"longitude":-77.026088,"location":"Silver Spring","region":"Maryland","notes":"Zoom Meeting:\nDial-in number: (301)715-8592, Access code: 7018653009#\nPress *6 to mute/share, *9 to raise hand\nSee below for One Click Dial-in and/or Online Meeting links","conference_url":"https://zoom.us/j/7018653009","url":"https://aa-dc.org/meetings/silver-spring-group-2","group":"Silver Spring Group - Online Meetings","timezone":"America/New_York"},{"feed":"aa-dc.org","slug":"silver-spring-group-8","name":"Silver Spring Group","day":0,"time":"20:30","types":["BE","O","ST"],"state":"MD","postal_code":"20902","city":"Silver Spring","address":"1200 University Blvd W","latitude":39.0357209,"longitude":-77.0287947,"location":"Northwood Presbyterian Church","region":"Maryland","url":"https://aa-dc.org/meetings/silver-spring-group-8","group":"Silver Spring Group - Online Meetings","timezone":"America/New_York"},{"feed":"baltimoreaa.org","slug":"columbia-dawn-patrol-2","name":"Columbia Dawn Patrol (online)","day":1,"time":"06:00","types":["D","O","ONL"],"state":"MD","city":"Baltimore","latitude":39.2903848,"longitude":-76.6121893,"region":"Online Only","notes":"-Zoom Meeting ID: 947 132 2414\n- Passcode: 1212","conference_url":"https://us02web.zoom.us/j/9471322414","url":"https://baltimoreaa.org/meetings/columbia-dawn-patrol-2/","timezone":"America/New_York"},{"feed":"baltimoreaa.org","slug":"columbia-dawn-patrol-8","name":"Columbia Dawn Patrol","day":1,"time":"06:00","end_time":"07:00","types":["O"],"state":"MD","postal_code":"21045","city":"Columbia","address":"9231 Rumsey Rd","latitude":39.2347695,"longitude":-76.8244332,"location":"Alano Club","region":"Columbia","url":"https://baltimoreaa.org/meetings/columbia-dawn-patrol-8/","timezone":"America/New_York"},{"feed":"aa-dc.org","slug":"open-discussion-2","name":"As Bill Sees It","day":1,"time":"06:00","types":["D","O","ONL"],"state":"MD","postal_code":"20781","city":"Hyattsville","address":"4318 Hamilton St","latitude":38.9537383,"longitude":-76.941181,"location":"180 Club","region":"Maryland","notes":"Hybrid: Zoom meeting and In Person meet at the same time\nZoom Meeting and Phone Passcode: 853902363.\nDial-in number (301) 715-8592, Meeting ID: 4318180220\nPress *6 to mute/share, *9 to raise hand\nSee below for One Click Dial-in and/or Online Meeting links","conference_url":"https://us02web.zoom.us/j/4318180220","url":"https://aa-dc.org/meetings/open-discussion-2","timezone":"America/New_York"},{"feed":"baltimoreaa.org","slug":"wake-up-2","name":"Wake-Up East","day":1,"time":"06:00","types":["D","HYB","O","X","ONL"],"state":"MD","postal_code":"21146","city":"Severna Park","address":"617 Baltimore Annapolis Blvd","latitude":39.0709089,"longitude":-76.5454589,"location":"Holy Grounds Youth Ctr.","region":"Severna Park","notes":"-Zoom Meeting ID: 862 4262 7887\n-Zoom Passcode: 111111","conference_url":"https://us02web.zoom.us/j/86242627887","url":"https://baltimoreaa.org/meetings/wake-up-2/","timezone":"America/New_York"},{"feed":"baltimoreaa.org","slug":"wake-up-west-2","name":"Wake Up West","day":1,"time":"06:00","types":["D","O"],"state":"MD","postal_code":"21146","city":"Severna Park","address":"579 Baltimore Annapolis Blvd","latitude":39.0737437,"longitude":-76.5458334,"location":"Park Books Place Community Center","region":"Severna Park","notes":"-Zoom and In-person are co-occurring, but separate.\n-Meeting ID: 873 158 153\n-Zoom Passcode: 8675309","url":"https://baltimoreaa.org/meetings/wake-up-west-2/","timezone":"America/New_York"},{"feed":"baltimoreaa.org","slug":"wake-up-world-3","name":"Wake Up World (Online)","day":1,"time":"06:00","end_time":"07:00","types":["DR","D","O","ONL"],"state":"MD","city":"Baltimore","latitude":39.2903848,"longitude":-76.6121893,"region":"Online Only","notes":"ID - 873158153\npwd - 8675309\nWe read from Daily Reflections, and we share.","conference_url":"https://us02web.zoom.us/j/873158153?pwd=Y0pKQ1JkYi9hLzBtOTJKcWUwbG51dz09","url":"https://baltimoreaa.org/meetings/wake-up-world-3/","timezone":"America/New_York"},