[{"feed":"capecodaa.net","slug":"early-bird","name":"The 6:03 Meeting","day":0,"time":"06:00","end_time":"07:00","types":["DR","D","O","ONL"],"state":"MA","postal_code":"02601","city":"Barnstable","address":"Hyannis","latitude":41.6524911,"longitude":-70.2881124,"location":"Hyannis, Barnstable, MA 02601, USA","region":"Hyannis","notes":"Zoom 359275431\n\nOnline meeting only","conference_url":"https://zoom.us/j/359275431","url":"https://capecodaa.net/meetings/early-bird/","timezone":"America/New_York"},{"feed":"capecodaa.net","slug":"first-light","name":"First Light","day":0,"time":"06:30","end_time":"07:30","types":["D","O","X"],"state":"MA","postal_code":"02642","city":"Eastham","address":"220 Samoset Rd","latitude":41.8301385,"longitude":-69.9781805,"location":"Chapel in the Pines","region":"Eastham","url":"https://capecodaa.net/meetings/first-light/","group":"First Light","timezone":"America/New_York"},{"feed":"rhodeisland-aa.org","slug":"morning-tune-up-men","name":"Morning Tune -Up (Men)","day":0,"time":"06:30","end_time":"07:30","types":["C","D","EN","M","X","XB"],"state":"MA","postal_code":"02019","city":"Bellingham","address":"176 Mechanic St","latitude":42.0828145,"longitude":-71.4582983,"location":"How It Works Clubhouse","region":"Bellingham, MA","url":"https://rhodeisland-aa.org/archives/meetings/morning-tune-up-men/","timezone":"America/New_York"},{"feed":"capecodaa.net","slug":"rising-tide-7","name":"Rising Tide","day":0,"time":"06:30","end_time":"07:30","types":["ABSI","DR","D"],"state":"MA","city":"Eastham","latitude":41.8299634,"longitude":-69.9740361,"region":"Eastham","url":"https://capecodaa.net/meetings/rising-tide-7/","timezone":"America/New_York"},{"feed":"capecodaa.net","slug":"7-oclock-high-7","name":"7 O'Clock High","day":0,"time":"07:00","end_time":"08:00","types":["ABSI","DR","D"],"state":"MA","postal_code":"02664","city":"South Yarmouth","address":"347 Whites Path","latitude":41.690874,"longitude":-70.187138,"location":"Holway's Garage","region":"Yarmouth","notes":"Meeting is in mechanics garage","url":"https://capecodaa.net/meetings/7-oclock-high-7/","timezone":"America/New_York"},{"feed":"capecodaa.net","slug":"7-up-group","name":"7-Up Group","day":0,"time":"07:00","end_time":"08:00","types":["D","O","X"],"state":"MA","postal_code":"02631","city":"Brewster","address":"250 Underpass Rd","latitude":41.7582826,"longitude":-70.0665727,"location":"Pause A While","region":"Brewster","url":"https://capecodaa.net/meetings/7-up-group/","timezone":"America/New_York"},{"feed":"capecodaa.net","slug":"attitude-adjustment","name":"Attitude Adjustment","day":0,"time":"07:00","end_time":"08:00","types":["11","12x12","D","O","SP","ONL"],"state":"MA","postal_code":"02657","city":"Provincetown","address":"Historic District, 10 Shank Painter Rd","latitude":42.0482583,"longitude":-70.1923955,"location":"Methodist church","region":"Provincetown","notes":"Zoom ID 86861962889\nPasscode 581116","conference_url":"https://us06.web.zoom.us/j/86861962889","url":"https://capecodaa.net/meetings/attitude-adjustment/","group":"Provincetown Meetings","timezone":"America/New_York"},{"feed":"capecodaa.net","slug":"bass-river-morning-group","name":"Bass River Morning Group","day":0,"time":"07:00","end_time":"08:00","types":["C","D"],"state":"MA","postal_code":"02670","city":"West Dennis","address":"288 Main St","latitude":41.6647071,"longitude":-70.1705627,"location":"West Dennis Community Church","region":"Dennis","url":"https://capecodaa.net/meetings/bass-river-morning-group/","group":"Bass River Morning Group","timezone":"America/New_York"},{"feed":"capecodaa.net","slug":"wellfleet-1st-light-2","name":"Wellfleet First Light","day":0,"time":"07:00","end_time":"08:00","types":["D","O"],"state":"MA","postal_code":"02667","city":"Wellfleet","address":"246 Main Street, basement, 246 Main St","latitude":41.9388538,"longitude":-70.0298114,"location":"United Methodist Church","region":"Wellfleet","notes":"Please bring your own coffee. Entry is on the side of the building along the parking lot, red door.","url":"https://capecodaa.net/meetings/wellfleet-1st-light-2/","group":"Wellfleet First Light","timezone":"America/New_York"},{"feed":"capecodaa.net","slug":"grateful-living-group","name":"Grateful Living Group","day":0,"time":"07:15","end_time":"08:15","types":["D","O","ONL"],"state":"MA","postal_code":"02631","city":"Brewster","address":"701 Airline Rd","latitude":41.7258549,"longitude":-70.1394872,"location":"Northside United Methodist Church.","region":"Brewster","notes":"PARK IN REAR, USE REAR ENTRANCE Formerly the \"Burger King\" meeting.\n\nZoom Password is 8626627573","conference_url":"https://zoom.us/j/8945481680","url":"https://capecodaa.net/meetings/grateful-living-group/","timezone":"America/New_York"},{"feed":"capecodaa.net","slug":"harwich-chatham-morning-sobriety","name":"Harwich/Chatham Sunshine Group","day":0,"time":"07:15","end_time":"08:15","types":["D"],"state":"MA","postal_code":"02645","city":"Harwich","address":"1421 Orleans-Harwich Rd","latitude":41.7067797,"longitude":-70.0224944,"location":"400 East Plaza Suite 101","region":"Harwich","url":"https://capecodaa.net/meetings/harwich-chatham-morning-sobriety/","group":"Harwich/Chatham Morning Sobriety","timezone":"America/New_York"},{"feed":"capecodaa.net","slug":"each-day-a-new-beginning-7","name":"Each Day a New Beginning","day":0,"time":"07:30","end_time":"08:30","types":["D","O"],"state":"MA","postal_code":"02540","city":"Falmouth","address":"270 Gifford St","latitude":41.5595976,"longitude":-70.6114087,"location":"John Wesley Methodist Church","region":"Falmouth","url":"https://capecodaa.net/meetings/each-day-a-new-beginning-7/","group":"Each Day a New Beginning","timezone":"America/New_York"},{"feed":"capecodaa.net","slug":"each-day-a-new-beginning-virtual","name":"Each Day A New Beginning (Virtual)","day":0,"time":"07:30","end_time":"08:30","types":["D","TC","ONL"],"state":"MA","postal_code":"02649","city":"Mashpee","address":"745 Falmouth Rd","latitude":41.6080298,"longitude":-70.4929556,"location":"745 Falmouth Rd, Mashpee, MA 02649, USA","region":"Mashpee","notes":"Online meeting only\nZoom 93329657728\nEmail ednbzoom@gmail.com for passcode","conference_url":"https://zoom.us/j/93329657728","url":"https://capecodaa.net/meetings/each-day-a-new-beginning-virtual/","timezone":"America/New_York"},{"feed":"rhodeisland-aa.org","slug":"am-recovery","name":"AM Recovery","day":0,"time":"07:45","end_time":"08:45","types":["D","EN","O","X","XB"],"state":"MA","postal_code":"02746","city":"New Bedford","address":"360 Coggeshall St","latitude":41.6555839,"longitude":-70.928391,"location":"PAACA Services","region":"New Bedford, MA","url":"https://rhodeisland-aa.org/archives/meetings/am-recovery/","timezone":"America/New_York"},{"feed":"rhodeisland-aa.org","slug":"am-eye-openers","name":"AM Eye Openers","day":0,"time":"08:00","end_time":"09:00","types":["DR","EN","O","ONL"],"state":"MA","city":"Fall River","latitude":41.7014912,"longitude":-71.1550451,"location":"Massachusetts","region":"Fall River, MA","notes":"Zoom ID:531 675 268 Password: bcc7833","conference_url":"https://us04web.zoom.us/j/531675268","url":"https://rhodeisland-aa.org/archives/meetings/am-eye-openers/","timezone":"America/New_York"},{"feed":"capecodaa.net","slug":"the-lighthouse","name":"The Lighthouse","day":0,"time":"08:00","end_time":"09:00","types":["B","O","ONL"],"state":"MA","city":"Provincetown","latitude":42.0547136,"longitude":-70.1846012,"location":"Provincetown, MA 02657, USA","region":"Provincetown","notes":"Zoom ID 2750858390\nPasscode 059996","conference_url":"https://us02web.zoom.us/j/2750858390?pwd=SEs3QmtXdzBRbXAvMGhjNUorNCtHdz09","url":"https://capecodaa.net/meetings/the-lighthouse/","group":"The Lighthouse","timezone":"America/New_York"},{"feed":"capecodaa.net","slug":"virtual-reflections","name":"Daily Reflections","day":0,"time":"08:00","end_time":"09:00","types":["DR","D","O","ONL"],"state":"MA","postal_code":"02601","city":"Barnstable","address":"Hyannis","latitude":41.6524911,"longitude":-70.2881124,"location":"Hyannis, Barnstable, MA 02601, USA","region":"Hyannis","notes":"Email dailyreflections@yahoo.com for password\nOnline meeting only.\nZoom 8111983891","conference_url":"https://zoom.us/j/8111983891","url":"https://capecodaa.net/meetings/virtual-reflections/","timezone":"America/New_York"},{"feed":"rhodeisland-aa.org","slug":"weekend-discussion-2","name":"Weekend Discussion","day":0,"time":"08:00","end_time":"09:00","types":["D","O","X","XB","EN"],"state":"MA","postal_code":"02019","city":"Bellingham","address":"176 Mechanic St","latitude":42.0828145,"longitude":-71.4582983,"location":"How It Works Clubhouse","region":"Bellingham, MA","url":"https://rhodeisland-aa.org/archives/meetings/weekend-discussion-2/","timezone":"America/New_York"},{"feed":"capecodaa.net","slug":"serenity-now","name":"Serenity Now","day":0,"time":"08:15","end_time":"09:15","types":["C","ONL"],"state":"MA","postal_code":"02601","city":"Barnstable","address":"Hyannis","latitude":41.6524911,"longitude":-70.2881124,"location":"Hyannis, Barnstable, MA 02601, USA","region":"Hyannis","notes":"Zoom ID 6444615638\nPassword 111856","conference_url":"https://zoom.us/j/6444615638","url":"https://capecodaa.net/meetings/serenity-now/","group":"Serenity Now","timezone":"America/New_York"},{"feed":"capecodaa.net","slug":"hit-the-deck-running","name":"Hit the Deck Running","day":0,"time":"08:30","end_time":"09:30","types":["D","O","ONL"],"state":"MA","postal_code":"02559","city":"Pocasset","address":"314 Barlows Landing Rd","latitude":41.6939723,"longitude":-70.6148478,"location":"Community Center","region":"Bourne","notes":"Zoom 87615878155\nPassword 2023","conference_url":"https://zoom.us/j/87615878155","url":"https://capecodaa.net/meetings/hit-the-deck-running/","group":"Hit the Deck Running","timezone":"America/New_York"},{"feed":"capecodaa.net","slug":"sob1st-ala-zoom","name":"Sob1st ala Zoom","day":0,"time":"08:30","end_time":"09:30","types":["D","ONL"],"state":"MA","postal_code":"02601","city":"Barnstable","address":"Hyannis","latitude":41.6524911,"longitude":-70.2881124,"location":"Hyannis, Barnstable, MA 02601, USA","region":"Hyannis","notes":"Zoom ID: 649304568","conference_url":"https://zoom.us/j/649304568","url":"https://capecodaa.net/meetings/sob1st-ala-zoom/","timezone":"America/New_York"},{"feed":"capecodaa.net","slug":"sobriety-first-zoom","name":"Sobriety First - Zoom","day":0,"time":"08:30","end_time":"09:30","types":["D","O","ONL"],"state":"MA","postal_code":"02655","city":"Osterville","latitude":41.6293481,"longitude":-70.3896327,"location":"Osterville, Barnstable, MA 02655, USA","region":"Osterville","notes":"Zoom ID: 649304568","conference_url":"https://zoom.us/j/649304568","url":"https://capecodaa.net/meetings/sobriety-first-zoom/","group":"Sobriety First - Zoom","timezone":"America/New_York"},{"feed":"capecodaa.net","slug":"morning-group","name":"Morning Group","day":0,"time":"08:45","end_time":"09:45","types":["D","SP"],"state":"MA","postal_code":"02657","city":"Provincetown","address":"236 Commercial St","latitude":42.0505857,"longitude":-70.1884178,"location":"Unitarian Universalist Meeting House","region":"Provincetown","url":"https://capecodaa.net/meetings/morning-group/","group":"Provincetown Meetings","timezone":"America/New_York"},{"feed":"rhodeisland-aa.org","slug":"sunday-morning-discussion","name":"Sunday Morning Discussion","day":0,"time":"09:00","end_time":"10:00","types":["D","EN","O","X"],"state":"MA","postal_code":"02721","city":"Fall River","address":"170 William St","latitude":41.6985983,"longitude":-71.1689417,"location":"Frank Oliveria Housing","region":"Fall River, MA","url":"https://rhodeisland-aa.org/archives/meetings/sunday-morning-discussion/","timezone":"America/New_York"},{"feed":"rhodeisland-aa.org","slug":"new-beginnings","name":"New Beginnings","day":0,"time":"09:30","end_time":"10:30","types":["D","EN","O","SP","X","XB"],"state":"MA","postal_code":"02093","city":"Wrentham","address":"400 Taunton St","latitude":42.0523485,"longitude":-71.3269058,"location":"Senior Center","region":"Wrentham,MA","url":"https://rhodeisland-aa.org/archives/meetings/new-beginnings/","timezone":"America/New_York"},{"feed":"capecodaa.net","slug":"sandwich-west-barnstable-sunday","name":"Sandwich West Barnstable Sunday Morning","day":0,"time":"09:30","end_time":"10:30","types":["O","SP","ONL"],"state":"MA","postal_code":"02563","city":"Sandwich","address":"175 Main St","latitude":41.7564776,"longitude":-70.4940788,"location":"DeWitt Clinton Lodge","region":"Barnstable","notes":"Zoom ID: 5239560213\nPasscode 386918","conference_url":"https://zoom.us/j/5239560213","url":"https://capecodaa.net/meetings/sandwich-west-barnstable-sunday/","timezone":"America/New_York"},{"feed":"capecodaa.net","slug":"sunday-morning","name":"Sunday Morning","day":0,"time":"09:45","end_time":"11:00","types":["O","SP","ONL"],"state":"MA","postal_code":"02601","city":"Barnstable","address":"Hyannis","latitude":41.6524911,"longitude":-70.2881124,"location":"Hyannis, Barnstable, MA 02601, USA","region":"Hyannis","notes":"Zoom ID 93319642247\nPassword 862402","conference_url":"https://zoom.us/j/93319642247","url":"https://capecodaa.net/meetings/sunday-morning/","timezone":"America/New_York"},{"feed":"capecodaa.net","slug":"400-east-plaza-suite-101-sundays-at-10am","name":"Sunday Beginners","day":0,"time":"10:00","end_time":"11:00","types":["D","O","ONL"],"state":"MA","postal_code":"02645","city":"Harwich","address":"1421 Orleans-Harwich Rd","latitude":41.7067797,"longitude":-70.0224944,"location":"400 East Plaza Suite 101","region":"Harwich","notes":"In person and on zoom.\n\nZoom 539414978\nPassword 077898","conference_url":"https://zoom.us/j/539414978","url":"https://capecodaa.net/meetings/400-east-plaza-suite-101-sundays-at-10am/","timezone":"America/New_York"},{"feed":"rhodeisland-aa.org","slug":"somerset-mens-group","name":"Somerset Mens","day":0,"time":"10:00","end_time":"11:00","types":["C","D","EN","M","X","XB"],"state":"MA","postal_code":"02726","city":"Somerset","address":"115 Wood St","latitude":41.7508273,"longitude":-71.141201,"location":"Somerset Council On Aging","region":"Somerset, MA","url":"https://rhodeisland-aa.org/archives/meetings/somerset-mens-group/","timezone":"America/New_York"},{"feed":"rhodeisland-aa.org","slug":"sunday-morning-aa","name":"Sunday Morning AA","day":0,"time":"10:00","end_time":"11:00","types":["EN","O","SP","X"],"state":"MA","postal_code":"02703","city":"Attleboro","address":"68 Falmouth St","latitude":41.945608,"longitude":-71.2758902,"location":"Cameron Recovery Center","region":"Attleboro, MA","url":"https://rhodeisland-aa.org/archives/meetings/sunday-morning-aa/","timezone":"America/New_York"},{"feed":"capecodaa.net","slug":"sunday-morning-breakfast-group","name":"Sunday Morning Group","day":0,"time":"10:00","end_time":"11:00","types":["O","SP","X"],"state":"MA","postal_code":"02540","city":"Falmouth","address":"874 Gifford St","latitude":41.5850823,"longitude":-70.6056352,"location":"Falmouth High School","region":"Falmouth","url":"https://capecodaa.net/meetings/sunday-morning-breakfast-group/","timezone":"America/New_York"},{"feed":"capecodaa.net","slug":"sunshine-group","name":"Sunshine Group","day":0,"time":"10:00","end_time":"11:00","types":["O","SP","X"],"state":"MA","postal_code":"02601","city":"Hyannis","address":"895 Falmouth Rd","latitude":41.6591953,"longitude":-70.3205603,"location":"Barnstable Intermediate School","region":"Hyannis","notes":"beginners welcome :)","url":"https://capecodaa.net/meetings/sunshine-group/","timezone":"America/New_York"},{"feed":"rhodeisland-aa.org","slug":"pathfinders","name":"Pathfinders","day":0,"time":"10:30","end_time":"12:00","types":["O","SP","X","XB","EN"],"state":"MA","postal_code":"02747","city":"Dartmouth","address":"Birch Hall, 285 Old Westport Rd","latitude":41.6258644,"longitude":-71.0084067,"location":"Umass Dartmouth","region":"Dartmouth, MA","url":"https://rhodeisland-aa.org/archives/meetings/pathfinders/","timezone":"America/New_York"},{"feed":"capecodaa.net","slug":"you-are-not-alone","name":"You Are Not Alone","day":0,"time":"10:30","end_time":"11:30","types":["D"],"state":"MA","postal_code":"02653","city":"Orleans","address":"2 Namskaket Rd","latitude":41.7909003,"longitude":-69.9973952,"location":"Odd Fellows Hall","region":"Orleans","notes":"Indoor meeting with Covid Protocols - Outside weather permitting","url":"https://capecodaa.net/meetings/you-are-not-alone/","timezone":"America/New_York"},{"feed":"rhodeisland-aa.org","slug":"brothers-in-arms","name":"Brothers in Arms","day":0,"time":"12:00","end_time":"13:00","types":["C","EN","M","ST","X","XB"],"state":"MA","postal_code":"02746","city":"New Bedford","address":"360 Coggeshall St","latitude":41.6555839,"longitude":-70.928391,"location":"PAACA Services","region":"New Bedford, MA","url":"https://rhodeisland-aa.org/archives/meetings/brothers-in-arms/","timezone":"America/New_York"},{"feed":"capecodaa.net","slug":"revelations-7","name":"Revelations","day":0,"time":"12:00","end_time":"13:00","types":["D","O","SP","ONL"],"state":"MA","city":"Falmouth","latitude":41.5532208,"longitude":-70.6085886,"location":"Falmouth, MA, USA","region":"Falmouth","notes":"Zoom ID 2123134567\nPassword : j2Apma","conference_url":"https://zoom.us/j/2123134567","url":"https://capecodaa.net/meetings/revelations-7/","group":"Revelations","timezone":"America/New_York"},{"feed":"capecodaa.net","slug":"double-trouble","name":"\"Double Trouble\"","day":0,"time":"15:00","end_time":"16:00","types":["D"],"state":"MA","postal_code":"02631","city":"Brewster","address":"250 Underpass Rd","latitude":41.7582826,"longitude":-70.0665727,"location":"Pause A While","region":"Brewster","notes":"A meeting for people who are dually diagnosed.","url":"https://capecodaa.net/meetings/double-trouble/","timezone":"America/New_York"},{"feed":"capecodaa.net","slug":"roots-and-causes-beginners-meeting","name":"Roots and Causes Beginners Meeting","day":0,"time":"16:00","end_time":"17:00","types":["LS","BE","Y"],"state":"MA","postal_code":"02559","city":"Pocasset","address":"298 Barlows Landing Rd","latitude":41.695247,"longitude":-70.6140659,"location":"First Baptist Church","region":"Bourne","url":"https://capecodaa.net/meetings/roots-and-causes-beginners-meeting/","timezone":"America/New_York"},{"feed":"capecodaa.net","slug":"big-book-and-beyond-literature-study","name":"Big Book and Beyond Literature Study","day":0,"time":"17:00","end_time":"18:00","types":["B","ST","ONL"],"state":"MA","city":"Barnstable","latitude":41.7003208,"longitude":-70.3002024,"location":"Barnstable, MA, USA","region":"Barnstable","notes":"Zoom ID 3856886473","conference_url":"https://us02web.zoom.us/j/3856886473","url":"https://capecodaa.net/meetings/big-book-and-beyond-literature-study/","group":"Big Book and Beyond Literature Study","timezone":"America/New_York"},{"feed":"capecodaa.net","slug":"club-dry-dock","name":"5 Alive","day":0,"time":"17:00","end_time":"18:00","types":["D","O"],"state":"MA","postal_code":"02645","city":"Harwich","address":"1421 Orleans-Harwich Rd","latitude":41.7067797,"longitude":-70.0224944,"location":"400 East Plaza Suite 101","region":"Harwich","url":"https://capecodaa.net/meetings/club-dry-dock/","timezone":"America/New_York"},{"feed":"capecodaa.net","slug":"fellowship-works-7","name":"Fellowship Works","day":0,"time":"17:00","end_time":"18:00","types":["D"],"state":"MA","postal_code":"02668","city":"West Barnstable","address":"2049 Meetinghouse Way","latitude":41.6984804,"longitude":-70.3839113,"location":"West Parish Of Barnstable-Jenkins Hall","region":"Barnstable","url":"https://capecodaa.net/meetings/fellowship-works-7/","group":"Fellowship Works","timezone":"America/New_York"},{"feed":"rhodeisland-aa.org","slug":"fresh-start","name":"Fresh Start","day":0,"time":"17:00","end_time":"18:00","types":["C","EN","ST"],"state":"MA","postal_code":"02719","city":"Fairhaven","address":"16 Temple Pl","latitude":41.6414118,"longitude":-70.8916749,"location":"Trinity Lutheran Church","region":"Fairhaven,MA","url":"https://rhodeisland-aa.org/archives/meetings/fresh-start/","timezone":"America/New_York"},{"feed":"capecodaa.net","slug":"pause-at-five","name":"Pause at Five","day":0,"time":"17:00","end_time":"18:00","types":["D","O","OUT","X"],"state":"MA","postal_code":"02631","city":"Brewster","address":"250 Underpass Rd","latitude":41.7582826,"longitude":-70.0665727,"location":"Pause A While","region":"Brewster","url":"https://capecodaa.net/meetings/pause-at-five/","timezone":"America/New_York"},{"feed":"capecodaa.net","slug":"the-sunday-night-power-hour","name":"The Sunday Night Power Hour","day":0,"time":"17:00","end_time":"18:00","types":["B","ST"],"state":"MA","postal_code":"02668","city":"West Barnstable","address":"2049 Meetinghouse Way","latitude":41.6984804,"longitude":-70.3839113,"location":"West Parish Of Barnstable-Jenkins Hall","region":"Barnstable","notes":"BBSS Coed utilizing the \"Hyannis\" format","url":"https://capecodaa.net/meetings/the-sunday-night-power-hour/","timezone":"America/New_York"},{"feed":"capecodaa.net","slug":"beginners-group","name":"Beginners Group","day":0,"time":"17:30","end_time":"18:30","types":["O"],"state":"MA","postal_code":"02655","city":"Osterville","address":"76 Wianno Ave","latitude":41.6265985,"longitude":-70.3826818,"location":"Our Lady of the Assumption Church","region":"Osterville","notes":"Beginners meeting","url":"https://capecodaa.net/meetings/beginners-group/","timezone":"America/New_York"},{"feed":"capecodaa.net","slug":"easy-does-it","name":"Easy Does It","day":0,"time":"17:30","end_time":"18:30","types":["B","O"],"state":"MA","postal_code":"02657","city":"Provincetown","address":"44 Harry Kemp Way","latitude":42.0591586,"longitude":-70.1850302,"location":"Maushop Housing","region":"Provincetown","url":"https://capecodaa.net/meetings/easy-does-it/","timezone":"America/New_York"},{"feed":"capecodaa.net","slug":"roots-and-causes","name":"Roots and causes","day":0,"time":"17:30","end_time":"18:30","types":["12x12","B","O","ST","ONL"],"state":"MA","postal_code":"02559","city":"Pocasset","address":"298 Barlows Landing Rd","latitude":41.695247,"longitude":-70.6140659,"location":"First Baptist Church","region":"Bourne","conference_url":"https://us02web.zoom.us/j/5534303415","url":"https://capecodaa.net/meetings/roots-and-causes/","group":"Roots and Causes","timezone":"America/New_York"},{"feed":"capecodaa.net","slug":"mens-sunday-night-steps","name":"Men's Sunday Night Steps","day":0,"time":"18:00","end_time":"19:00","types":["12x12","M"],"state":"MA","postal_code":"02641","city":"East Dennis","address":"16 Center St","latitude":41.7482398,"longitude":-70.1470653,"location":"Grace Church","region":"Dennis","url":"https://capecodaa.net/meetings/mens-sunday-night-steps/","timezone":"America/New_York"},{"feed":"rhodeisland-aa.org","slug":"principles-before-personalites","name":"Principles Before Personalites","day":0,"time":"18:00","end_time":"19:00","types":["B","C","EN","X","XB"],"state":"MA","postal_code":"02703","city":"Attleboro","address":"505 N Main St","latitude":41.9572958,"longitude":-71.2872719,"location":"Murray Universalist Church","region":"Attleboro, MA","url":"https://rhodeisland-aa.org/archives/meetings/principles-before-personalites/","timezone":"America/New_York"},{"feed":"capecodaa.net","slug":"spiritual-not-religious","name":"Spiritual Not Religious","day":0,"time":"18:00","end_time":"19:00","types":["D","O"],"state":"MA","postal_code":"02543","city":"Falmouth","address":"72 Water St","latitude":41.5242863,"longitude":-70.6706828,"location":"Woods Hole Old Firehouse","region":"Falmouth","url":"https://capecodaa.net/meetings/spiritual-not-religious/","timezone":"America/New_York"},{"feed":"capecodaa.net","slug":"you-are-not-alone-womens-zoom-group-6","name":"You Are Not Alone Women's Zoom Group","day":0,"time":"18:00","end_time":"19:00","types":["D","O","ONL"],"state":"MA","postal_code":"02601","city":"Barnstable","address":"Hyannis","latitude":41.6524911,"longitude":-70.2881124,"location":"Hyannis, Barnstable, MA 02601, USA","region":"Hyannis","notes":"Zoom ID 86422872687\nPW 689077","conference_url":"https://zoom.us/j/86422872687","url":"https://capecodaa.net/meetings/you-are-not-alone-womens-zoom-group-6/","timezone":"America/New_York"},{"feed":"rhodeisland-aa.org","slug":"new-freedom","name":"New Freedom","day":0,"time":"18:30","end_time":"19:30","types":["B","O","EN"],"state":"MA","postal_code":"02720","city":"Fall River","address":"289 N Main St","latitude":41.7058673,"longitude":-71.1544625,"location":"St. Demetrios Greek Orthodox Church","region":"Fall River, MA","url":"https://rhodeisland-aa.org/archives/meetings/new-freedom/","timezone":"America/New_York"},{"feed":"capecodaa.net","slug":"11-promises","name":"11 Promises","day":0,"time":"18:45","end_time":"20:00","types":["D","O"],"state":"MA","postal_code":"02638","city":"Dennis","address":"713 Main St","latitude":41.7372428,"longitude":-70.1917666,"location":"Dennis Union Church","region":"Dennis","url":"https://capecodaa.net/meetings/11-promises/","timezone":"America/New_York"},{"feed":"capecodaa.net","slug":"falmouth-village-green","name":"Falmouth Village Green","day":0,"time":"19:00","end_time":"20:00","types":["D","O"],"state":"MA","postal_code":"02540","city":"Falmouth","address":"68 Main St","latitude":41.5545038,"longitude":-70.6188445,"location":"68 Main St, Falmouth, MA 02540, USA","region":"Falmouth","url":"https://capecodaa.net/meetings/falmouth-village-green/","timezone":"America/New_York"},{"feed":"rhodeisland-aa.org","slug":"friendly","name":"Friendly","day":0,"time":"19:00","end_time":"20:00","types":["EN","O","SP"],"state":"MA","postal_code":"02763","city":"North Attleborough","address":"115 Commonwealth Ave","latitude":41.9702707,"longitude":-71.31301,"location":"Central Congregational Church","region":"North Attleboro, MA","url":"https://rhodeisland-aa.org/archives/meetings/friendly/","timezone":"America/New_York"},{"feed":"rhodeisland-aa.org","slug":"independence","name":"Independence","day":0,"time":"19:00","end_time":"20:00","types":["EN","O","SP"],"state":"MA","postal_code":"02719","city":"Fairhaven","address":"16 Temple Pl","latitude":41.6414118,"longitude":-70.8916749,"location":"Trinity Lutheran Church","region":"Fairhaven,MA","url":"https://rhodeisland-aa.org/archives/meetings/independence/","timezone":"America/New_York"},{"feed":"capecodaa.net","slug":"lady-of-assumption-church-sundays-at-7pm","name":"Safe Harbor","day":0,"time":"19:00","end_time":"20:00","types":["O","SP"],"state":"MA","postal_code":"02655","city":"Osterville","address":"76 Wianno Ave","latitude":41.6265985,"longitude":-70.3826818,"location":"Our Lady of the Assumption Church","region":"Osterville","url":"https://capecodaa.net/meetings/lady-of-assumption-church-sundays-at-7pm/","timezone":"America/New_York"},{"feed":"capecodaa.net","slug":"living-sober-4","name":"Living Sober","day":0,"time":"19:00","end_time":"20:00","types":["LS","ONL"],"state":"MA","postal_code":"02601","city":"Barnstable","address":"Hyannis","latitude":41.6524911,"longitude":-70.2881124,"location":"Hyannis, Barnstable, MA 02601, USA","region":"Hyannis","notes":"Zoom ID 91840396223\nPasscode 350745","conference_url":"https://zoom.us/j/91840396223","url":"https://capecodaa.net/meetings/living-sober-4/","timezone":"America/New_York"},{"feed":"rhodeisland-aa.org","slug":"north-12-12","name":"North 12 &12","day":0,"time":"19:00","end_time":"20:00","types":["B","C","EN","ST"],"state":"MA","postal_code":"02760","city":"North Attleborough","address":"676 Old Post Rd","latitude":41.9420805,"longitude":-71.3404466,"location":"Congregational Church Schoolhouse","region":"North Attleboro, MA","url":"https://rhodeisland-aa.org/archives/meetings/north-12-12/","timezone":"America/New_York"},{"feed":"capecodaa.net","slug":"serenity-on-sundays","name":"Serenity on Sundays","day":0,"time":"19:00","end_time":"20:00","types":["D","O","ONL"],"state":"MA","city":"Wellfleet","latitude":41.9305468,"longitude":-70.0309753,"region":"Wellfleet","notes":"Zoom ID 85888527682\nPasscode 177692","conference_url":"https://us06web.zoom.us/j/85888527682","url":"https://capecodaa.net/meetings/serenity-on-sundays/","timezone":"America/New_York"},{"feed":"capecodaa.net","slug":"walk-by-faith","name":"Walk by faith","day":0,"time":"19:00","end_time":"20:00","types":["O","SP"],"state":"MA","postal_code":"02649","city":"Mashpee","address":"27 Great Neck Rd N","latitude":41.6475531,"longitude":-70.4818455,"location":"Mashpee Baptist Church","region":"Mashpee","url":"https://capecodaa.net/meetings/walk-by-faith/","timezone":"America/New_York"},{"feed":"capecodaa.net","slug":"cataumet-united-methodist-church-sundays-at-730pm","name":"Pocasset Sunday Night","day":0,"time":"19:30","end_time":"20:30","types":["D","LIT","LS","O"],"state":"MA","postal_code":"02534","city":"Cataumet","address":"1091 County Rd","latitude":41.6761469,"longitude":-70.6060177,"location":"Cataumet United Methodist Church","region":"Bourne","url":"https://capecodaa.net/meetings/cataumet-united-methodist-church-sundays-at-730pm/","timezone":"America/New_York"},{"feed":"rhodeisland-aa.org","slug":"silver-city","name":"Silver City","day":0,"time":"19:30","end_time":"20:30","types":["EN","O","SP","ONL"],"state":"MA","postal_code":"02780","city":"Taunton","address":"207 Hart St","latitude":41.8806268,"longitude":-71.0563727,"location":"Bristol -Plymouth Regional Tech. School","region":"Taunton, MA","notes":"Zoom Meeting ID: 890 758 17383 Password: Taunton","conference_url":"https://us04web.zoom.us/j/89075817383","url":"https://rhodeisland-aa.org/archives/meetings/silver-city/","timezone":"America/New_York"},{"feed":"capecodaa.net","slug":"west-barnstable-community-center","name":"West Barnstable Sunday Night","day":0,"time":"19:30","end_time":"20:30","types":["D","O"],"state":"MA","postal_code":"02668","city":"Barnstable","address":"2377 Meetinghouse Way","latitude":41.7052815,"longitude":-70.3762191,"location":"West Barnstable Community Center","region":"Barnstable","url":"https://capecodaa.net/meetings/west-barnstable-community-center/","timezone":"America/New_York"},{"feed":"capecodaa.net","slug":"a-new-wave-young-peoples-group","name":"A New Wave Young People's Group","day":0,"time":"20:00","end_time":"21:00","types":["B","D","O","ONL"],"state":"MA","city":"Orleans","latitude":41.7898354,"longitude":-69.9897323,"location":"Orleans, MA, USA","region":"Orleans","notes":"This is an open meeting for all young people, that meaning young in age OR young at heart. We are a meeting that welcomes all and any wanting to attend. This group is based out of Cape Cod but is open to people from anywhere in the world to attend. The schedule goes like this Friday- As Bill Sees it, Saturday- Daily Reflections, Sundays- Small Reading from the Big Book. The meeting does not close at 9 pm, it is followed by an after party and will remain open until all members that would like to share have had the opportunity to do so. Please join us :).\n\nZoom ID 88070968006","conference_url":"https://us02web.zoom.us/j/88070968006","url":"https://capecodaa.net/meetings/a-new-wave-young-peoples-group/","group":"A New Wave Young People's Group","timezone":"America/New_York"},{"feed":"rhodeisland-aa.org","slug":"aa-meeting-5","name":"Miracles Happen","day":0,"time":"20:00","end_time":"21:00","types":["EN","LIT","O"],"state":"MA","postal_code":"02745","city":"New Bedford","address":"848 Mt Pleasant St","latitude":41.6735368,"longitude":-70.9443239,"location":"Faith Ministries","region":"New Bedford, MA","url":"https://rhodeisland-aa.org/archives/meetings/aa-meeting-5/","timezone":"America/New_York"},{"feed":"rhodeisland-aa.org","slug":"morning-tune-up-men-2","name":"Morning Tune -Up (Men)","day":1,"time":"05:00","end_time":"06:00","types":["C","D","EN","M","X","XB"],"state":"MA","postal_code":"02019","city":"Bellingham","address":"176 Mechanic St","latitude":42.0828145,"longitude":-71.4582983,"location":"How It Works Clubhouse","region":"Bellingham, MA","url":"https://rhodeisland-aa.org/archives/meetings/morning-tune-up-men-2/","timezone":"America/New_York"},{"feed":"capecodaa.net","slug":"early-bird-2","name":"The 6:03 Meeting","day":1,"time":"06:00","end_time":"07:00","types":["DR","D","O","ONL"],"state":"MA","postal_code":"02601","city":"Barnstable","address":"Hyannis","latitude":41.6524911,"longitude":-70.2881124,"location":"Hyannis, Barnstable, MA 02601, USA","region":"Hyannis","notes":"Zoom 359275431\n\nOnline meeting only","conference_url":"https://zoom.us/j/359275431","url":"https://capecodaa.net/meetings/early-bird-2/","timezone":"America/New_York"},{"feed":"rhodeisland-aa.org","slug":"aa-awakening","name":"AA Awakening","day":1,"time":"06:30","end_time":"07:30","types":["D","EN","O","X","XB"],"state":"MA","postal_code":"02019","city":"Bellingham","address":"176 Mechanic St","latitude":42.0828145,"longitude":-71.4582983,"location":"How It Works Clubhouse","region":"Bellingham, MA","url":"https://rhodeisland-aa.org/archives/meetings/aa-awakening/","timezone":"America/New_York"},{"feed":"capecodaa.net","slug":"first-light-2","name":"First Light","day":1,"time":"06:30","end_time":"07:30","types":["D","O","X"],"state":"MA","postal_code":"02642","city":"Eastham","address":"220 Samoset Rd","latitude":41.8301385,"longitude":-69.9781805,"location":"Chapel in the Pines","region":"Eastham","url":"https://capecodaa.net/meetings/first-light-2/","group":"First Light","timezone":"America/New_York"},{"feed":"capecodaa.net","slug":"rising-tide","name":"Rising Tide","day":1,"time":"06:30","end_time":"07:30","types":["ABSI","DR","D","ONL"],"state":"MA","city":"Eastham","latitude":41.8299634,"longitude":-69.9740361,"region":"Eastham","notes":"Password #983354","conference_url":"https://zoom.us/j/81262854915","url":"https://capecodaa.net/meetings/rising-tide/","timezone":"America/New_York"},{"feed":"capecodaa.net","slug":"7-oclock-high","name":"7 O'Clock High","day":1,"time":"07:00","end_time":"08:00","types":["ABSI","DR","D"],"state":"MA","postal_code":"02664","city":"South Yarmouth","address":"347 Whites Path","latitude":41.690874,"longitude":-70.187138,"location":"Holway's Garage","region":"Yarmouth","notes":"Meeting is in the mechanics garage","url":"https://capecodaa.net/meetings/7-oclock-high/","timezone":"America/New_York"},{"feed":"capecodaa.net","slug":"7-up-group-2","name":"7-Up Group","day":1,"time":"07:00","end_time":"08:00","types":["D","LIT","O","X"],"state":"MA","postal_code":"02631","city":"Brewster","address":"250 Underpass Rd","latitude":41.7582826,"longitude":-70.0665727,"location":"Pause A While","region":"Brewster","url":"https://capecodaa.net/meetings/7-up-group-2/","timezone":"America/New_York"},{"feed":"capecodaa.net","slug":"attitude-adjustment-2","name":"Attitude Adjustment","day":1,"time":"07:00","end_time":"08:00","types":["D","O","ONL"],"state":"MA","postal_code":"02657","city":"Provincetown","address":"Historic District, 10 Shank Painter Rd","latitude":42.0482583,"longitude":-70.1923955,"location":"Methodist church","region":"Provincetown","notes":"Zoom ID 86861962889\nPasscode 581116","conference_url":"https://us06.web.zoom.us/j/86861962889","url":"https://capecodaa.net/meetings/attitude-adjustment-2/","group":"Provincetown Meetings","timezone":"America/New_York"},{"feed":"capecodaa.net","slug":"bass-river-morning-group-2","name":"Bass River Morning Group","day":1,"time":"07:00","end_time":"08:00","types":["C","D"],"state":"MA","postal_code":"02670","city":"West Dennis","address":"288 Main St","latitude":41.6647071,"longitude":-70.1705627,"location":"West Dennis Community Church","region":"Dennis","url":"https://capecodaa.net/meetings/bass-river-morning-group-2/","timezone":"America/New_York"},{"feed":"capecodaa.net","slug":"nantucket-group","name":"Nantucket Group","day":1,"time":"07:00","end_time":"08:00","types":["12x12","B","LIT","O","ONL"],"state":"MA","postal_code":"02554","city":"Nantucket","address":"16 Vesper Ln","latitude":41.2731785,"longitude":-70.1023681,"location":"Gouin Village","notes":"Zoom passcode: AA","conference_url":"https://zoom.us/j/4445660816","url":"https://capecodaa.net/meetings/nantucket-group/","timezone":"America/New_York"},{"feed":"capecodaa.net","slug":"wellfleet-1st-light-3","name":"Wellfleet First Light","day":1,"time":"07:00","end_time":"08:00","types":["D","O"],"state":"MA","postal_code":"02667","city":"Wellfleet","address":"246 Main Street, basement, 246 Main St","latitude":41.9388538,"longitude":-70.0298114,"location":"United Methodist Church","region":"Wellfleet","notes":"Please bring your own coffee. Entry is on the side of the building along the parking lot, red door.","url":"https://capecodaa.net/meetings/wellfleet-1st-light-3/","group":"Wellfleet First Light","timezone":"America/New_York"},{"feed":"capecodaa.net","slug":"grateful-living-group-5","name":"Grateful Living Group","day":1,"time":"07:15","end_time":"08:15","types":["D","O","ONL"],"state":"MA","postal_code":"02631","city":"Brewster","address":"701 Airline Rd","latitude":41.7258549,"longitude":-70.1394872,"location":"Northside United Methodist Church.","region":"Brewster","notes":"Formerly the Burger King meeting\nEnter around back\nPasscode 8626627573","conference_url":"https://zoom.us/j/8945481680","url":"https://capecodaa.net/meetings/grateful-living-group-5/","timezone":"America/New_York"},{"feed":"capecodaa.net","slug":"harwich-chatham-morning-sobriety-2","name":"Harwich/Chatham Morning Sobriety","day":1,"time":"07:15","end_time":"08:15","types":["D"],"state":"MA","postal_code":"02645","city":"Harwich","address":"1421 Orleans-Harwich Rd","latitude":41.7067797,"longitude":-70.0224944,"location":"400 East Plaza Suite 101","region":"Harwich","url":"https://capecodaa.net/meetings/harwich-chatham-morning-sobriety-2/","group":"Harwich/Chatham Morning Sobriety","timezone":"America/New_York"},{"feed":"capecodaa.net","slug":"each-day-a-new-beginning","name":"Each Day a New Beginning","day":1,"time":"07:30","end_time":"08:30","types":["D","O"],"state":"MA","postal_code":"02540","city":"Falmouth","address":"270 Gifford St","latitude":41.5595976,"longitude":-70.6114087,"location":"John Wesley Methodist Church","region":"Falmouth","url":"https://capecodaa.net/meetings/each-day-a-new-beginning/","group":"Each Day a New Beginning","timezone":"America/New_York"},{"feed":"capecodaa.net","slug":"each-day-a-new-beginning-virtual-2","name":"Each Day A New Beginning (Virtual)","day":1,"time":"07:30","end_time":"08:30","types":["D","ONL"],"state":"MA","postal_code":"02601","city":"Barnstable","address":"Hyannis","latitude":41.6524911,"longitude":-70.2881124,"location":"Hyannis, Barnstable, MA 02601, USA","region":"Hyannis","notes":"Online meeting only\nZoom 93329657728\nEmail ednbzoom@gmail.com for passcode","conference_url":"https://zoom.us/j/93329657728","url":"https://capecodaa.net/meetings/each-day-a-new-beginning-virtual-2/","timezone":"America/New_York"},{"feed":"capecodaa.net","slug":"hit-the-deck-running-2","name":"Hit the Deck Running","day":1,"time":"07:30","end_time":"08:30","types":["D","O","ONL"],"state":"MA","postal_code":"02559","city":"Pocasset","address":"314 Barlows Landing Rd","latitude":41.6939723,"longitude":-70.6148478,"location":"Community Center","region":"Bourne","notes":"Zoom 87615878155\nPassword 2023","conference_url":"https://us02web.zoom.us/j/87615878155","url":"https://capecodaa.net/meetings/hit-the-deck-running-2/","group":"Hit the Deck Running","timezone":"America/New_York"},{"feed":"capecodaa.net","slug":"our-lady-of-victory-church-mondays-at-730am","name":"Hour of Power","day":1,"time":"07:30","end_time":"08:30","types":["D","O"],"state":"MA","postal_code":"02632","city":"Centerville","address":"230 S Main St","latitude":41.647639,"longitude":-70.3440203,"location":"Our Lady of Victory Church","region":"Centerville","url":"https://capecodaa.net/meetings/our-lady-of-victory-church-mondays-at-730am/","timezone":"America/New_York"},{"feed":"rhodeisland-aa.org","slug":"am-eye-openers-2","name":"AM Eye Openers","day":1,"time":"08:00","end_time":"09:00","types":["DR","EN","O","ONL"],"state":"MA","city":"Fall River","latitude":41.7014912,"longitude":-71.1550451,"location":"Massachusetts","region":"Fall River, MA","notes":"Zoom ID:531 675 268 Password: bcc7833","conference_url":"https://us04web.zoom.us/j/531675268","url":"https://rhodeisland-aa.org/archives/meetings/am-eye-openers-2/","timezone":"America/New_York"},{"feed":"rhodeisland-aa.org","slug":"am-recovery-2","name":"AM Recovery","day":1,"time":"08:00","end_time":"09:00","types":["D","EN","O","X","XB"],"state":"MA","postal_code":"02746","city":"New Bedford","address":"360 Coggeshall St","latitude":41.6555839,"longitude":-70.928391,"location":"PAACA Services","region":"New Bedford, MA","url":"https://rhodeisland-aa.org/archives/meetings/am-recovery-2/","timezone":"America/New_York"},{"feed":"rhodeisland-aa.org","slug":"recovery-cafe","name":"Recovery Cafe","day":1,"time":"08:00","end_time":"09:00","types":["D","EN","O"],"state":"MA","postal_code":"02743","city":"Acushnet","address":"67 Main St","latitude":41.6828096,"longitude":-70.914396,"location":"Wesley United Methodist","region":"Acushnet,MA","url":"https://rhodeisland-aa.org/archives/meetings/recovery-cafe/","timezone":"America/New_York"},{"feed":"capecodaa.net","slug":"the-lighthouse-2","name":"The Lighthouse","day":1,"time":"08:00","end_time":"09:00","types":["B","O","ONL"],"state":"MA","city":"Provincetown","latitude":42.0547136,"longitude":-70.1846012,"location":"Provincetown, MA 02657, USA","region":"Provincetown","notes":"Zoom ID 2750858390\nPasscode 059996","conference_url":"https://us02web.zoom.us/j/2750858390?pwd=SEs3QmtXdzBRbXAvMGhjNUorNCtHdz09","url":"https://capecodaa.net/meetings/the-lighthouse-2/","group":"The Lighthouse","timezone":"America/New_York"},{"feed":"capecodaa.net","slug":"virtual-reflections-2","name":"Daily Reflections","day":1,"time":"08:00","end_time":"09:00","types":["DR","D","O","ONL"],"state":"MA","postal_code":"02601","city":"Barnstable","address":"Hyannis","latitude":41.6524911,"longitude":-70.2881124,"location":"Hyannis, Barnstable, MA 02601, USA","region":"Hyannis","notes":"Email dailyreflections24@yahoo.com for password.\nOnline meeting only.\nZoom 8111983891","conference_url":"https://zoom.us/j/8111983891","url":"https://capecodaa.net/meetings/virtual-reflections-2/","timezone":"America/New_York"},{"feed":"capecodaa.net","slug":"serenity-now-2","name":"Serenity Now","day":1,"time":"08:15","end_time":"09:15","types":["C","ONL"],"state":"MA","postal_code":"02601","city":"Barnstable","address":"Hyannis","latitude":41.6524911,"longitude":-70.2881124,"location":"Hyannis, Barnstable, MA 02601, USA","region":"Hyannis","notes":"Zoom ID 6444615638\nPassword 111856","conference_url":"https://zoom.us/j/6444615638","url":"https://capecodaa.net/meetings/serenity-now-2/","group":"Serenity Now","timezone":"America/New_York"},{"feed":"capecodaa.net","slug":"attitude-adjustment-8","name":"Attitude Adjustment","day":1,"time":"08:30","end_time":"09:30","types":["12x12","B","D","G","LS","O","SP"],"state":"MA","postal_code":"02657","city":"Provincetown","address":"20 Shank Painter Rd","latitude":42.0487788,"longitude":-70.1938333,"location":"Provincetown United Methodist Church","region":"Provincetown","url":"https://capecodaa.net/meetings/attitude-adjustment-8/","group":"Attitude Adjustment","timezone":"America/New_York"},{"feed":"capecodaa.net","slug":"sob1st-ala-zoom-2","name":"Sob1st ala Zoom","day":1,"time":"08:30","end_time":"09:30","types":["D","ONL"],"state":"MA","postal_code":"02601","city":"Barnstable","address":"Hyannis","latitude":41.6524911,"longitude":-70.2881124,"location":"Hyannis, Barnstable, MA 02601, USA","region":"Hyannis","notes":"Zoom ID 649304568","conference_url":"https://zoom.us/j/649304568","url":"https://capecodaa.net/meetings/sob1st-ala-zoom-2/","timezone":"America/New_York"},{"feed":"capecodaa.net","slug":"sobriety-1st","name":"Sobriety First","day":1,"time":"08:30","end_time":"09:30","types":["D","O","SP","X"],"state":"MA","postal_code":"02655","city":"Osterville","address":"421 Wianno Ave","latitude":41.6208284,"longitude":-70.3736153,"location":"St. Peters Church","region":"Osterville","url":"https://capecodaa.net/meetings/sobriety-1st/","group":"Sobriety First","timezone":"America/New_York"},{"feed":"rhodeisland-aa.org","slug":"as-bill-sees-it","name":"As Bill Sees It","day":1,"time":"09:30","end_time":"11:00","types":["C","D","EN"],"state":"MA","postal_code":"02767","city":"Raynham","address":"785 S Main St","latitude":41.9225858,"longitude":-71.0516347,"location":"First Congregational Church","region":"Raynham, MA","url":"https://rhodeisland-aa.org/archives/meetings/as-bill-sees-it/","timezone":"America/New_York"},{"feed":"capecodaa.net","slug":"dewitt-clinton-lodge-mondays-at-10am","name":"Big Book Discussion","day":1,"time":"10:00","end_time":"11:00","types":["B","O"],"state":"MA","postal_code":"02563","city":"Sandwich","address":"136 Main St","latitude":41.757684,"longitude":-70.4993937,"location":"First Church UCC","region":"Sandwich","url":"https://capecodaa.net/meetings/dewitt-clinton-lodge-mondays-at-10am/","timezone":"America/New_York"},{"feed":"rhodeisland-aa.org","slug":"get-a-new-life","name":"Get A New Life","day":1,"time":"10:00","end_time":"11:00","types":["D","EN","O","X"],"state":"MA","postal_code":"02703","city":"Attleboro","address":"68 Falmouth St","latitude":41.945608,"longitude":-71.2758902,"location":"Cameron Recovery Center","region":"Attleboro, MA","url":"https://rhodeisland-aa.org/archives/meetings/get-a-new-life/","timezone":"America/New_York"},{"feed":"capecodaa.net","slug":"bridging-the-gap","name":"Bridging the Gap","day":1,"time":"10:30","end_time":"11:30","types":["D"],"state":"MA","postal_code":"02630","city":"Barnstable","address":"3195 Main St","latitude":41.7011624,"longitude":-70.3039727,"location":"Barnstable, MA, USA","region":"Barnstable","notes":"Meeting located in the Bridge Center at the Sheriff\u2019s Office in the white house on the hill in the courthouse complex. There will be no meeting on holidays.","url":"https://capecodaa.net/meetings/bridging-the-gap/","timezone":"America/New_York"},{"feed":"capecodaa.net","slug":"club-dry-dock-11","name":"Club Dry Dock","day":1,"time":"12:00","end_time":"13:00","types":["D","O","ONL"],"state":"MA","postal_code":"02601","city":"Barnstable","address":"Hyannis","latitude":41.6524911,"longitude":-70.2881124,"location":"Hyannis, Barnstable, MA 02601, USA","region":"Hyannis","notes":"Online only\nPassword 077898","conference_url":"https://zoom.us/j/539414978","url":"https://capecodaa.net/meetings/club-dry-dock-11/","timezone":"America/New_York"},{"feed":"capecodaa.net","slug":"club-dry-dock-meeting-2","name":"Club Dry Dock Meeting","day":1,"time":"12:00","end_time":"13:00","types":["D","O"],"state":"MA","postal_code":"02645","city":"Harwich","address":"1421 Orleans-Harwich Rd","latitude":41.7067797,"longitude":-70.0224944,"location":"400 East Plaza Suite 101","region":"Harwich","notes":"In Person","url":"https://capecodaa.net/meetings/club-dry-dock-meeting-2/","timezone":"America/New_York"},{"feed":"rhodeisland-aa.org","slug":"daily-winners","name":"Daily Winners","day":1,"time":"12:00","end_time":"13:00","types":["EN","O","ST","X"],"state":"MA","postal_code":"02048","city":"Mansfield","address":"52 N Main St","latitude":42.0258047,"longitude":-71.2172741,"location":"First Baptist Church","region":"Mansfield, MA","url":"https://rhodeisland-aa.org/archives/meetings/daily-winners/","timezone":"America/New_York"},{"feed":"capecodaa.net","slug":"dry-dock-noon-zoom","name":"Dry Dock Noon Zoom","day":1,"time":"12:00","end_time":"13:00","types":["D","O","ONL"],"state":"MA","city":"Harwich","latitude":41.6716498,"longitude":-70.0622231,"location":"online-harwich","region":"Harwich","notes":"Zoom Meeting\nPassword is 077898","conference_url":"https://zoom.us/j/539414978","url":"https://capecodaa.net/meetings/dry-dock-noon-zoom/","timezone":"America/New_York"},{"feed":"capecodaa.net","slug":"good-serenity","name":"Peace and Serenity","day":1,"time":"12:00","end_time":"13:00","types":["D","O"],"state":"MA","postal_code":"02540","city":"Falmouth","address":"270 Gifford St","latitude":41.5595976,"longitude":-70.6114087,"location":"John Wesley Methodist Church","region":"Falmouth","notes":"In person meeting","url":"https://capecodaa.net/meetings/good-serenity/","timezone":"America/New_York"},{"feed":"capecodaa.net","slug":"noon-group","name":"Provincetown Nooner","day":1,"time":"12:00","end_time":"13:00","types":["D","O","ONL"],"state":"MA","postal_code":"02657","city":"Provincetown","address":"Historic District, 10 Shank Painter Rd","latitude":42.0482583,"longitude":-70.1923955,"location":"Methodist church","region":"Provincetown","notes":"Zoom ID 86861962889\nPasscode 581116","conference_url":"https://zoom.us/j/86861962889","url":"https://capecodaa.net/meetings/noon-group/","group":"Provincetown Meetings","timezone":"America/New_York"},{"feed":"capecodaa.net","slug":"noontime-group","name":"Looney Nooney","day":1,"time":"12:00","end_time":"13:00","types":["12x12","D","O"],"state":"MA","postal_code":"02601","city":"Hyannis","address":"347 South St","latitude":41.6494033,"longitude":-70.2863548,"location":"St Francis Xavier Church","region":"Hyannis","notes":"Step 1,2,3","url":"https://capecodaa.net/meetings/noontime-group/","group":"Hyannis Noontime","timezone":"America/New_York"},{"feed":"capecodaa.net","slug":"pause-a-while-drop-in-center-mondays-at-1200pm","name":"Noon Meeting","day":1,"time":"12:00","end_time":"13:00","types":["D","O","OUT","X"],"state":"MA","postal_code":"02631","city":"Brewster","address":"250 Underpass Rd","latitude":41.7582826,"longitude":-70.0665727,"location":"Pause A While","region":"Brewster","url":"https://capecodaa.net/meetings/pause-a-while-drop-in-center-mondays-at-1200pm/","timezone":"America/New_York"},{"feed":"capecodaa.net","slug":"revelation-group","name":"Revelation Group","day":1,"time":"12:00","end_time":"13:00","types":["D","O","ONL"],"state":"MA","city":"Falmouth","latitude":41.5532208,"longitude":-70.6085886,"location":"Falmouth, MA, USA","region":"Falmouth","notes":"Zoom 2123134567\nPassword : j2Apma","conference_url":"https://us02web.zoom.us/j/2123134567","url":"https://capecodaa.net/meetings/revelation-group/","timezone":"America/New_York"},{"feed":"capecodaa.net","slug":"revelations","name":"Revelations","day":1,"time":"12:00","end_time":"13:00","types":["D","O","SP","ONL"],"state":"MA","city":"Falmouth","latitude":41.5532208,"longitude":-70.6085886,"location":"Falmouth, MA, USA","region":"Falmouth","notes":"Zoom ID: 75756657080\nPassword: AA","conference_url":"https://zoom.us/j/75756657080","url":"https://capecodaa.net/meetings/revelations/","group":"Revelations","timezone":"America/New_York"},{"feed":"rhodeisland-aa.org","slug":"seaside-serenity","name":"Seaside Serenity","day":1,"time":"12:00","end_time":"13:00","types":["D","EN","O"],"state":"MA","postal_code":"02745","city":"New Bedford","address":"2195 Acushnet Ave","latitude":41.6828992,"longitude":-70.9226633,"location":"First Congregational Church","region":"New Bedford, MA","url":"https://rhodeisland-aa.org/archives/meetings/seaside-serenity/","timezone":"America/New_York"},{"feed":"capecodaa.net","slug":"you-are-not-alone-2","name":"You Are Not Alone","day":1,"time":"12:00","end_time":"13:00","types":["12x12"],"state":"MA","postal_code":"02653","city":"Orleans","address":"2 Namskaket Rd","latitude":41.7909003,"longitude":-69.9973952,"location":"Odd Fellows Hall","region":"Orleans","url":"https://capecodaa.net/meetings/you-are-not-alone-2/","group":"You Are Not Alone","timezone":"America/New_York"},{"feed":"capecodaa.net","slug":"stay-connected","name":"Stay Connected","day":1,"time":"14:00","end_time":"15:00","types":["ONL"],"state":"MA","city":"Brewster","latitude":41.7600902,"longitude":-70.0827905,"region":"Brewster","notes":"Monday Meditation Meeting","url":"https://capecodaa.net/meetings/stay-connected/","timezone":"America/New_York"},{"feed":"capecodaa.net","slug":"big-book-and-beyond-literature-study-2","name":"Big Book and Beyond Literature Study","day":1,"time":"17:00","end_time":"18:00","types":["B","ST","ONL"],"state":"MA","city":"Barnstable","latitude":41.7003208,"longitude":-70.3002024,"location":"Barnstable, MA, USA","region":"Barnstable","notes":"Zoom ID 3856886473","conference_url":"https://us02web.zoom.us/j/3856886473","url":"https://capecodaa.net/meetings/big-book-and-beyond-literature-study-2/","group":"Big Book and Beyond Literature Study","timezone":"America/New_York"},{"feed":"capecodaa.net","slug":"carry-the-message","name":"Carry The Message","day":1,"time":"17:00","end_time":"18:00","types":["D","O"],"state":"MA","postal_code":"02668","city":"West Barnstable","address":"1200 Old Stage Rd","latitude":41.6770684,"longitude":-70.3704843,"location":"Christ Chapel","region":"Barnstable","url":"https://capecodaa.net/meetings/carry-the-message/","timezone":"America/New_York"},{"feed":"capecodaa.net","slug":"club-dry-dock-3","name":"5 Alive","day":1,"time":"17:00","end_time":"18:00","types":["D","O"],"state":"MA","postal_code":"02645","city":"Harwich","address":"1421 Orleans-Harwich Rd","latitude":41.7067797,"longitude":-70.0224944,"location":"400 East Plaza Suite 101","region":"Harwich","url":"https://capecodaa.net/meetings/club-dry-dock-3/","timezone":"America/New_York"},{"feed":"capecodaa.net","slug":"fellowship-works","name":"Fellowship Works","day":1,"time":"17:00","end_time":"18:00","types":["D"],"state":"MA","postal_code":"02668","city":"West Barnstable","address":"2049 Meetinghouse Way","latitude":41.6984804,"longitude":-70.3839113,"location":"West Parish Of Barnstable-Jenkins Hall","region":"Barnstable","url":"https://capecodaa.net/meetings/fellowship-works/","group":"Fellowship Works","timezone":"America/New_York"},{"feed":"capecodaa.net","slug":"live-at-five","name":"Live at Five","day":1,"time":"17:00","end_time":"18:00","types":["D","O","X"],"state":"MA","postal_code":"02631","city":"Brewster","address":"701 Airline Rd","latitude":41.7258549,"longitude":-70.1394872,"location":"Northside United Methodist Church.","region":"Brewster","url":"https://capecodaa.net/meetings/live-at-five/","group":"Live at Five","timezone":"America/New_York"},{"feed":"capecodaa.net","slug":"pause-at-five-2","name":"Pause at Five","day":1,"time":"17:00","end_time":"18:00","types":["D","O","OUT","X","ONL"],"state":"MA","postal_code":"02631","city":"Brewster","address":"250 Underpass Rd","latitude":41.7582826,"longitude":-70.0665727,"location":"Pause A While","region":"Brewster","notes":"Phone 425-436-6360\nPasscode 422932","url":"https://capecodaa.net/meetings/pause-at-five-2/","timezone":"America/New_York"},{"feed":"rhodeisland-aa.org","slug":"keep-it-simple-sisters","name":"Keep It Simple Sisters","day":1,"time":"17:30","end_time":"18:30","types":["C","EN","ST","X","XB","W"],"state":"MA","postal_code":"02019","city":"Bellingham","address":"176 Mechanic St","latitude":42.0828145,"longitude":-71.4582983,"location":"How It Works Clubhouse","region":"Bellingham, MA","url":"https://rhodeisland-aa.org/archives/meetings/keep-it-simple-sisters/","timezone":"America/New_York"},{"feed":"capecodaa.net","slug":"one-day-at-a-time","name":"One Day At A Time","day":1,"time":"17:30","end_time":"18:30","types":["C","D","ONL"],"state":"MA","postal_code":"02649","city":"Mashpee","address":"5 Job's Fishing Rd","latitude":41.6165753,"longitude":-70.4955355,"location":"Christ the King Church","region":"Mashpee","notes":"Zoom 7058605312\nPassword: 01101935","conference_url":"https://us02web.zoom.us/j/7058605312?pwd=eU5FWWYycVBlYjIwcXJ1bmxPd1YrQT09","url":"https://capecodaa.net/meetings/one-day-at-a-time/","timezone":"America/New_York"},{"feed":"capecodaa.net","slug":"roots-causes","name":"Roots & Causes","day":1,"time":"17:30","end_time":"18:30","types":["12x12","B","O","ST","ONL"],"state":"MA","postal_code":"02559","city":"Pocasset","address":"298 Barlows Landing Rd","latitude":41.695247,"longitude":-70.6140659,"location":"First Baptist Church","region":"Bourne","conference_url":"https://us02web.zoom.us/j/5534303415","url":"https://capecodaa.net/meetings/roots-causes/","group":"Roots and Causes","timezone":"America/New_York"},{"feed":"rhodeisland-aa.org","slug":"lakeside","name":"Lakeside","day":1,"time":"18:00","end_time":"19:00","types":["EN","O","ST"],"state":"MA","postal_code":"02743","city":"Acushnet","address":"1215 Main St","latitude":41.739429,"longitude":-70.8971444,"location":"Long Plain United Methodist Church","region":"Acushnet,MA","url":"https://rhodeisland-aa.org/archives/meetings/lakeside/","timezone":"America/New_York"},{"feed":"rhodeisland-aa.org","slug":"s-o-u-l-sisters","name":"S.O.U.L Sisters","day":1,"time":"18:00","end_time":"19:15","types":["11","O","EN"],"state":"MA","postal_code":"02743","city":"Acushnet","address":"67 Main St","latitude":41.6828096,"longitude":-70.914396,"location":"Wesley United Methodist","region":"Acushnet,MA","url":"https://rhodeisland-aa.org/archives/meetings/s-o-u-l-sisters/","timezone":"America/New_York"},{"feed":"capecodaa.net","slug":"1939","name":"1939","day":1,"time":"18:30","end_time":"19:30","types":["B","TC"],"state":"MA","postal_code":"02655","city":"Osterville","address":"57 Pond St","latitude":41.634665,"longitude":-70.3889353,"location":"United Methodist Church","region":"Osterville","notes":"Meeting is on hiatus until October. No summer meetings.","url":"https://capecodaa.net/meetings/1939/","timezone":"America/New_York"},{"feed":"capecodaa.net","slug":"cotuit-federated-church-upstairs-mondays-at-730pm","name":"Cotuit Big Book","day":1,"time":"18:30","end_time":"19:30","types":["B","O"],"state":"MA","postal_code":"02635","city":"Cotuit","address":"40 School St","latitude":41.6178585,"longitude":-70.4365431,"location":"Cotuit Federated Church (upstairs)","region":"Cotuit","url":"https://capecodaa.net/meetings/cotuit-federated-church-upstairs-mondays-at-730pm/","timezone":"America/New_York"},{"feed":"rhodeisland-aa.org","slug":"keep-it-simple","name":"Keep It Simple","day":1,"time":"18:30","end_time":"19:30","types":["D","EN","O","SP"],"state":"MA","postal_code":"02035","city":"Foxborough","address":"3 Rockhill St","latitude":42.0652103,"longitude":-71.2520156,"location":"Bethany Congregational Church","region":"Foxboro, MA","url":"https://rhodeisland-aa.org/archives/meetings/keep-it-simple/","timezone":"America/New_York"},{"feed":"rhodeisland-aa.org","slug":"123-beginners-step","name":"1,2,3, Beginners Step","day":1,"time":"19:00","end_time":"20:30","types":["EN","BE","O","ST","X","XB"],"state":"MA","postal_code":"02723","city":"Fall River","address":"1507 Pleasant St","latitude":41.6895889,"longitude":-71.1332868,"location":"River To Recovery","region":"Fall River, MA","url":"https://rhodeisland-aa.org/archives/meetings/123-beginners-step/","timezone":"America/New_York"},{"feed":"capecodaa.net","slug":"dont-take-yourself-seriously","name":"We Don't Take Ourselves Too Seriously","day":1,"time":"19:00","end_time":"20:00","types":["D","O"],"state":"MA","postal_code":"02668","city":"West Barnstable","address":"4 Parker Rd","latitude":41.6981972,"longitude":-70.3554819,"location":"Our Lady of Hope Church","region":"Barnstable","notes":"In person, outside, weather permitting. Rain/cold inside, masks required when meeting indoors.","url":"https://capecodaa.net/meetings/dont-take-yourself-seriously/","timezone":"America/New_York"},{"feed":"rhodeisland-aa.org","slug":"fairhaven-young-peoples","name":"Fairhaven Young Peoples","day":1,"time":"19:00","end_time":"20:30","types":["D","EN","O","Y","ONL"],"state":"MA","postal_code":"02719","city":"Fairhaven","address":"16 Temple Pl","latitude":41.6414118,"longitude":-70.8916749,"location":"Trinity Lutheran Church","region":"Fairhaven,MA","notes":"Zoom Meeting ID: 716 094 8690","conference_url":"https://zoom.us/j/7160948690","url":"https://rhodeisland-aa.org/archives/meetings/fairhaven-young-peoples/","timezone":"America/New_York"},{"feed":"rhodeisland-aa.org","slug":"friends-of-new-life","name":"Friends Of New Life","day":1,"time":"19:00","end_time":"20:00","types":["O","SP","EN"],"state":"MA","postal_code":"02760","city":"North Attleborough","address":"75 Park St","latitude":41.9909685,"longitude":-71.3306106,"location":"First Baptist Church","region":"North Attleboro, MA","url":"https://rhodeisland-aa.org/archives/meetings/friends-of-new-life/","timezone":"America/New_York"},{"feed":"capecodaa.net","slug":"harborview-group","name":"Harborview Group","day":1,"time":"19:00","end_time":"20:00","types":["D","O","SP"],"state":"MA","postal_code":"02657","city":"Provincetown","address":"Historic District, 519 Commercial St","latitude":42.0579159,"longitude":-70.1757879,"location":"Church of St. Mary of the Harbor","region":"Provincetown","url":"https://capecodaa.net/meetings/harborview-group/","group":"Provincetown Meetings","timezone":"America/New_York"},{"feed":"rhodeisland-aa.org","slug":"last-chance","name":"Last Chance","day":1,"time":"19:00","end_time":"20:00","types":["D","EN","O","SP"],"state":"MA","postal_code":"02740","city":"New Bedford","address":"634 Purchase St","latitude":41.632658,"longitude":-70.9253784,"location":"Pilgrim United Church Of Christ","region":"New Bedford, MA","url":"https://rhodeisland-aa.org/archives/meetings/last-chance/","timezone":"America/New_York"},{"feed":"capecodaa.net","slug":"mbb-1212-study","name":"Men's Big Book and 12 & 12 Study","day":1,"time":"19:00","end_time":"20:00","types":["12x12","B","M","ONL"],"state":"MA","postal_code":"02645","city":"Harwich","address":"1421 Orleans-Harwich Rd","latitude":41.7067797,"longitude":-70.0224944,"location":"400 East Plaza Suite 101","region":"Harwich","notes":"Zoom 539414978","conference_url":"https://zoom.us/j/539414978","url":"https://capecodaa.net/meetings/mbb-1212-study/","timezone":"America/New_York"},{"feed":"capecodaa.net","slug":"mens-bbss","name":"Men's Big Book Step Study","day":1,"time":"19:00","end_time":"20:30","types":["B","M","O","ST"],"state":"MA","postal_code":"02643","city":"East Orleans","address":"162 Main St","latitude":41.7847694,"longitude":-69.9744585,"location":"Federated Church","region":"Orleans","url":"https://capecodaa.net/meetings/mens-bbss/","timezone":"America/New_York"},{"feed":"rhodeisland-aa.org","slug":"mens-fellowship","name":"Men's Fellowship","day":1,"time":"19:00","end_time":"20:30","types":["D","EN","M","O","X"],"state":"MA","postal_code":"02703","city":"Attleboro","address":"68 Falmouth St","latitude":41.945608,"longitude":-71.2758902,"location":"Cameron Recovery Center","region":"Attleboro, MA","url":"https://rhodeisland-aa.org/archives/meetings/mens-fellowship/","timezone":"America/New_York"},{"feed":"rhodeisland-aa.org","slug":"monday-night","name":"Monday Night","day":1,"time":"19:00","end_time":"20:00","types":["D","EN","O"],"state":"MA","postal_code":"02719","city":"Fairhaven","address":"34 Center St","latitude":41.6361453,"longitude":-70.9042283,"location":"Congregational Church","region":"Fairhaven,MA","url":"https://rhodeisland-aa.org/archives/meetings/monday-night/","timezone":"America/New_York"},{"feed":"capecodaa.net","slug":"out-of-the-fog-group","name":"Out of the Fog Group","day":1,"time":"19:00","end_time":"20:00","types":["D","O","SP"],"state":"MA","postal_code":"02667","city":"Wellfleet","address":"246 Main St #246","latitude":41.9388736,"longitude":-70.0297983,"location":"Wellfleet United Methodist Ch.","region":"Wellfleet","url":"https://capecodaa.net/meetings/out-of-the-fog-group/","timezone":"America/New_York"},{"feed":"capecodaa.net","slug":"stay-connected-9","name":"Stay Connected","day":1,"time":"19:00","end_time":"20:00","types":["D","W","ONL"],"state":"MA","city":"Brewster","latitude":41.7600902,"longitude":-70.0827905,"region":"Brewster","url":"https://capecodaa.net/meetings/stay-connected-9/","timezone":"America/New_York"},{"feed":"capecodaa.net","slug":"the-federated-church-of-hyannis-rear-mondays-at-730pm","name":"The Federated Church of Hyannis Mondays at 7:00PM","day":1,"time":"19:00","end_time":"20:00","types":["D","O"],"state":"MA","postal_code":"02601","city":"Hyannis","address":"320 Main St","latitude":41.6544741,"longitude":-70.2816169,"location":"The Federated Church of Hyannis","region":"Hyannis","notes":"enter from Main St. and the doorbell is located on the backside of the gate.","url":"https://capecodaa.net/meetings/the-federated-church-of-hyannis-rear-mondays-at-730pm/","timezone":"America/New_York"},{"feed":"rhodeisland-aa.org","slug":"viver-sobrio","name":"Viver Sobrio","day":1,"time":"19:00","end_time":"20:00","types":["D","O","POR"],"state":"MA","postal_code":"02724","city":"Fall River","address":"1600 Bay St","latitude":41.681233,"longitude":-71.1858364,"location":"Catholic Social Services","region":"Fall River, MA","url":"https://rhodeisland-aa.org/archives/meetings/viver-sobrio/","timezone":"America/New_York"},{"feed":"rhodeisland-aa.org","slug":"womens-12-step","name":"Women's 12 Step","day":1,"time":"19:00","end_time":"20:00","types":["EN","O","ST","W","ONL"],"state":"MA","postal_code":"02760","city":"North Attleborough","address":"676 Old Post Rd","latitude":41.9420805,"longitude":-71.3404466,"location":"Congregational Church Schoolhouse","region":"North Attleboro, MA","notes":"Zoom Meeting ID: 856 5568 5165 Passcode : 498021","conference_url":"https://us06web.zoom.us/j/85655685165?pwd=L1puN0Jod2d1N1RucEhjVUNyUkhpdz09","url":"https://rhodeisland-aa.org/archives/meetings/womens-12-step/","timezone":"America/New_York"},{"feed":"capecodaa.net","slug":"brewster-monday-night","name":"Brewster Monday Night","day":1,"time":"19:30","end_time":"20:30","types":["O","SP","X"],"state":"MA","postal_code":"02631","city":"Brewster","address":"1848 MA-6A","latitude":41.7596587,"longitude":-70.0848887,"location":"Brewster Baptist Church","region":"Brewster","url":"https://capecodaa.net/meetings/brewster-monday-night/","timezone":"America/New_York"},{"feed":"capecodaa.net","slug":"dennis-village-1212","name":"Dennis Village 12 & 12","day":1,"time":"19:30","end_time":"20:30","types":["12x12","ST"],"state":"MA","postal_code":"02638","city":"Dennis","address":"713 Main St","latitude":41.7372428,"longitude":-70.1917666,"location":"Dennis Union Church","region":"Dennis","url":"https://capecodaa.net/meetings/dennis-village-1212/","timezone":"America/New_York"},{"feed":"rhodeisland-aa.org","slug":"desire-to-stop","name":"Jewelry City","day":1,"time":"19:30","end_time":"20:30","types":["D","O","SP","X","XB","EN"],"state":"MA","postal_code":"02703","city":"Attleboro","address":"505 N Main St","latitude":41.9572958,"longitude":-71.2872719,"location":"Murray Universalist Church","region":"Attleboro, MA","url":"https://rhodeisland-aa.org/archives/meetings/desire-to-stop/","timezone":"America/New_York"},{"feed":"rhodeisland-aa.org","slug":"dont-quit","name":"Don't Quit","day":1,"time":"19:30","end_time":"20:30","types":["EN","O","SP"],"state":"MA","postal_code":"02767","city":"Raynham","address":"966 Broadway","latitude":41.9545053,"longitude":-71.0706347,"location":"Gilmore Hall","region":"Raynham, MA","url":"https://rhodeisland-aa.org/archives/meetings/dont-quit/","timezone":"America/New_York"},{"feed":"rhodeisland-aa.org","slug":"lakeside-2","name":"Lakeside","day":1,"time":"19:30","end_time":"20:30","types":["EN","O","SP"],"state":"MA","postal_code":"02743","city":"Acushnet","address":"1215 Main St","latitude":41.739429,"longitude":-70.8971444,"location":"Long Plain United Methodist Church","region":"Acushnet,MA","url":"https://rhodeisland-aa.org/archives/meetings/lakeside-2/","timezone":"America/New_York"},{"feed":"rhodeisland-aa.org","slug":"living-sober","name":"Living Sober","day":1,"time":"19:30","end_time":"21:00","types":["C","D","EN"],"state":"MA","postal_code":"02745","city":"New Bedford","address":"848 Mt Pleasant St","latitude":41.6735368,"longitude":-70.9443239,"location":"Faith Ministries","region":"New Bedford, MA","url":"https://rhodeisland-aa.org/archives/meetings/living-sober/","timezone":"America/New_York"},{"feed":"rhodeisland-aa.org","slug":"retread","name":"Retread","day":1,"time":"19:30","end_time":"20:30","types":["O","SP","EN","ONL"],"state":"MA","postal_code":"02726","city":"Somerset","address":"2112 County St","latitude":41.7614998,"longitude":-71.1384923,"location":"Church of our Saviour","region":"Somerset, MA","notes":"Zoom Meeting ID: 403 921 8084 Password : 650413","conference_url":"https://zoom.us/j/4039218084","url":"https://rhodeisland-aa.org/archives/meetings/retread/","timezone":"America/New_York"},{"feed":"capecodaa.net","slug":"west-falmouth-group","name":"West Falmouth Monday Night","day":1,"time":"19:30","end_time":"20:30","types":["O","SP"],"state":"MA","postal_code":"02540","city":"Falmouth","address":"485 Brick Kiln Rd","latitude":41.5876614,"longitude":-70.6106651,"location":"Christ Lutheran Church","region":"Falmouth","url":"https://capecodaa.net/meetings/west-falmouth-group/","timezone":"America/New_York"},{"feed":"capecodaa.net","slug":"a-new-wave-young-peoples-group-4","name":"A New Wave Young People's Group","day":1,"time":"20:00","end_time":"21:00","types":["ABSI","D","O","Y","ONL"],"state":"MA","city":"Orleans","latitude":41.7898354,"longitude":-69.9897323,"location":"Orleans, MA, USA","region":"Orleans","notes":"This is an open meeting for all young people, that meaning young in age OR young at heart. We are a meeting that welcomes all and any wanting to attend. This group is based out of Cape Cod but is open to people from anywhere in the world to attend. The schedule goes like this: Monday-Friday As Bill Sees it, Saturday- Speaker Meeting, Sundays- A Reading from the Big Book. Please join us :).\n\nZoom ID 88070968006","conference_url":"https://us02web.zoom.us/j/88070968006","url":"https://capecodaa.net/meetings/a-new-wave-young-peoples-group-4/","group":"A New Wave Young People's Group","timezone":"America/New_York"},{"feed":"capecodaa.net","slug":"methodist-church-mondays-at-8pm","name":"Bourne Again Steps","day":1,"time":"20:00","end_time":"21:15","types":["12x12","C"],"state":"MA","postal_code":"02532","city":"Bourne","address":"37 Sandwich Rd","latitude":41.7429437,"longitude":-70.5964438,"location":"Methodist Church","region":"Bourne","url":"https://capecodaa.net/meetings/methodist-church-mondays-at-8pm/","timezone":"America/New_York"},{"feed":"capecodaa.net","slug":"a-womans-way","name":"A woman's Way","day":2,"time":"00:00","end_time":"01:00","types":["12x12","D","W"],"state":"MA","postal_code":"02645","city":"Harwich","address":"1421 Orleans-Harwich Rd # 21","latitude":41.7067944,"longitude":-70.0224667,"location":"Club Dry Dock","region":"Orleans","url":"https://capecodaa.net/meetings/a-womans-way/","timezone":"America/New_York"},{"feed":"rhodeisland-aa.org","slug":"on-fire-all-right","name":"On Fire All Right","day":2,"time":"00:00","end_time":"01:00","types":["D","O","SP","Y","EN"],"state":"MA","postal_code":"02720","city":"Fall River","address":"175 N Main St","latitude":41.7043715,"longitude":-71.1547185,"location":"Peer 2 Peer Recovery Center","region":"Fall River, MA","url":"https://rhodeisland-aa.org/archives/meetings/on-fire-all-right/","timezone":"America/New_York"},{"feed":"rhodeisland-aa.org","slug":"morning-tune-up-men-3","name":"Morning Tune -Up (Men)","day":2,"time":"05:00","end_time":"06:00","types":["C","D","EN","M","X","XB"],"state":"MA","postal_code":"02019","city":"Bellingham","address":"176 Mechanic St","latitude":42.0828145,"longitude":-71.4582983,"location":"How It Works Clubhouse","region":"Bellingham, MA","url":"https://rhodeisland-aa.org/archives/meetings/morning-tune-up-men-3/","timezone":"America/New_York"},{"feed":"capecodaa.net","slug":"early-bird-3","name":"The 6:03 Meeting","day":2,"time":"06:00","end_time":"07:00","types":["DR","D","O","ONL"],"state":"MA","postal_code":"02601","city":"Barnstable","address":"Hyannis","latitude":41.6524911,"longitude":-70.2881124,"location":"Hyannis, Barnstable, MA 02601, USA","region":"Hyannis","notes":"Zoom 359275431\n\nOnline meeting only","conference_url":"https://zoom.us/j/359275431","url":"https://capecodaa.net/meetings/early-bird-3/","timezone":"America/New_York"},{"feed":"rhodeisland-aa.org","slug":"aa-awakening-2","name":"AA Awakening","day":2,"time":"06:30","end_time":"07:30","types":["D","EN","O","X","XB"],"state":"MA","postal_code":"02019","city":"Bellingham","address":"176 Mechanic St","latitude":42.0828145,"longitude":-71.4582983,"location":"How It Works Clubhouse","region":"Bellingham, MA","url":"https://rhodeisland-aa.org/archives/meetings/aa-awakening-2/","timezone":"America/New_York"},{"feed":"capecodaa.net","slug":"first-light-3","name":"First Light","day":2,"time":"06:30","end_time":"07:30","types":["D","O"],"state":"MA","postal_code":"02642","city":"Eastham","address":"220 Samoset Rd","latitude":41.8301385,"longitude":-69.9781805,"location":"Chapel in the Pines","region":"Eastham","url":"https://capecodaa.net/meetings/first-light-3/","group":"First Light","timezone":"America/New_York"},{"feed":"capecodaa.net","slug":"rising-tide-2","name":"Rising Tide","day":2,"time":"06:30","end_time":"07:30","types":["ABSI","DR","D","ONL"],"state":"MA","city":"Eastham","latitude":41.8299634,"longitude":-69.9740361,"region":"Eastham","notes":"Zoom Meeting 812 6285 4915\nPassword # 983354","conference_url":"https://zoom.us/j/81262854915","url":"https://capecodaa.net/meetings/rising-tide-2/","timezone":"America/New_York"},{"feed":"capecodaa.net","slug":"7-oclock-high-2","name":"7 O'Clock High","day":2,"time":"07:00","end_time":"08:00","types":["ABSI","DR","D"],"state":"MA","postal_code":"02664","city":"South Yarmouth","address":"347 Whites Path","latitude":41.690874,"longitude":-70.187138,"location":"Holway's Garage","region":"Yarmouth","notes":"Meeting is in the mechanics garage","url":"https://capecodaa.net/meetings/7-oclock-high-2/","timezone":"America/New_York"},{"feed":"capecodaa.net","slug":"7-up-group-3","name":"7-Up Group","day":2,"time":"07:00","end_time":"08:00","types":["D","O","X"],"state":"MA","postal_code":"02631","city":"Brewster","address":"250 Underpass Rd","latitude":41.7582826,"longitude":-70.0665727,"location":"Pause A While","region":"Brewster","url":"https://capecodaa.net/meetings/7-up-group-3/","timezone":"America/New_York"},{"feed":"capecodaa.net","slug":"attitude-adjustment-3","name":"Attitude Adjustment","day":2,"time":"07:00","end_time":"08:00","types":["B","D","O","ONL"],"state":"MA","postal_code":"02657","city":"Provincetown","address":"Historic District, 10 Shank Painter Rd","latitude":42.0482583,"longitude":-70.1923955,"location":"Methodist church","region":"Provincetown","notes":"Zoom ID 86861962889\nPasscode 581116","conference_url":"https://us06.web.zoom.us/j/86861962889","url":"https://capecodaa.net/meetings/attitude-adjustment-3/","group":"Provincetown Meetings","timezone":"America/New_York"},{"feed":"capecodaa.net","slug":"bass-river-morning-group-3","name":"Bass River Morning Group","day":2,"time":"07:00","end_time":"08:00","types":["C","D"],"state":"MA","postal_code":"02670","city":"West Dennis","address":"288 Main St","latitude":41.6647071,"longitude":-70.1705627,"location":"West Dennis Community Church","region":"Dennis","url":"https://capecodaa.net/meetings/bass-river-morning-group-3/","timezone":"America/New_York"},{"feed":"capecodaa.net","slug":"wellfleet-1st-light-4","name":"Wellfleet First Light","day":2,"time":"07:00","end_time":"08:00","types":["D","O"],"state":"MA","postal_code":"02667","city":"Wellfleet","address":"246 Main Street, basement, 246 Main St","latitude":41.9388538,"longitude":-70.0298114,"location":"United Methodist Church","region":"Wellfleet","notes":"Please bring your own coffee. Entry is on the side of the building along the parking lot, red door.","url":"https://capecodaa.net/meetings/wellfleet-1st-light-4/","group":"Wellfleet First Light","timezone":"America/New_York"},{"feed":"capecodaa.net","slug":"grateful-living-group-3","name":"Grateful Living Group","day":2,"time":"07:15","end_time":"08:15","types":["D","O","ONL"],"state":"MA","postal_code":"02631","city":"Brewster","address":"701 Airline Rd","latitude":41.7258549,"longitude":-70.1394872,"location":"Northside United Methodist Church.","region":"Brewster","notes":"PARK IN REAR, USE REAR ENTRANCE Formerly the \"Burger King\" meeting.\n\nZoom Password is 8626627573","conference_url":"https://zoom.us/j/8945481680","url":"https://capecodaa.net/meetings/grateful-living-group-3/","timezone":"America/New_York"},{"feed":"capecodaa.net","slug":"harwich-chatham-morning-sobriety-3","name":"Harwich/Chatham Morning Sobriety","day":2,"time":"07:15","end_time":"08:15","types":["D"],"state":"MA","postal_code":"02645","city":"Harwich","address":"1421 Orleans-Harwich Rd","latitude":41.7067797,"longitude":-70.0224944,"location":"400 East Plaza Suite 101","region":"Harwich","url":"https://capecodaa.net/meetings/harwich-chatham-morning-sobriety-3/","group":"Harwich/Chatham Morning Sobriety","timezone":"America/New_York"},{"feed":"capecodaa.net","slug":"each-day-a-new-beginning-2","name":"Each Day a New Beginning","day":2,"time":"07:30","end_time":"08:30","types":["D","O"],"state":"MA","postal_code":"02540","city":"Falmouth","address":"270 Gifford St","latitude":41.5595976,"longitude":-70.6114087,"location":"John Wesley Methodist Church","region":"Falmouth","url":"https://capecodaa.net/meetings/each-day-a-new-beginning-2/","group":"Each Day a New Beginning","timezone":"America/New_York"},{"feed":"capecodaa.net","slug":"each-day-a-new-beginning-virtual-3","name":"Each Day A New Beginning (Virtual)","day":2,"time":"07:30","end_time":"08:30","types":["D","TC","ONL"],"state":"MA","postal_code":"02601","city":"Hyannis","address":"396 Main St #5a","latitude":41.6529131,"longitude":-70.2842211,"location":"396 Main St #5a, Hyannis, MA 02601, USA","region":"Hyannis","notes":"Online meeting only\nZoom 93329657728\nEmail ednbzoom@gmail.com for passcode","conference_url":"https://zoom.us/j/93329657728","url":"https://capecodaa.net/meetings/each-day-a-new-beginning-virtual-3/","timezone":"America/New_York"},{"feed":"capecodaa.net","slug":"hit-the-deck-running-3","name":"Hit the Deck Running","day":2,"time":"07:30","end_time":"08:30","types":["D","O","ONL"],"state":"MA","postal_code":"02559","city":"Pocasset","address":"314 Barlows Landing Rd","latitude":41.6939723,"longitude":-70.6148478,"location":"Community Center","region":"Bourne","notes":"Zoom 87615878155\nPassword 2023","conference_url":"https://zoom.us/j/87615878155","url":"https://capecodaa.net/meetings/hit-the-deck-running-3/","group":"Hit the Deck Running","timezone":"America/New_York"},{"feed":"capecodaa.net","slug":"our-lady-of-victory-church-tuesdays-at-730am","name":"Hour of Power","day":2,"time":"07:30","end_time":"08:30","types":["D","O"],"state":"MA","postal_code":"02632","city":"Centerville","address":"230 S Main St","latitude":41.647639,"longitude":-70.3440203,"location":"Our Lady of Victory Church","region":"Centerville","url":"https://capecodaa.net/meetings/our-lady-of-victory-church-tuesdays-at-730am/","timezone":"America/New_York"},{"feed":"rhodeisland-aa.org","slug":"am-eye-openers-3","name":"AM Eye Openers","day":2,"time":"08:00","end_time":"09:00","types":["DR","EN","O","ONL"],"state":"MA","city":"Fall River","latitude":41.7014912,"longitude":-71.1550451,"location":"Massachusetts","region":"Fall River, MA","notes":"Zoom ID:531 675 268 Password: bcc7833","conference_url":"https://us04web.zoom.us/j/531675268","url":"https://rhodeisland-aa.org/archives/meetings/am-eye-openers-3/","timezone":"America/New_York"},{"feed":"rhodeisland-aa.org","slug":"am-recovery-3","name":"AM Recovery","day":2,"time":"08:00","end_time":"09:00","types":["D","EN","O","X","XB"],"state":"MA","postal_code":"02746","city":"New Bedford","address":"360 Coggeshall St","latitude":41.6555839,"longitude":-70.928391,"location":"PAACA Services","region":"New Bedford, MA","url":"https://rhodeisland-aa.org/archives/meetings/am-recovery-3/","timezone":"America/New_York"},{"feed":"rhodeisland-aa.org","slug":"recovery-cafe-2","name":"Recovery Cafe","day":2,"time":"08:00","end_time":"09:00","types":["D","EN","O"],"state":"MA","postal_code":"02743","city":"Acushnet","address":"67 Main St","latitude":41.6828096,"longitude":-70.914396,"location":"Wesley United Methodist","region":"Acushnet,MA","url":"https://rhodeisland-aa.org/archives/meetings/recovery-cafe-2/","timezone":"America/New_York"},{"feed":"capecodaa.net","slug":"the-lighthouse-3","name":"The Lighthouse","day":2,"time":"08:00","end_time":"09:00","types":["B","O","ONL"],"state":"MA","city":"Provincetown","latitude":42.0547136,"longitude":-70.1846012,"location":"Provincetown, MA 02657, USA","region":"Provincetown","notes":"Zoom ID 2750858390\nPasscode 059996","conference_url":"https://us02web.zoom.us/j/2750858390?pwd=SEs3QmtXdzBRbXAvMGhjNUorNCtHdz09","url":"https://capecodaa.net/meetings/the-lighthouse-3/","group":"The Lighthouse","timezone":"America/New_York"},{"feed":"capecodaa.net","slug":"virtual-reflections-3","name":"Daily Reflections","day":2,"time":"08:00","end_time":"09:00","types":["DR","D","O","ONL"],"state":"MA","postal_code":"02601","city":"Barnstable","address":"Hyannis","latitude":41.6524911,"longitude":-70.2881124,"location":"Hyannis, Barnstable, MA 02601, USA","region":"Hyannis","notes":"Email dailyreflections24@yahoo.com for password\nOnline meeting only.\nZoom 8111983891","conference_url":"https://zoom.us/j/8111983891","url":"https://capecodaa.net/meetings/virtual-reflections-3/","timezone":"America/New_York"},{"feed":"capecodaa.net","slug":"serenity-now-3","name":"Serenity Now","day":2,"time":"08:15","end_time":"09:15","types":["C","ONL"],"state":"MA","postal_code":"02601","city":"Barnstable","address":"Hyannis","latitude":41.6524911,"longitude":-70.2881124,"location":"Hyannis, Barnstable, MA 02601, USA","region":"Hyannis","notes":"Zoom ID 6444615638\nPassword 111856","conference_url":"https://zoom.us/j/6444615638","url":"https://capecodaa.net/meetings/serenity-now-3/","group":"Serenity Now","timezone":"America/New_York"},{"feed":"capecodaa.net","slug":"attitude-adjustment-10","name":"Attitude Adjustment","day":2,"time":"08:30","end_time":"09:30","types":["12x12","B","D","G","LS","O","SP"],"state":"MA","postal_code":"02657","city":"Provincetown","address":"20 Shank Painter Rd","latitude":42.0487788,"longitude":-70.1938333,"location":"Provincetown United Methodist Church","region":"Provincetown","url":"https://capecodaa.net/meetings/attitude-adjustment-10/","group":"Attitude Adjustment","timezone":"America/New_York"},{"feed":"capecodaa.net","slug":"sob1st-ala-zoom-3","name":"Sob1st ala Zoom","day":2,"time":"08:30","end_time":"09:30","types":["D","ONL"],"state":"MA","postal_code":"02601","city":"Barnstable","address":"Hyannis","latitude":41.6524911,"longitude":-70.2881124,"location":"Hyannis, Barnstable, MA 02601, USA","region":"Hyannis","notes":"https://zoom.us/j/649304568","conference_url":"https://zoom.us/j/649304568","url":"https://capecodaa.net/meetings/sob1st-ala-zoom-3/","timezone":"America/New_York"},{"feed":"capecodaa.net","slug":"community-center-tuesdays-at-9am","name":"Step Sisters","day":2,"time":"09:00","end_time":"10:15","types":["B","O","W"],"state":"MA","postal_code":"02559","city":"Pocasset","address":"314 Barlows Landing Rd","latitude":41.6939723,"longitude":-70.6148478,"location":"Community Center","region":"Bourne","url":"https://capecodaa.net/meetings/community-center-tuesdays-at-9am/","timezone":"America/New_York"},{"feed":"capecodaa.net","slug":"sandwich-tuesday-morning-bbss-meeting","name":"Sandwich Tuesday Morning Women's BBSS Meeting","day":2,"time":"09:30","end_time":"11:00","types":["B","ST","W"],"state":"MA","postal_code":"02563","city":"Sandwich","address":"136 Main St","latitude":41.757684,"longitude":-70.4993937,"location":"First Church UCC","region":"Sandwich","url":"https://capecodaa.net/meetings/sandwich-tuesday-morning-bbss-meeting/","timezone":"America/New_York"},{"feed":"capecodaa.net","slug":"sobriety-1st-5","name":"Sobriety First","day":2,"time":"09:30","end_time":"10:30","types":["D","O","SP","X"],"state":"MA","postal_code":"02655","city":"Osterville","address":"421 Wianno Ave","latitude":41.6208284,"longitude":-70.3736153,"location":"St. Peters Church","region":"Osterville","url":"https://capecodaa.net/meetings/sobriety-1st-5/","group":"Sobriety First","timezone":"America/New_York"},{"feed":"rhodeisland-aa.org","slug":"tuesday-morning-big-book","name":"Tuesday Morning Big Book","day":2,"time":"09:30","end_time":"11:00","types":["B","C","EN"],"state":"MA","postal_code":"02767","city":"Raynham","address":"785 S Main St","latitude":41.9225858,"longitude":-71.0516347,"location":"First Congregational Church","region":"Raynham, MA","url":"https://rhodeisland-aa.org/archives/meetings/tuesday-morning-big-book/","timezone":"America/New_York"},{"feed":"rhodeisland-aa.org","slug":"desire-to-stop-2","name":"Just Say No Beginners","day":2,"time":"10:00","end_time":"23:00","types":["D","EN","BE","O","X"],"state":"MA","postal_code":"02703","city":"Attleboro","address":"68 Falmouth St","latitude":41.945608,"longitude":-71.2758902,"location":"Cameron Recovery Center","region":"Attleboro, MA","url":"https://rhodeisland-aa.org/archives/meetings/desire-to-stop-2/","timezone":"America/New_York"},{"feed":"capecodaa.net","slug":"she-sharing-her-experience","name":"SHE - Sharing Her Experience","day":2,"time":"10:00","end_time":"11:00","types":["ABSI","D","W","ONL"],"state":"MA","postal_code":"02601","city":"Barnstable","address":"Hyannis","latitude":41.6524911,"longitude":-70.2881124,"location":"Hyannis, Barnstable, MA 02601, USA","region":"Hyannis","notes":"Zoom ID 3802446492\nPassword faith","conference_url":"https://us02web.zoom.us/j/3802446492?pwd=bWdJaVJxdGUIS1hZQnlSZE10WEFvQT09","url":"https://capecodaa.net/meetings/she-sharing-her-experience/","group":"SHE - Sharing Her Experience","timezone":"America/New_York"},{"feed":"capecodaa.net","slug":"step-up-to-sobriety","name":"Step Up to Sobriety","day":2,"time":"10:30","end_time":"11:30","types":["12x12","C","ONL"],"state":"MA","postal_code":"02664","city":"South Yarmouth","address":"205 Old Main St","latitude":41.6622539,"longitude":-70.1920456,"location":"St. David's Episcopal Church","region":"Yarmouth","notes":"Zoom 242418231\nMeeting online and in person","conference_url":"https://zoom.us/j/242418231","url":"https://capecodaa.net/meetings/step-up-to-sobriety/","timezone":"America/New_York"},{"feed":"capecodaa.net","slug":"club-dry-dock-12","name":"Club Dry Dock","day":2,"time":"12:00","end_time":"13:00","types":["D","O","ONL"],"state":"MA","postal_code":"02601","city":"Barnstable","address":"Hyannis","latitude":41.6524911,"longitude":-70.2881124,"location":"Hyannis, Barnstable, MA 02601, USA","region":"Hyannis","notes":"online only\nPassword 077898","conference_url":"https://zoom.us/j/539414978","url":"https://capecodaa.net/meetings/club-dry-dock-12/","timezone":"America/New_York"},{"feed":"capecodaa.net","slug":"club-dry-dock-meeting-3","name":"Club Dry Dock Meeting","day":2,"time":"12:00","end_time":"13:00","types":["D","O"],"state":"MA","postal_code":"02645","city":"Harwich","address":"1421 Orleans-Harwich Rd","latitude":41.7067797,"longitude":-70.0224944,"location":"400 East Plaza Suite 101","region":"Harwich","notes":"In person","url":"https://capecodaa.net/meetings/club-dry-dock-meeting-3/","timezone":"America/New_York"},{"feed":"rhodeisland-aa.org","slug":"daily-winners-2","name":"Daily Winners","day":2,"time":"12:00","end_time":"13:00","types":["EN","O","ST","X"],"state":"MA","postal_code":"02048","city":"Mansfield","address":"52 N Main St","latitude":42.0258047,"longitude":-71.2172741,"location":"First Baptist Church","region":"Mansfield, MA","url":"https://rhodeisland-aa.org/archives/meetings/daily-winners-2/","timezone":"America/New_York"},{"feed":"rhodeisland-aa.org","slug":"desire-to-stop-3","name":"Desire To Stop","day":2,"time":"12:00","end_time":"13:00","types":["D","EN","O","X"],"state":"MA","postal_code":"02703","city":"Attleboro","address":"68 Falmouth St","latitude":41.945608,"longitude":-71.2758902,"location":"Cameron Recovery Center","region":"Attleboro, MA","url":"https://rhodeisland-aa.org/archives/meetings/desire-to-stop-3/","timezone":"America/New_York"},{"feed":"capecodaa.net","slug":"dewitt-clinton-lodge-tuesdays-at-10am","name":"Sandwich Tuesday 12 & 12","day":2,"time":"12:00","end_time":"13:00","types":["12x12","O","ST","X"],"state":"MA","postal_code":"02563","city":"Sandwich","address":"159 Main St","latitude":41.7577202,"longitude":-70.4957679,"location":"St. John's Episcopal Church","region":"Sandwich","notes":"right front side door","url":"https://capecodaa.net/meetings/dewitt-clinton-lodge-tuesdays-at-10am/","timezone":"America/New_York"},{"feed":"capecodaa.net","slug":"dry-dock-noon-zoom-2","name":"Dry Dock Noon Zoom","day":2,"time":"12:00","end_time":"13:00","types":["D","O","ONL"],"state":"MA","city":"Harwich","latitude":41.6716498,"longitude":-70.0622231,"location":"online-harwich","region":"Harwich","notes":"Zoom Meeting\n\nPassword is 077898","conference_url":"https://zoom.us/j/539414978","url":"https://capecodaa.net/meetings/dry-dock-noon-zoom-2/","timezone":"America/New_York"},{"feed":"capecodaa.net","slug":"good-serenity-2","name":"Peace and Serenity","day":2,"time":"12:00","end_time":"13:00","types":["D","O"],"state":"MA","postal_code":"02540","city":"Falmouth","address":"270 Gifford St","latitude":41.5595976,"longitude":-70.6114087,"location":"John Wesley Methodist Church","region":"Falmouth","notes":"in person meeting","url":"https://capecodaa.net/meetings/good-serenity-2/","timezone":"America/New_York"},{"feed":"capecodaa.net","slug":"noon-group-2","name":"Provincetown Nooner","day":2,"time":"12:00","end_time":"13:00","types":["B","D","O","ONL"],"state":"MA","postal_code":"02657","city":"Provincetown","address":"Historic District, 10 Shank Painter Rd","latitude":42.0482583,"longitude":-70.1923955,"location":"Methodist church","region":"Provincetown","notes":"Zoom ID 86861962889\nPasscode 581116","conference_url":"https://zoom.us/j/86861962889","url":"https://capecodaa.net/meetings/noon-group-2/","group":"Provincetown Meetings","timezone":"America/New_York"},{"feed":"capecodaa.net","slug":"noontime-group-2","name":"Looney Nooney","day":2,"time":"12:00","end_time":"13:00","types":["D","O"],"state":"MA","postal_code":"02601","city":"Hyannis","address":"347 South St","latitude":41.6494033,"longitude":-70.2863548,"location":"St Francis Xavier Church","region":"Hyannis","url":"https://capecodaa.net/meetings/noontime-group-2/","group":"Hyannis Noontime","timezone":"America/New_York"},{"feed":"capecodaa.net","slug":"odd-fellows-hall-tuesdays-at-1200pm","name":"You Are Not Alone","day":2,"time":"12:00","end_time":"13:00","types":["D","O"],"state":"MA","postal_code":"02653","city":"Orleans","address":"2 Namskaket Rd","latitude":41.7909003,"longitude":-69.9973952,"location":"Odd Fellows Hall","region":"Orleans","url":"https://capecodaa.net/meetings/odd-fellows-hall-tuesdays-at-1200pm/","group":"You Are Not Alone","timezone":"America/New_York"},{"feed":"capecodaa.net","slug":"revelations-2","name":"Revelations","day":2,"time":"12:00","end_time":"13:00","types":["D","O","SP","ONL"],"state":"MA","city":"Falmouth","latitude":41.5532208,"longitude":-70.6085886,"location":"Falmouth, MA, USA","region":"Falmouth","notes":"ID 2123134567\nPassword: j2Apma","conference_url":"https://zoom.us/j/2123134567","url":"https://capecodaa.net/meetings/revelations-2/","timezone":"America/New_York"},{"feed":"rhodeisland-aa.org","slug":"seaside-serenity-2","name":"Seaside Serenity","day":2,"time":"12:00","end_time":"13:00","types":["DR","D","EN","O"],"state":"MA","postal_code":"02745","city":"New Bedford","address":"2195 Acushnet Ave","latitude":41.6828992,"longitude":-70.9226633,"location":"First Congregational Church","region":"New Bedford, MA","url":"https://rhodeisland-aa.org/archives/meetings/seaside-serenity-2/","timezone":"America/New_York"},{"feed":"capecodaa.net","slug":"stay-connected-2","name":"Stay Connected","day":2,"time":"14:00","end_time":"15:00","types":["D","ONL"],"state":"MA","city":"Brewster","latitude":41.7600902,"longitude":-70.0827905,"region":"Brewster","url":"https://capecodaa.net/meetings/stay-connected-2/","timezone":"America/New_York"},{"feed":"capecodaa.net","slug":"a-womans-way-2","name":"A woman's Way","day":2,"time":"15:15","end_time":"16:40","types":["C","ST","W"],"state":"MA","postal_code":"02645","city":"Harwich","address":"1421 Orleans-Harwich Rd # 21","latitude":41.7067944,"longitude":-70.0224667,"location":"Club Dry Dock","region":"Orleans","url":"https://capecodaa.net/meetings/a-womans-way-2/","timezone":"America/New_York"},{"feed":"capecodaa.net","slug":"barnstable-village-12-step","name":"Barnstable Village 12 Step","day":2,"time":"16:00","end_time":"17:00","types":["12x12","TC"],"state":"MA","city":"Barnstable","address":"S Main St","latitude":41.64234,"longitude":-70.3484936,"location":"St Mary's Episcopal Church","region":"Barnstable","notes":"Temporarily suspended.","url":"https://capecodaa.net/meetings/barnstable-village-12-step/","timezone":"America/New_York"},{"feed":"capecodaa.net","slug":"big-book-and-beyond-literature-study-3","name":"Big Book and Beyond Literature Study","day":2,"time":"17:00","end_time":"18:00","types":["B","ST","ONL"],"state":"MA","city":"Barnstable","latitude":41.7003208,"longitude":-70.3002024,"location":"Barnstable, MA, USA","region":"Barnstable","notes":"Zoom ID 3856886473","conference_url":"https://us02web.zoom.us/j/3856886473","url":"https://capecodaa.net/meetings/big-book-and-beyond-literature-study-3/","group":"Big Book and Beyond Literature Study","timezone":"America/New_York"},{"feed":"capecodaa.net","slug":"carry-the-message-6","name":"Carry The Message","day":2,"time":"17:00","end_time":"18:00","types":["D"],"state":"MA","postal_code":"02668","city":"Centerville","address":"1200 Old Stage Rd","latitude":41.677467,"longitude":-70.3701514,"region":"Centerville","url":"https://capecodaa.net/meetings/carry-the-message-6/","group":"Carry The Message","timezone":"America/New_York"},{"feed":"capecodaa.net","slug":"club-dry-dock-4","name":"5 Alive","day":2,"time":"17:00","end_time":"18:00","types":["D","O"],"state":"MA","postal_code":"02645","city":"Harwich","address":"1421 Orleans-Harwich Rd","latitude":41.7067797,"longitude":-70.0224944,"location":"400 East Plaza Suite 101","region":"Harwich","url":"https://capecodaa.net/meetings/club-dry-dock-4/","timezone":"America/New_York"},{"feed":"capecodaa.net","slug":"fellowship-works-2","name":"Fellowship Works","day":2,"time":"17:00","end_time":"18:00","types":["D"],"state":"MA","postal_code":"02668","city":"West Barnstable","address":"2049 Meetinghouse Way","latitude":41.6984804,"longitude":-70.3839113,"location":"West Parish Of Barnstable-Jenkins Hall","region":"Barnstable","url":"https://capecodaa.net/meetings/fellowship-works-2/","group":"Fellowship Works","timezone":"America/New_York"},{"feed":"capecodaa.net","slug":"live-at-five-2","name":"Live at Five","day":2,"time":"17:00","end_time":"18:00","types":["D","O","X"],"state":"MA","postal_code":"02631","city":"Brewster","address":"701 Airline Rd","latitude":41.7258549,"longitude":-70.1394872,"location":"Northside United Methodist Church.","region":"Brewster","url":"https://capecodaa.net/meetings/live-at-five-2/","group":"Live at Five","timezone":"America/New_York"},{"feed":"capecodaa.net","slug":"pause-at-five-3","name":"Pause at Five","day":2,"time":"17:00","end_time":"18:00","types":["D","O","X","ONL"],"state":"MA","postal_code":"02631","city":"Brewster","address":"250 Underpass Rd","latitude":41.7582826,"longitude":-70.0665727,"location":"Pause A While","region":"Brewster","notes":"Phone +14254366360\nPW 422932\nBy phone or in person","url":"https://capecodaa.net/meetings/pause-at-five-3/","timezone":"America/New_York"},{"feed":"capecodaa.net","slug":"roots-causes-2","name":"Roots & Causes","day":2,"time":"17:30","end_time":"18:30","types":["12x12","B","D","O","ST","ONL"],"state":"MA","postal_code":"02559","city":"Pocasset","address":"298 Barlows Landing Rd","latitude":41.695247,"longitude":-70.6140659,"location":"First Baptist Church","region":"Bourne","conference_url":"https://us02web.zoom.us/j/5534303415","url":"https://capecodaa.net/meetings/roots-causes-2/","group":"Roots and Causes","timezone":"America/New_York"},{"feed":"capecodaa.net","slug":"saint-barnabas-big-book","name":"Saint Barnabas Big Book","day":2,"time":"17:30","end_time":"18:30","types":["B"],"state":"MA","postal_code":"02540","city":"Falmouth","address":"91 Main St","latitude":41.553168,"longitude":-70.6190145,"location":"St. Barnabas Church","region":"Falmouth","url":"https://capecodaa.net/meetings/saint-barnabas-big-book/","timezone":"America/New_York"},{"feed":"capecodaa.net","slug":"harbor-view","name":"Harbor View","day":2,"time":"18:00","end_time":"19:00","types":["11","MED"],"state":"MA","postal_code":"02657","city":"Provincetown","address":"Historic District, 519 Commercial St","latitude":42.0579159,"longitude":-70.1757879,"location":"Church of St. Mary of the Harbor","region":"Provincetown","url":"https://capecodaa.net/meetings/harbor-view/","timezone":"America/New_York"},{"feed":"rhodeisland-aa.org","slug":"promise-of-hope","name":"Promise Of Hope","day":2,"time":"18:30","end_time":"19:30","types":["12x12","O","EN"],"state":"MA","postal_code":"02720","city":"Fall River","address":"160 Rock St","latitude":41.7038434,"longitude":-71.1533822,"location":"Church Of The Holy Spirit","region":"Fall River, MA","notes":"Tradition Meeting last Tuesday of the month","url":"https://rhodeisland-aa.org/archives/meetings/promise-of-hope/","timezone":"America/New_York"},{"feed":"capecodaa.net","slug":"sisters-in-sobriety","name":"Sisters In Sobriety","day":2,"time":"18:30","end_time":"19:45","types":["O","ST","W"],"state":"MA","postal_code":"02540","city":"Falmouth","address":"790 Main St","latitude":41.5549349,"longitude":-70.6044143,"location":"Gus Canty Community Center - 2nd floor room #1","region":"Falmouth","url":"https://capecodaa.net/meetings/sisters-in-sobriety/","timezone":"America/New_York"},{"feed":"rhodeisland-aa.org","slug":"there-is-a-solution","name":"There is a Solution","day":2,"time":"18:30","end_time":"20:00","types":["B","O","ST","EN"],"state":"MA","postal_code":"02719","city":"Fairhaven","address":"16 Temple Pl","latitude":41.6414118,"longitude":-70.8916749,"location":"Trinity Lutheran Church","region":"Fairhaven,MA","url":"https://rhodeisland-aa.org/archives/meetings/there-is-a-solution/","timezone":"America/New_York"},{"feed":"rhodeisland-aa.org","slug":"tuesday-night-step","name":"Tuesday Night Step","day":2,"time":"18:30","end_time":"19:30","types":["C","EN","ST"],"state":"MA","postal_code":"02720","city":"Fall River","address":"600 Highland Ave","latitude":41.7137636,"longitude":-71.144898,"location":"United Methodist Church","region":"Fall River, MA","url":"https://rhodeisland-aa.org/archives/meetings/tuesday-night-step/","timezone":"America/New_York"},