[{"feed":"aanorthdakota.org","slug":"sunrise-group","name":"Sunrise Group","day":0,"time":"07:00","types":["O"],"state":"ND","postal_code":"58203","city":"Grand Forks","address":"401 N 7th St","latitude":47.9247704,"longitude":-97.0395873,"location":"Antenna Building","url":"https://aanorthdakota.org/meetings/sunrise-group/","timezone":"America/Chicago"},{"feed":"aanorthdakota.org","slug":"keep-it-simple-18","name":"Old Time AA Group","day":0,"time":"08:00","types":["12x12","B","C","BE","X"],"state":"ND","postal_code":"58501","city":"Bismarck","address":"1525 E Thayer Ave","latitude":46.8071223,"longitude":-100.7682139,"location":"Serenity Place","url":"https://aanorthdakota.org/meetings/keep-it-simple-18/","timezone":"America/Chicago"},{"feed":"aanorthdakota.org","slug":"capital-city-group-28","name":"Capital City Group","day":0,"time":"09:00","types":["D","O","ONL"],"state":"ND","city":"Bismarck","latitude":46.8041643,"longitude":-100.7877616,"url":"https://aanorthdakota.org/meetings/capital-city-group-28/","timezone":"America/Chicago"},{"feed":"aanorthdakota.org","slug":"language-of-the-heart","name":"Language of the Heart","day":0,"time":"09:30","types":["O"],"state":"ND","postal_code":"58203","city":"Grand Forks","address":"401 N 7th St","latitude":47.9247704,"longitude":-97.0395873,"location":"Antenna Building","url":"https://aanorthdakota.org/meetings/language-of-the-heart/","timezone":"America/Chicago"},{"feed":"aanorthdakota.org","slug":"williston-group","name":"Williston A.A. Group","day":0,"time":"09:30","types":["ABSI","DR","D","O"],"state":"ND","postal_code":"58801","city":"Williston","address":"305 Main St","latitude":48.1467077,"longitude":-103.6221269,"location":"Williston A.A. Group","url":"https://aanorthdakota.org/meetings/williston-group/","timezone":"America/Chicago"},{"feed":"aanorthdakota.org","slug":"together-we-got-this","name":"Together We Got This","day":0,"time":"10:00","types":["B","C","X","ONL"],"state":"ND","postal_code":"58206","city":"Grand Forks","latitude":47.8920956,"longitude":-97.0628188,"location":"Grand Forks","url":"https://aanorthdakota.org/meetings/together-we-got-this/","timezone":"America/Chicago"},{"feed":"aanorthdakota.org","slug":"fargo-aa-group","name":"Fargo A.A. Group","day":0,"time":"11:00","types":["C"],"state":"ND","postal_code":"58103","city":"Fargo","address":"1112 3rd Ave S","latitude":46.8714388,"longitude":-96.7967956,"location":"SDSOS Clubhouse","url":"https://aanorthdakota.org/meetings/fargo-aa-group/","timezone":"America/Chicago"},{"feed":"aanorthdakota.org","slug":"keep-it-simple","name":"Keep It Simple","day":0,"time":"11:00","types":["O","X"],"state":"ND","postal_code":"58501","city":"Bismarck","address":"1525 E Thayer Ave","latitude":46.8071223,"longitude":-100.7682139,"location":"Serenity Place","url":"https://aanorthdakota.org/meetings/keep-it-simple/","timezone":"America/Chicago"},{"feed":"aanorthdakota.org","slug":"capital-city-group","name":"Capital City Group","day":0,"time":"12:00","types":["O"],"state":"ND","postal_code":"58501","city":"Bismarck","address":"2206 E Broadway Ave","latitude":46.8065412,"longitude":-100.7584066,"location":"Capital City Group","url":"https://aanorthdakota.org/meetings/capital-city-group/","timezone":"America/Chicago"},{"feed":"aanorthdakota.org","slug":"red-river-group","name":"Red River Group","day":0,"time":"12:00","types":["C"],"state":"ND","postal_code":"58203","city":"Grand Forks","address":"401 N 7th St","latitude":47.9247704,"longitude":-97.0395873,"location":"Antenna Building","url":"https://aanorthdakota.org/meetings/red-river-group/","timezone":"America/Chicago"},{"feed":"aanorthdakota.org","slug":"district-10-business-meeting-3rd-sunday-of-every-month-only","name":"District 10 Business Meeting 3rd Sunday of Every Month only","day":0,"time":"12:30","types":["O","X"],"state":"ND","postal_code":"58501","city":"Bismarck","address":"1525 E Thayer Ave","latitude":46.8071223,"longitude":-100.7682139,"location":"Serenity Place","url":"https://aanorthdakota.org/meetings/district-10-business-meeting-3rd-sunday-of-every-month-only/","timezone":"America/Chicago"},{"feed":"aanorthdakota.org","slug":"healthy-skins-2","name":"Healthy Skins","day":0,"time":"13:00","types":["CF","DR","D","N","O","SP","X"],"state":"ND","postal_code":"58763","city":"New Town","address":"304 Seventh St N","latitude":47.9854765,"longitude":-102.4880051,"location":"Grey house","url":"https://aanorthdakota.org/meetings/healthy-skins-2/","timezone":"America/Chicago"},{"feed":"aanorthdakota.org","slug":"james-river-group-13","name":"James River Group","day":0,"time":"13:00","types":["GR","LIT","X"],"state":"ND","postal_code":"58401","city":"Jamestown","address":"518 10th Ave SE","latitude":46.9034237,"longitude":-98.6952095,"location":"A.A. Clubhouse","url":"https://aanorthdakota.org/meetings/james-river-group-13/","timezone":"America/Chicago"},{"feed":"aanorthdakota.org","slug":"700-group-2","name":"700 Group","day":0,"time":"14:00","types":["B","C"],"state":"ND","postal_code":"58701","city":"Minot","address":"700 16th Ave SW","latitude":48.2184781,"longitude":-101.3031897,"location":"700 Group","url":"https://aanorthdakota.org/meetings/700-group-2/","timezone":"America/Chicago"},{"feed":"aanorthdakota.org","slug":"capital-city-group-40","name":"Capital City Group","day":0,"time":"14:00","types":["B","O","ONL"],"state":"ND","city":"Bismarck","latitude":46.8041643,"longitude":-100.7877616,"url":"https://aanorthdakota.org/meetings/capital-city-group-40/","timezone":"America/Chicago"},{"feed":"aanorthdakota.org","slug":"choose-wisely-campaign-group","name":"Choose Wisely Campaign Group","day":0,"time":"14:00","types":["LIT","O","ONL"],"state":"ND","city":"Minot","latitude":48.2329668,"longitude":-101.2922906,"url":"https://aanorthdakota.org/meetings/choose-wisely-campaign-group/","timezone":"America/Chicago"},{"feed":"aanorthdakota.org","slug":"fargo-aa-group-beginners","name":"Fargo AA First Steps to Sobriety","day":0,"time":"14:00","types":["C","D","EN","LS"],"state":"ND","postal_code":"58103","city":"Fargo","address":"1112 3rd Ave S","latitude":46.8714388,"longitude":-96.7967956,"location":"SDSOS Clubhouse","url":"https://aanorthdakota.org/meetings/fargo-aa-group-beginners/","timezone":"America/Chicago"},{"feed":"aanorthdakota.org","slug":"sunday-morning-group","name":"Sunday Morning Group","day":0,"time":"14:00","types":["O","SP","X"],"state":"ND","postal_code":"58601","city":"Dickinson","address":"2510 21st St W","latitude":46.9057579,"longitude":-102.8255615,"location":"Prairie Winds Church","url":"https://aanorthdakota.org/meetings/sunday-morning-group/","timezone":"America/Chicago"},{"feed":"aanorthdakota.org","slug":"wing-dingers","name":"Wing Dingers","day":0,"time":"14:00","types":["O"],"state":"ND","postal_code":"58494","city":"Wing","address":"4 2nd Ave W","latitude":47.141599,"longitude":-100.2806213,"location":"Fire Hall","url":"https://aanorthdakota.org/meetings/wing-dingers/","timezone":"America/Chicago"},{"feed":"aanorthdakota.org","slug":"way-of-life","name":"Way of Life","day":0,"time":"15:00","types":["C"],"state":"ND","postal_code":"58203","city":"Grand Forks","address":"520 University Ave","latitude":47.9252531,"longitude":-97.037103,"location":"Augustana Lutheran Church","url":"https://aanorthdakota.org/meetings/way-of-life/","timezone":"America/Chicago"},{"feed":"aanorthdakota.org","slug":"capital-city-group-2","name":"Capital City Group","day":0,"time":"16:00","types":["O"],"state":"ND","postal_code":"58501","city":"Bismarck","address":"2206 E Broadway Ave","latitude":46.8065412,"longitude":-100.7584066,"location":"Capital City Group","url":"https://aanorthdakota.org/meetings/capital-city-group-2/","timezone":"America/Chicago"},{"feed":"aanorthdakota.org","slug":"hard-core-at-4-group","name":"Hard Core At 4 Group","day":0,"time":"16:00","types":[],"state":"ND","postal_code":"58501","city":"Bismarck","address":"1525 E Thayer Ave","latitude":46.8071223,"longitude":-100.7682139,"location":"Serenity Place","url":"https://aanorthdakota.org/meetings/hard-core-at-4-group/","timezone":"America/Chicago"},{"feed":"aanorthdakota.org","slug":"new-awakenings-group","name":"New Awakenings Group","day":0,"time":"16:00","types":["DR","D","LS","BE","O","X"],"state":"ND","postal_code":"58523","city":"Beulah","address":"200 19th St NW","latitude":47.2822088,"longitude":-101.7811219,"location":"Prince of Peace Lutheran Church","url":"https://aanorthdakota.org/meetings/new-awakenings-group/","timezone":"America/Chicago"},{"feed":"aanorthdakota.org","slug":"center-aa-group","name":"Center A.A. Group","day":0,"time":"16:30","types":["C"],"state":"ND","postal_code":"58530","city":"Center","address":"209 E Main St","latitude":47.1151303,"longitude":-101.2975626,"location":"St. Paul Lutheran Church","url":"https://aanorthdakota.org/meetings/center-aa-group/","timezone":"America/Chicago"},{"feed":"aanorthdakota.org","slug":"district-vii-business-meeting","name":"District VII Business Meeting 2nd Sunday of each month.","day":0,"time":"17:00","types":["X"],"state":"ND","postal_code":"58501","city":"Bismarck","address":"800 N 7th St","latitude":46.8129572,"longitude":-100.7819212,"location":"First Lutheran Church","url":"https://aanorthdakota.org/meetings/district-vii-business-meeting/","timezone":"America/Chicago"},{"feed":"aanorthdakota.org","slug":"foreman-a-a","name":"Forman A.A.","day":0,"time":"17:00","types":["C","DR","LIT","BE"],"state":"ND","postal_code":"58032","city":"Forman","address":"410 Cedar Ave W","latitude":46.1069687,"longitude":-97.6355779,"location":"Trinity Lutheran Church","url":"https://aanorthdakota.org/meetings/foreman-a-a/","timezone":"America/Chicago"},{"feed":"aanorthdakota.org","slug":"daily-reflections-group-2","name":"Daily Reflections Group","day":0,"time":"17:30","types":["C","DR"],"state":"ND","postal_code":"58103","city":"Fargo","address":"21 9th St S","latitude":46.8738813,"longitude":-96.7930867,"location":"The Lighthouse Church","url":"https://aanorthdakota.org/meetings/daily-reflections-group-2/","timezone":"America/Chicago"},{"feed":"aanorthdakota.org","slug":"red-river-group-happy-joyous-and-free","name":"Red River Group - Happy, Joyous and Free","day":0,"time":"17:30","types":["D","O"],"state":"ND","postal_code":"58203","city":"Grand Forks","address":"401 N 7th St","latitude":47.9247704,"longitude":-97.0395873,"location":"Antenna Building","url":"https://aanorthdakota.org/meetings/red-river-group-happy-joyous-and-free/","timezone":"America/Chicago"},{"feed":"aanorthdakota.org","slug":"sunday-night-literature-share","name":"Sunday Night Literature Share","day":0,"time":"18:00","types":["C","D","LIT","X"],"state":"ND","postal_code":"58501","city":"Bismarck","address":"2400 E Ave A","latitude":46.8095136,"longitude":-100.7551239,"location":"Grace Lutheran Church","url":"https://aanorthdakota.org/meetings/sunday-night-literature-share/","timezone":"America/Chicago"},{"feed":"aanorthdakota.org","slug":"700-group-21","name":"700 Group","day":0,"time":"18:30","types":["C","D","X"],"state":"ND","postal_code":"58701","city":"Minot","address":"700 16th Ave SW","latitude":48.2184781,"longitude":-101.3031897,"location":"700 Group","url":"https://aanorthdakota.org/meetings/700-group-21/","timezone":"America/Chicago"},{"feed":"aanorthdakota.org","slug":"sixth-ave-a-a-group","name":"Sixth Ave. A.A. Group","day":0,"time":"18:30","types":["O","W"],"state":"ND","postal_code":"58801","city":"Williston","address":"1924 6th Ave E","latitude":48.1625928,"longitude":-103.6132545,"location":"Papa Jacks","url":"https://aanorthdakota.org/meetings/sixth-ave-a-a-group/","timezone":"America/Chicago"},{"feed":"aanorthdakota.org","slug":"first-things-first-group","name":"First Things First Group (Hybrid)","day":0,"time":"19:00","types":["B","C","X","ONL"],"state":"ND","postal_code":"58201","city":"Grand Forks","address":"1405 S 9th St","latitude":47.9071423,"longitude":-97.0380025,"location":"Calvary Lutheran Church","url":"https://aanorthdakota.org/meetings/first-things-first-group/","timezone":"America/Chicago"},{"feed":"aanorthdakota.org","slug":"hillsboro-group","name":"Hillsboro Group","day":0,"time":"19:00","types":["C","D","X"],"state":"ND","postal_code":"58045","city":"Hillsboro","address":"204 E Caledonia Ave","latitude":47.4038895,"longitude":-97.0578849,"location":"Our Savior Lutheran Church","url":"https://aanorthdakota.org/meetings/hillsboro-group/","timezone":"America/Chicago"},{"feed":"aanorthdakota.org","slug":"park-river-group","name":"Park River Group","day":0,"time":"19:00","types":[],"state":"ND","postal_code":"58270","city":"Park River","address":"3rd St E","latitude":48.3961275,"longitude":-97.7404478,"location":"Lorac Hall","url":"https://aanorthdakota.org/meetings/park-river-group/","timezone":"America/Chicago"},{"feed":"aanorthdakota.org","slug":"recovering-with-pride","name":"Recovering with Pride (Hybrid)","day":0,"time":"19:00","types":["12x12","BA","H","CF","LGBTQ","O","SP","X","ONL"],"state":"ND","postal_code":"58504","city":"Bismarck","address":"321 S 1st St","latitude":46.8023285,"longitude":-100.7904519,"location":"The HUB","url":"https://aanorthdakota.org/meetings/recovering-with-pride/","timezone":"America/Chicago"},{"feed":"aanorthdakota.org","slug":"square-foot-12x12-group","name":"Square Foot 12X12 Group","day":0,"time":"19:00","types":["12x12","O","X"],"state":"ND","postal_code":"58501","city":"Bismarck","address":"1525 E Thayer Ave","latitude":46.8071223,"longitude":-100.7682139,"location":"Serenity Place","url":"https://aanorthdakota.org/meetings/square-foot-12x12-group/","timezone":"America/Chicago"},{"feed":"aanorthdakota.org","slug":"sunday-evening-group","name":"Our Evolution Group","day":0,"time":"19:00","types":["D","O","X"],"state":"ND","postal_code":"58075","city":"Wahpeton","address":"1120 Evergreen Ct","latitude":46.2677639,"longitude":-96.6178762,"location":"Evergreen United Methodist Church","url":"https://aanorthdakota.org/meetings/sunday-evening-group/","timezone":"America/Chicago"},{"feed":"aanorthdakota.org","slug":"sunday-night-big-book-group","name":"Sunday Night Big Book Group","day":0,"time":"19:00","types":["B","C","D"],"state":"ND","postal_code":"58103","city":"Fargo","address":"1710 5th St S","latitude":46.8550836,"longitude":-96.7873731,"location":"St. Johns Lutheran Church","url":"https://aanorthdakota.org/meetings/sunday-night-big-book-group/","timezone":"America/Chicago"},{"feed":"aanorthdakota.org","slug":"sunday-night-big-book-group-2","name":"Sunday Night Big Book Group (Online only)","day":0,"time":"19:00","types":["B","C","D","ONL"],"state":"ND","city":"Fargo","latitude":46.8771863,"longitude":-96.7898034,"url":"https://aanorthdakota.org/meetings/sunday-night-big-book-group-2/","timezone":"America/Chicago"},{"feed":"aanorthdakota.org","slug":"washburn-group","name":"Washburn Group","day":0,"time":"19:00","types":["O","X"],"state":"ND","postal_code":"58577","city":"Washburn","address":"816 5th Ave","latitude":47.2900274,"longitude":-101.0253973,"location":"First Lutheran Church","url":"https://aanorthdakota.org/meetings/washburn-group/","timezone":"America/Chicago"},{"feed":"aanorthdakota.org","slug":"daily-reflections-group","name":"Daily Reflections Group","day":0,"time":"19:30","types":[],"state":"ND","postal_code":"58601","city":"Dickinson","address":"822 5th Ave W","latitude":46.8876173,"longitude":-102.792369,"location":"St. Johns Episcopal Church","url":"https://aanorthdakota.org/meetings/daily-reflections-group/","timezone":"America/Chicago"},{"feed":"aanorthdakota.org","slug":"spring-creek-group","name":"Spring Creek Group","day":0,"time":"19:30","types":["B"],"state":"ND","postal_code":"58545","city":"Hazen","address":"146 Main St W","latitude":47.2947065,"longitude":-101.6206862,"location":"English Lutheran Church","url":"https://aanorthdakota.org/meetings/spring-creek-group/","timezone":"America/Chicago"},{"feed":"aanorthdakota.org","slug":"515-group","name":"515 Group","day":0,"time":"20:00","types":["C","X"],"state":"ND","postal_code":"58703","city":"Minot","address":"515 5th Ave NW","latitude":48.2418131,"longitude":-101.3021296,"location":"515 Club","url":"https://aanorthdakota.org/meetings/515-group/","timezone":"America/Chicago"},{"feed":"aanorthdakota.org","slug":"capital-city-group-3","name":"Capital City Group","day":0,"time":"20:00","types":["O"],"state":"ND","postal_code":"58501","city":"Bismarck","address":"2206 E Broadway Ave","latitude":46.8065412,"longitude":-100.7584066,"location":"Capital City Group","url":"https://aanorthdakota.org/meetings/capital-city-group-3/","timezone":"America/Chicago"},{"feed":"aanorthdakota.org","slug":"fargo-aa-group-2","name":"Fargo A.A. Group","day":0,"time":"20:00","types":["C"],"state":"ND","postal_code":"58103","city":"Fargo","address":"1112 3rd Ave S","latitude":46.8714388,"longitude":-96.7967956,"location":"SDSOS Clubhouse","url":"https://aanorthdakota.org/meetings/fargo-aa-group-2/","timezone":"America/Chicago"},{"feed":"aanorthdakota.org","slug":"james-river-group","name":"James River Group","day":0,"time":"20:00","types":["C","D","X"],"state":"ND","postal_code":"58401","city":"Jamestown","address":"518 10th Ave SE","latitude":46.9034237,"longitude":-98.6952095,"location":"A.A. Clubhouse","url":"https://aanorthdakota.org/meetings/james-river-group/","timezone":"America/Chicago"},{"feed":"aanorthdakota.org","slug":"sixth-ave-aa-group","name":"Sixth Ave. A.A. Group","day":0,"time":"20:00","types":["D","O"],"state":"ND","postal_code":"58801","city":"Williston","address":"1924 6th Ave E","latitude":48.1625928,"longitude":-103.6132545,"location":"Papa Jacks","url":"https://aanorthdakota.org/meetings/sixth-ave-aa-group/","timezone":"America/Chicago"},{"feed":"aanorthdakota.org","slug":"capital-city-group-35","name":"Capital City Group","day":0,"time":"21:30","types":["CAN","D","O","ONL"],"state":"ND","city":"Bismarck","latitude":46.8041643,"longitude":-100.7877616,"url":"https://aanorthdakota.org/meetings/capital-city-group-35/","timezone":"America/Chicago"},{"feed":"aanorthdakota.org","slug":"sunrise-group-2","name":"Sunrise Group","day":1,"time":"06:30","types":["12x12","O"],"state":"ND","postal_code":"58203","city":"Grand Forks","address":"401 N 7th St","latitude":47.9247704,"longitude":-97.0395873,"location":"Antenna Building","url":"https://aanorthdakota.org/meetings/sunrise-group-2/","timezone":"America/Chicago"},{"feed":"aanorthdakota.org","slug":"capital-city-group-29","name":"Capital City Group","day":1,"time":"09:00","types":["D","O","ONL"],"state":"ND","city":"Bismarck","latitude":46.8041643,"longitude":-100.7877616,"url":"https://aanorthdakota.org/meetings/capital-city-group-29/","timezone":"America/Chicago"},{"feed":"aanorthdakota.org","slug":"keep-it-simple-12","name":"Keep It Simple","day":1,"time":"09:00","types":["X"],"state":"ND","postal_code":"58501","city":"Bismarck","address":"1525 E Thayer Ave","latitude":46.8071223,"longitude":-100.7682139,"location":"Serenity Place","url":"https://aanorthdakota.org/meetings/keep-it-simple-12/","timezone":"America/Chicago"},{"feed":"aanorthdakota.org","slug":"fargo-aa-group-3","name":"Fargo A.A. Group","day":1,"time":"10:00","types":["C"],"state":"ND","postal_code":"58103","city":"Fargo","address":"1112 3rd Ave S","latitude":46.8714388,"longitude":-96.7967956,"location":"SDSOS Clubhouse","url":"https://aanorthdakota.org/meetings/fargo-aa-group-3/","timezone":"America/Chicago"},{"feed":"aanorthdakota.org","slug":"4th-street-group","name":"4th Street Group","day":1,"time":"12:00","types":["C","DR","D","X"],"state":"ND","postal_code":"58102","city":"Fargo","address":"309 4th St N","latitude":46.8796474,"longitude":-96.7843281,"location":"Pontoppidan Lutheran Church","url":"https://aanorthdakota.org/meetings/4th-street-group/","timezone":"America/Chicago"},{"feed":"aanorthdakota.org","slug":"700-group-18","name":"700 Group","day":1,"time":"12:00","types":["C"],"state":"ND","postal_code":"58701","city":"Minot","address":"700 16th Ave SW","latitude":48.2184781,"longitude":-101.3031897,"location":"700 Group","url":"https://aanorthdakota.org/meetings/700-group-18/","timezone":"America/Chicago"},{"feed":"aanorthdakota.org","slug":"brown-bag-aa","name":"Keep It Simple","day":1,"time":"12:00","types":["12x12","C","X"],"state":"ND","postal_code":"58501","city":"Bismarck","address":"1525 E Thayer Ave","latitude":46.8071223,"longitude":-100.7682139,"location":"Serenity Place","url":"https://aanorthdakota.org/meetings/brown-bag-aa/","timezone":"America/Chicago"},{"feed":"aanorthdakota.org","slug":"capital-city-group-5","name":"Capital City Group","day":1,"time":"12:00","types":["12x12","C"],"state":"ND","postal_code":"58501","city":"Bismarck","address":"2206 E Broadway Ave","latitude":46.8065412,"longitude":-100.7584066,"location":"Capital City Group","url":"https://aanorthdakota.org/meetings/capital-city-group-5/","timezone":"America/Chicago"},{"feed":"aanorthdakota.org","slug":"choose-wisely-campaign-group-2","name":"Choose Wisely Campaign Group","day":1,"time":"12:00","types":["LIT","O","ONL"],"state":"ND","city":"Minot","latitude":48.2329668,"longitude":-101.2922906,"url":"https://aanorthdakota.org/meetings/choose-wisely-campaign-group-2/","timezone":"America/Chicago"},{"feed":"aanorthdakota.org","slug":"noon-day-serenity-group","name":"Noon Day Serenity Group","day":1,"time":"12:00","types":["C","DR","X"],"state":"ND","postal_code":"58201","city":"Grand Forks","address":"1720 S 20th St","latitude":47.9032783,"longitude":-97.0566467,"location":"Sharon Lutheran Church","url":"https://aanorthdakota.org/meetings/noon-day-serenity-group/","timezone":"America/Chicago"},{"feed":"aanorthdakota.org","slug":"red-river-group-9","name":"Red River Group","day":1,"time":"12:00","types":["C","DR"],"state":"ND","postal_code":"58203","city":"Grand Forks","address":"401 N 7th St","latitude":47.9247704,"longitude":-97.0395873,"location":"Antenna Building","url":"https://aanorthdakota.org/meetings/red-river-group-9/","timezone":"America/Chicago"},{"feed":"aanorthdakota.org","slug":"we-are-not-saints-group-2","name":"We Are Not Saints Group","day":1,"time":"12:00","types":["12x12"],"state":"ND","postal_code":"58854","city":"Watford City","address":"118 4th Ave NE","latitude":47.804971,"longitude":-103.2818929,"location":"Glory of the Lord Church","url":"https://aanorthdakota.org/meetings/we-are-not-saints-group-2/","timezone":"America/Chicago"},{"feed":"aanorthdakota.org","slug":"williston-a-a-group","name":"Williston A.A. Group","day":1,"time":"12:00","types":["B","C"],"state":"ND","postal_code":"58801","city":"Williston","address":"305 Main St","latitude":48.1467077,"longitude":-103.6221269,"location":"Williston A.A. Group","url":"https://aanorthdakota.org/meetings/williston-a-a-group/","timezone":"America/Chicago"},{"feed":"aanorthdakota.org","slug":"capital-city-group-6","name":"Capital City Group","day":1,"time":"16:00","types":["GR","O"],"state":"ND","postal_code":"58501","city":"Bismarck","address":"2206 E Broadway Ave","latitude":46.8065412,"longitude":-100.7584066,"location":"Capital City Group","url":"https://aanorthdakota.org/meetings/capital-city-group-6/","timezone":"America/Chicago"},{"feed":"aanorthdakota.org","slug":"hard-core-at-4-group-2","name":"Hard Core At 4 Group","day":1,"time":"16:00","types":[],"state":"ND","postal_code":"58501","city":"Bismarck","address":"1525 E Thayer Ave","latitude":46.8071223,"longitude":-100.7682139,"location":"Serenity Place","url":"https://aanorthdakota.org/meetings/hard-core-at-4-group-2/","timezone":"America/Chicago"},{"feed":"aanorthdakota.org","slug":"james-river-group-2","name":"James River Group","day":1,"time":"16:30","types":["C","D"],"state":"ND","postal_code":"58401","city":"Jamestown","address":"518 10th Ave SE","latitude":46.9034237,"longitude":-98.6952095,"location":"A.A. Clubhouse","url":"https://aanorthdakota.org/meetings/james-river-group-2/","timezone":"America/Chicago"},{"feed":"aanorthdakota.org","slug":"12x12-big-book","name":"Hope Monday Night 12 X 12 &amp; Big Book","day":1,"time":"17:30","types":["12x12","B","C","GR","LIT","X"],"state":"ND","postal_code":"58102","city":"Fargo","address":"2900 Broadway N","latitude":46.9145603,"longitude":-96.7879962,"location":"Hope Lutheran Church North","url":"https://aanorthdakota.org/meetings/12x12-big-book/","timezone":"America/Chicago"},{"feed":"aanorthdakota.org","slug":"12x12-hope-west-monday-night","name":"12x12 Hope West Monday Night","day":1,"time":"17:30","types":["12x12","C","X"],"state":"ND","postal_code":"58104","city":"Fargo","address":"2633 55th St S","latitude":46.8396438,"longitude":-96.8813469,"location":"Hope West","url":"https://aanorthdakota.org/meetings/12x12-hope-west-monday-night/","timezone":"America/Chicago"},{"feed":"aanorthdakota.org","slug":"red-river-group-happy-joyous-and-free-2","name":"Red River Group - Happy, Joyous and Free","day":1,"time":"17:30","types":["O"],"state":"ND","postal_code":"58203","city":"Grand Forks","address":"401 N 7th St","latitude":47.9247704,"longitude":-97.0395873,"location":"Antenna Building","url":"https://aanorthdakota.org/meetings/red-river-group-happy-joyous-and-free-2/","timezone":"America/Chicago"},{"feed":"aanorthdakota.org","slug":"big-book-at-hope-south-group","name":"Big Book at Hope South Group","day":1,"time":"18:00","types":["B","C","X"],"state":"ND","postal_code":"58104","city":"Fargo","address":"3636 25th St S","latitude":46.8241134,"longitude":-96.8177771,"location":"Hope Lutheran Church South","url":"https://aanorthdakota.org/meetings/big-book-at-hope-south-group/","timezone":"America/Chicago"},{"feed":"aanorthdakota.org","slug":"keep-it-simple-2","name":"Keep It Simple","day":1,"time":"18:00","types":["O","X"],"state":"ND","postal_code":"58501","city":"Bismarck","address":"1525 E Thayer Ave","latitude":46.8071223,"longitude":-100.7682139,"location":"Serenity Place","url":"https://aanorthdakota.org/meetings/keep-it-simple-2/","timezone":"America/Chicago"},{"feed":"aanorthdakota.org","slug":"recovery-rockers-group","name":"Recovery Rockers Group","day":1,"time":"18:00","types":["12x12","DR","D","LIT","N","BE","O"],"state":"ND","postal_code":"58538","city":"Fort Yates","address":"Red Tail Hawk Ave","latitude":46.0903875,"longitude":-100.6625884,"location":"Tan District Building","url":"https://aanorthdakota.org/meetings/recovery-rockers-group/","timezone":"America/Chicago"},{"feed":"aanorthdakota.org","slug":"rolling-with-the-good","name":"Roll With The Good","day":1,"time":"18:00","types":["B","CF","DR","D","BE","O","X","ONL"],"state":"ND","postal_code":"58503","city":"Bismarck","address":"1308 Elbowoods Ln","latitude":46.8699806,"longitude":-100.7694352,"location":"Good Road Recovery Center","url":"https://aanorthdakota.org/meetings/rolling-with-the-good/","timezone":"America/Chicago"},{"feed":"aanorthdakota.org","slug":"womens-new-beginnings-group","name":"Women&#039;s New Beginnings Group","day":1,"time":"18:00","types":["B","H","C","BE","TR","X","W"],"state":"ND","postal_code":"58501","city":"Bismarck","address":"106 Osage Ave","latitude":46.8233293,"longitude":-100.7927202,"location":"Good Shepherd Lutheran Church","url":"https://aanorthdakota.org/meetings/womens-new-beginnings-group/","timezone":"America/Chicago"},{"feed":"aanorthdakota.org","slug":"tri-state-group","name":"Tri-State Group","day":1,"time":"18:30","types":[],"state":"ND","postal_code":"58030","city":"Fairmount","address":"101 S 2nd St","latitude":46.0547829,"longitude":-96.601977,"location":"United Methodist Church","url":"https://aanorthdakota.org/meetings/tri-state-group/","timezone":"America/Chicago"},{"feed":"aanorthdakota.org","slug":"c-14-group","name":"C-14 Group","day":1,"time":"19:00","types":["12x12","X"],"state":"ND","postal_code":"58501","city":"Bismarck","address":"1401 E Ave C","latitude":46.8115609,"longitude":-100.7708401,"location":"Faith Lutheran Church","url":"https://aanorthdakota.org/meetings/c-14-group/","timezone":"America/Chicago"},{"feed":"aanorthdakota.org","slug":"came-to-believe-group","name":"Came To Believe Group","day":1,"time":"19:00","types":["X"],"state":"ND","postal_code":"58102","city":"Fargo","address":"2010 Elm St N","latitude":46.9060273,"longitude":-96.7778167,"location":"Messiah Lutheran Church","url":"https://aanorthdakota.org/meetings/came-to-believe-group/","timezone":"America/Chicago"},{"feed":"aanorthdakota.org","slug":"grafton-aa-group","name":"Grafton A.A. Group","day":1,"time":"19:00","types":["C"],"state":"ND","postal_code":"58237","city":"Grafton","address":"807 Hill Ave","latitude":48.416325,"longitude":-97.4114751,"url":"https://aanorthdakota.org/meetings/grafton-aa-group/","timezone":"America/Chicago"},{"feed":"aanorthdakota.org","slug":"home-improvement-group","name":"Home Improvement Group","day":1,"time":"19:00","types":["B","DR","D","LIT","X"],"state":"ND","postal_code":"58623","city":"Bowman","address":"105 7th Ave SW","latitude":46.1811444,"longitude":-103.4051817,"location":"Home Improvement Group","url":"https://aanorthdakota.org/meetings/home-improvement-group/","timezone":"America/Chicago"},{"feed":"aanorthdakota.org","slug":"kindred-area-aa-group","name":"Kindred Area AA Group","day":1,"time":"19:00","types":["B","O","X"],"state":"ND","postal_code":"58051","city":"Kindred","address":"16803 52nd St SE","latitude":46.660032,"longitude":-96.944203,"location":"Norman Lutheran Church","url":"https://aanorthdakota.org/meetings/kindred-area-aa-group/","timezone":"America/Chicago"},{"feed":"aanorthdakota.org","slug":"manvel-group","name":"Manvel Group","day":1,"time":"19:00","types":["C","X","ONL"],"state":"ND","postal_code":"58256","city":"Manvel","address":"1000 Oldham Ave","latitude":48.0701752,"longitude":-97.1762176,"location":"Trinity Lutheran Church","url":"https://aanorthdakota.org/meetings/manvel-group/","timezone":"America/Chicago"},{"feed":"aanorthdakota.org","slug":"monday-night-group","name":"Monday Night Group","day":1,"time":"19:00","types":["DR","O","X"],"state":"ND","postal_code":"56296","city":"Wheaton","address":"504 Broadway","latitude":45.8044853,"longitude":-96.4905925,"location":"Traverse County Sportsman Club","url":"https://aanorthdakota.org/meetings/monday-night-group/","timezone":"America/Chicago"},{"feed":"aanorthdakota.org","slug":"monday-night-reflections","name":"Monday Night Reflections","day":1,"time":"19:00","types":["DR","X"],"state":"ND","postal_code":"58501","city":"Bismarck","address":"413 E Ave D","latitude":46.8124103,"longitude":-100.7852388,"location":"Zion Lutheran Church","url":"https://aanorthdakota.org/meetings/monday-night-reflections/","timezone":"America/Chicago"},{"feed":"aanorthdakota.org","slug":"open-view-group","name":"Open View Group","day":1,"time":"19:00","types":["DR","GR","O","X"],"state":"ND","postal_code":"58652","city":"Richardton","address":"113 Main St N","latitude":46.8844463,"longitude":-102.315764,"location":"Richardton Senior Center","url":"https://aanorthdakota.org/meetings/open-view-group/","timezone":"America/Chicago"},{"feed":"aanorthdakota.org","slug":"pride-big-book-group-2","name":"Pride Big Book Group","day":1,"time":"19:00","types":["B","C","LGBTQ"],"state":"ND","postal_code":"58103","city":"Fargo","address":"1105 1st Ave S","latitude":46.8740749,"longitude":-96.7962378,"location":"Pride Collective &amp; Community Center","url":"https://aanorthdakota.org/meetings/pride-big-book-group-2/","timezone":"America/Chicago"},{"feed":"aanorthdakota.org","slug":"primary-purpose-group-2","name":"Primary Purpose Group","day":1,"time":"19:00","types":["C","DR"],"state":"ND","postal_code":"58601","city":"Dickinson","address":"822 5th Ave W","latitude":46.8876173,"longitude":-102.792369,"location":"St. Johns Episcopal Church","url":"https://aanorthdakota.org/meetings/primary-purpose-group-2/","timezone":"America/Chicago"},{"feed":"aanorthdakota.org","slug":"rolla-group","name":"Rolla Group","day":1,"time":"19:00","types":["12x12","B","C","DR","D","LIT","N","X"],"state":"ND","postal_code":"58367","city":"Rolla","address":"111 6th Ave NE","latitude":48.8647798,"longitude":-99.6183385,"location":"Rolla Community Center","url":"https://aanorthdakota.org/meetings/rolla-group/","timezone":"America/Chicago"},{"feed":"aanorthdakota.org","slug":"valley-city-area-group","name":"Valley City Area Group","day":1,"time":"19:00","types":["C"],"state":"ND","postal_code":"58072","city":"Valley City","address":"320 2nd Ave SE","latitude":46.9210907,"longitude":-98.0017211,"location":"Fellowship Corner","url":"https://aanorthdakota.org/meetings/valley-city-area-group/","timezone":"America/Chicago"},{"feed":"aanorthdakota.org","slug":"west-fargo-monday-night-big-book-group","name":"West Fargo Monday Night Big Book Group","day":1,"time":"19:00","types":["12x12","B","C","DR","D","ST","TR","X"],"state":"ND","postal_code":"58078","city":"West Fargo","address":"127 2nd Ave E","latitude":46.8744821,"longitude":-96.8985858,"location":"Faith Lutheran Church","url":"https://aanorthdakota.org/meetings/west-fargo-monday-night-big-book-group/","timezone":"America/Chicago"},{"feed":"aanorthdakota.org","slug":"williston-group-4","name":"Williston A.A. Group","day":1,"time":"19:00","types":["B","C","D"],"state":"ND","postal_code":"58801","city":"Williston","address":"305 Main St","latitude":48.1467077,"longitude":-103.6221269,"location":"Williston A.A. Group","url":"https://aanorthdakota.org/meetings/williston-group-4/","timezone":"America/Chicago"},{"feed":"aanorthdakota.org","slug":"wilton-freedom-group","name":"Wilton Freedom Group","day":1,"time":"19:00","types":["X"],"state":"ND","postal_code":"58579","city":"Wilton","address":"421 Bismarck Ave","latitude":47.1596503,"longitude":-100.7890052,"location":"Sacred Heart Church","url":"https://aanorthdakota.org/meetings/wilton-freedom-group/","timezone":"America/Chicago"},{"feed":"aanorthdakota.org","slug":"wishek-aa-recovery-group","name":"Wishek A.A. Recovery Group","day":1,"time":"19:00","types":["DR","D","LIT","O","X"],"state":"ND","postal_code":"58495","city":"Wishek","address":"107 Centennial St S","latitude":46.2578495,"longitude":-99.5574575,"location":"St. Luke&#039;s Lutheran Church","url":"https://aanorthdakota.org/meetings/wishek-aa-recovery-group/","timezone":"America/Chicago"},{"feed":"aanorthdakota.org","slug":"happy-destiny-group","name":"Happy Destiny Big Book Study","day":1,"time":"19:10","types":["B","O","X"],"state":"ND","postal_code":"58504","city":"Bismarck","address":"321 S 1st St","latitude":46.8023285,"longitude":-100.7904519,"location":"The HUB","url":"https://aanorthdakota.org/meetings/happy-destiny-group/","timezone":"America/Chicago"},{"feed":"aanorthdakota.org","slug":"byobb-bring-your-own-big-book-group","name":"BYOBB (Bring Your Own Big Book) Group","day":1,"time":"19:30","types":["B","H","D","O","SP","X"],"state":"ND","postal_code":"58104","city":"Fargo","address":"3600 25th St S","latitude":46.8262149,"longitude":-96.8187298,"location":"Gethsemane Episcopal Church","url":"https://aanorthdakota.org/meetings/byobb-bring-your-own-big-book-group/","timezone":"America/Chicago"},{"feed":"aanorthdakota.org","slug":"faith-freedom","name":"Faith &amp; Freedom","day":1,"time":"19:30","types":["12x12","ABSI","B","DR","D","GR","LIT","LS","N","BE","O","SP","ST","TR","ONL"],"state":"ND","city":"Bismarck","latitude":46.8041643,"longitude":-100.7877616,"url":"https://aanorthdakota.org/meetings/faith-freedom/","timezone":"America/Chicago"},{"feed":"aanorthdakota.org","slug":"sober-seekers-group","name":"Sober Seekers Group","day":1,"time":"19:30","types":["B","C","DR","D","X"],"state":"ND","postal_code":"58554","city":"Mandan","address":"310 1st St NW","latitude":46.8270448,"longitude":-100.894209,"location":"Silver Clipper Barber Shop","url":"https://aanorthdakota.org/meetings/sober-seekers-group/","timezone":"America/Chicago"},{"feed":"aanorthdakota.org","slug":"24-hour-aa-group","name":"24-Hour A.A. Group","day":1,"time":"20:00","types":["C","D"],"state":"ND","postal_code":"58854","city":"Watford City","address":"108 North St","latitude":47.8037714,"longitude":-103.2025238,"location":"Northern Pump &amp; Compression","url":"https://aanorthdakota.org/meetings/24-hour-aa-group/","timezone":"America/Chicago"},{"feed":"aanorthdakota.org","slug":"27-32-lisbon-group","name":"27-32 Lisbon Group","day":1,"time":"20:00","types":[],"state":"ND","postal_code":"58054","city":"Lisbon","address":"418 5th Ave W","latitude":46.442204,"longitude":-97.6886662,"location":"Trinity Lutheran Church","url":"https://aanorthdakota.org/meetings/27-32-lisbon-group/","timezone":"America/Chicago"},{"feed":"aanorthdakota.org","slug":"515-group-4","name":"515 Group","day":1,"time":"20:00","types":["SM","X"],"state":"ND","postal_code":"58703","city":"Minot","address":"515 5th Ave NW","latitude":48.2418131,"longitude":-101.3021296,"location":"515 Club","url":"https://aanorthdakota.org/meetings/515-group-4/","timezone":"America/Chicago"},{"feed":"aanorthdakota.org","slug":"700-group-5","name":"700 Group","day":1,"time":"20:00","types":["ST","TR"],"state":"ND","postal_code":"58701","city":"Minot","address":"700 16th Ave SW","latitude":48.2184781,"longitude":-101.3031897,"location":"700 Group","url":"https://aanorthdakota.org/meetings/700-group-5/","timezone":"America/Chicago"},{"feed":"aanorthdakota.org","slug":"action-group","name":"Action Group","day":1,"time":"20:00","types":["C","D","BE"],"state":"ND","postal_code":"58203","city":"Grand Forks","address":"401 N 7th St","latitude":47.9247704,"longitude":-97.0395873,"location":"Antenna Building","url":"https://aanorthdakota.org/meetings/action-group/","timezone":"America/Chicago"},{"feed":"aanorthdakota.org","slug":"capital-city-group-7","name":"Capital City Group","day":1,"time":"20:00","types":["12x12","C"],"state":"ND","postal_code":"58501","city":"Bismarck","address":"2206 E Broadway Ave","latitude":46.8065412,"longitude":-100.7584066,"location":"Capital City Group","url":"https://aanorthdakota.org/meetings/capital-city-group-7/","timezone":"America/Chicago"},{"feed":"aanorthdakota.org","slug":"corner-group","name":"Corner A.A. Group","day":1,"time":"20:00","types":[],"state":"ND","postal_code":"58730","city":"Crosby","address":"408 4th St SE","latitude":48.9097351,"longitude":-103.2901875,"location":"Corner Group","url":"https://aanorthdakota.org/meetings/corner-group/","timezone":"America/Chicago"},{"feed":"aanorthdakota.org","slug":"fargo-aa-group-4","name":"Fargo A.A. Group","day":1,"time":"20:00","types":["C"],"state":"ND","postal_code":"58103","city":"Fargo","address":"1112 3rd Ave S","latitude":46.8714388,"longitude":-96.7967956,"location":"SDSOS Clubhouse","url":"https://aanorthdakota.org/meetings/fargo-aa-group-4/","timezone":"America/Chicago"},{"feed":"aanorthdakota.org","slug":"healthy-skins","name":"Healthy Skins","day":1,"time":"20:00","types":["CF","DR","D","N","O","SP","X","EN"],"state":"ND","postal_code":"58763","city":"New Town","address":"304 Seventh St N","latitude":47.9854765,"longitude":-102.4880051,"location":"Grey house","url":"https://aanorthdakota.org/meetings/healthy-skins/","timezone":"America/Chicago"},{"feed":"aanorthdakota.org","slug":"james-river-group-3","name":"James River Group","day":1,"time":"20:00","types":["C","D"],"state":"ND","postal_code":"58401","city":"Jamestown","address":"518 10th Ave SE","latitude":46.9034237,"longitude":-98.6952095,"location":"A.A. Clubhouse","url":"https://aanorthdakota.org/meetings/james-river-group-3/","timezone":"America/Chicago"},{"feed":"aanorthdakota.org","slug":"new-england-aa-group","name":"New England A.A. Group","day":1,"time":"20:00","types":["12x12","C","X"],"state":"ND","postal_code":"58647","city":"New England","address":"925 Main St","latitude":46.5405192,"longitude":-102.8677297,"location":"Memorial Hall","url":"https://aanorthdakota.org/meetings/new-england-aa-group/","timezone":"America/Chicago"},{"feed":"aanorthdakota.org","slug":"north-mountrail-group","name":"North Mountrail Group","day":1,"time":"20:00","types":["C"],"state":"ND","postal_code":"58784","city":"Stanley","address":"403 1st St SW","latitude":48.3149902,"longitude":-102.3915769,"location":"American Lutheran Church","url":"https://aanorthdakota.org/meetings/north-mountrail-group/","timezone":"America/Chicago"},{"feed":"aanorthdakota.org","slug":"oakes-group","name":"Oakes Group","day":1,"time":"20:00","types":[],"state":"ND","postal_code":"58474","city":"Oakes","address":"201 S 5th St","latitude":46.1367717,"longitude":-98.0934668,"location":"Oakes Group","url":"https://aanorthdakota.org/meetings/oakes-group/","timezone":"America/Chicago"},{"feed":"aanorthdakota.org","slug":"sixth-ave-aa-group-2","name":"Sixth Ave. A.A. Group","day":1,"time":"20:00","types":["D","O"],"state":"ND","postal_code":"58801","city":"Williston","address":"1924 6th Ave E","latitude":48.1625928,"longitude":-103.6132545,"location":"Papa Jacks","url":"https://aanorthdakota.org/meetings/sixth-ave-aa-group-2/","timezone":"America/Chicago"},{"feed":"aanorthdakota.org","slug":"unity-group","name":"Unity Monday","day":1,"time":"20:00","types":["C","X","ONL"],"state":"ND","postal_code":"58201","city":"Grand Forks","address":"1720 S 20th St","latitude":47.9032783,"longitude":-97.0566467,"location":"Sharon Lutheran Church","url":"https://aanorthdakota.org/meetings/unity-group/","timezone":"America/Chicago"},{"feed":"aanorthdakota.org","slug":"capital-city-group-4","name":"Capital City Group","day":1,"time":"21:30","types":["CAN","D","O","ONL"],"state":"ND","city":"Bismarck","latitude":46.8041643,"longitude":-100.7877616,"url":"https://aanorthdakota.org/meetings/capital-city-group-4/","timezone":"America/Chicago"},{"feed":"aanorthdakota.org","slug":"sunrise-group-3","name":"Sunrise Group","day":2,"time":"06:30","types":["12x12","O"],"state":"ND","postal_code":"58203","city":"Grand Forks","address":"401 N 7th St","latitude":47.9247704,"longitude":-97.0395873,"location":"Antenna Building","url":"https://aanorthdakota.org/meetings/sunrise-group-3/","timezone":"America/Chicago"},{"feed":"aanorthdakota.org","slug":"fargo-aa-group-5","name":"Fargo A.A. Group","day":2,"time":"07:00","types":["B","C"],"state":"ND","postal_code":"58103","city":"Fargo","address":"1112 3rd Ave S","latitude":46.8714388,"longitude":-96.7967956,"location":"SDSOS Clubhouse","url":"https://aanorthdakota.org/meetings/fargo-aa-group-5/","timezone":"America/Chicago"},{"feed":"aanorthdakota.org","slug":"tuesday-morning-aa","name":"Tuesday Morning A.A.","day":2,"time":"07:00","types":["12x12","B","C","D","X"],"state":"ND","postal_code":"58501","city":"Bismarck","address":"1525 E Thayer Ave","latitude":46.8071223,"longitude":-100.7682139,"location":"Serenity Place","url":"https://aanorthdakota.org/meetings/tuesday-morning-aa/","timezone":"America/Chicago"},{"feed":"aanorthdakota.org","slug":"capital-city-group-30","name":"Capital City Group","day":2,"time":"09:00","types":["D","O","ONL"],"state":"ND","city":"Bismarck","latitude":46.8041643,"longitude":-100.7877616,"url":"https://aanorthdakota.org/meetings/capital-city-group-30/","timezone":"America/Chicago"},{"feed":"aanorthdakota.org","slug":"faith-over-fear-group","name":"Faith Over Fear Group","day":2,"time":"09:00","types":["12x12","B","H","CF","DR","D","O","X"],"state":"ND","postal_code":"58501","city":"Bismarck","address":"1525 E Thayer Ave","latitude":46.8071223,"longitude":-100.7682139,"location":"Serenity Place","url":"https://aanorthdakota.org/meetings/faith-over-fear-group/","timezone":"America/Chicago"},{"feed":"aanorthdakota.org","slug":"700-group-11","name":"700 Group","day":2,"time":"12:00","types":["C","X"],"state":"ND","postal_code":"58701","city":"Minot","address":"700 16th Ave SW","latitude":48.2184781,"longitude":-101.3031897,"location":"700 Group","url":"https://aanorthdakota.org/meetings/700-group-11/","timezone":"America/Chicago"},{"feed":"aanorthdakota.org","slug":"brown-baggers","name":"Brown Baggers","day":2,"time":"12:00","types":["C","DR"],"state":"ND","postal_code":"58601","city":"Dickinson","address":"822 5th Ave W","latitude":46.8876173,"longitude":-102.792369,"location":"St. Johns Episcopal Church","url":"https://aanorthdakota.org/meetings/brown-baggers/","timezone":"America/Chicago"},{"feed":"aanorthdakota.org","slug":"capital-city-group-8","name":"Capital City Group","day":2,"time":"12:00","types":["C"],"state":"ND","postal_code":"58501","city":"Bismarck","address":"2206 E Broadway Ave","latitude":46.8065412,"longitude":-100.7584066,"location":"Capital City Group","url":"https://aanorthdakota.org/meetings/capital-city-group-8/","timezone":"America/Chicago"},{"feed":"aanorthdakota.org","slug":"choose-wisely-campaign-group-3","name":"Choose Wisely Campaign Group","day":2,"time":"12:00","types":["LIT","O","ONL"],"state":"ND","city":"Minot","latitude":48.2329668,"longitude":-101.2922906,"url":"https://aanorthdakota.org/meetings/choose-wisely-campaign-group-3/","timezone":"America/Chicago"},{"feed":"aanorthdakota.org","slug":"james-river-group-4","name":"James River Group","day":2,"time":"12:00","types":["O","ST"],"state":"ND","postal_code":"58401","city":"Jamestown","address":"518 10th Ave SE","latitude":46.9034237,"longitude":-98.6952095,"location":"A.A. Clubhouse","url":"https://aanorthdakota.org/meetings/james-river-group-4/","timezone":"America/Chicago"},{"feed":"aanorthdakota.org","slug":"keep-it-simple-3","name":"Keep It Simple","day":2,"time":"12:00","types":["X"],"state":"ND","postal_code":"58501","city":"Bismarck","address":"1525 E Thayer Ave","latitude":46.8071223,"longitude":-100.7682139,"location":"Serenity Place","url":"https://aanorthdakota.org/meetings/keep-it-simple-3/","timezone":"America/Chicago"},{"feed":"aanorthdakota.org","slug":"red-river-group-2","name":"Red River Group","day":2,"time":"12:00","types":["C"],"state":"ND","postal_code":"58203","city":"Grand Forks","address":"401 N 7th St","latitude":47.9247704,"longitude":-97.0395873,"location":"Antenna Building","url":"https://aanorthdakota.org/meetings/red-river-group-2/","timezone":"America/Chicago"},{"feed":"aanorthdakota.org","slug":"williston-a-a-group-2","name":"Williston A.A. Group","day":2,"time":"12:00","types":["12x12","C","ST"],"state":"ND","postal_code":"58801","city":"Williston","address":"305 Main St","latitude":48.1467077,"longitude":-103.6221269,"location":"Williston A.A. Group","url":"https://aanorthdakota.org/meetings/williston-a-a-group-2/","timezone":"America/Chicago"},{"feed":"aanorthdakota.org","slug":"womens-happy-hour-group","name":"Women&#039;s Happy Hour Group","day":2,"time":"12:00","types":["12x12","C","LIT","X","W"],"state":"ND","postal_code":"58103","city":"Fargo","address":"1801 38th St S","latitude":46.851814,"longitude":-96.8422969,"location":"Hope &amp; Coffee Community Room","url":"https://aanorthdakota.org/meetings/womens-happy-hour-group/","timezone":"America/Chicago"},{"feed":"aanorthdakota.org","slug":"fargo-aa-group-6","name":"Fargo A.A. Group","day":2,"time":"13:00","types":["C"],"state":"ND","postal_code":"58103","city":"Fargo","address":"1112 3rd Ave S","latitude":46.8714388,"longitude":-96.7967956,"location":"SDSOS Clubhouse","url":"https://aanorthdakota.org/meetings/fargo-aa-group-6/","timezone":"America/Chicago"},{"feed":"aanorthdakota.org","slug":"capital-city-group-9","name":"Capital City Group","day":2,"time":"16:00","types":["O"],"state":"ND","postal_code":"58501","city":"Bismarck","address":"2206 E Broadway Ave","latitude":46.8065412,"longitude":-100.7584066,"location":"Capital City Group","url":"https://aanorthdakota.org/meetings/capital-city-group-9/","timezone":"America/Chicago"},{"feed":"aanorthdakota.org","slug":"hard-core-at-4-group-3","name":"Hard Core At 4 Group","day":2,"time":"16:00","types":[],"state":"ND","postal_code":"58501","city":"Bismarck","address":"1525 E Thayer Ave","latitude":46.8071223,"longitude":-100.7682139,"location":"Serenity Place","url":"https://aanorthdakota.org/meetings/hard-core-at-4-group-3/","timezone":"America/Chicago"},{"feed":"aanorthdakota.org","slug":"riverside-aa-group","name":"Riverside A.A. Group","day":2,"time":"17:00","types":[],"city":"United States","address":"1 Mission Ave, Fort Yates, ND 58538","state":"ND","latitude":46.095689,"longitude":-100.632416,"location":"St. Bernard School","url":"https://aanorthdakota.org/meetings/riverside-aa-group/","timezone":"America/Chicago"},{"feed":"aanorthdakota.org","slug":"plugging-into-the-power-group","name":"Plugging Into The Power Group","day":2,"time":"17:30","types":["CF","D","MED","O","X","W","ONL"],"state":"ND","postal_code":"58504","city":"Bismarck","address":"321 S 1st St","latitude":46.8023285,"longitude":-100.7904519,"location":"The HUB","url":"https://aanorthdakota.org/meetings/plugging-into-the-power-group/","timezone":"America/Chicago"},{"feed":"aanorthdakota.org","slug":"red-river-group-happy-joyous-and-free-3","name":"Red River Group - Happy, Joyous and Free","day":2,"time":"17:30","types":["D","O"],"state":"ND","postal_code":"58203","city":"Grand Forks","address":"401 N 7th St","latitude":47.9247704,"longitude":-97.0395873,"location":"Antenna Building","url":"https://aanorthdakota.org/meetings/red-river-group-happy-joyous-and-free-3/","timezone":"America/Chicago"},{"feed":"aanorthdakota.org","slug":"roots-to-recovery","name":"Roots to Recovery","day":2,"time":"17:30","types":["C","D","GR","LIT","SP","ST","X"],"state":"ND","postal_code":"58501","city":"Bismarck","address":"214 E Thayer Ave","latitude":46.8078571,"longitude":-100.7884359,"location":"First Presbyterian Church","url":"https://aanorthdakota.org/meetings/roots-to-recovery/","timezone":"America/Chicago"},{"feed":"aanorthdakota.org","slug":"24-hour-womens-aa-group","name":"24-Hour Women&#039;s A.A. Group","day":2,"time":"19:00","types":["W"],"state":"ND","postal_code":"58854","city":"Watford City","address":"108 North St","latitude":47.8037714,"longitude":-103.2025238,"location":"Northern Pump &amp; Compression","url":"https://aanorthdakota.org/meetings/24-hour-womens-aa-group/","timezone":"America/Chicago"},{"feed":"aanorthdakota.org","slug":"first-things-first-group-2","name":"First Things First Group (Hybrid)","day":2,"time":"19:00","types":["C","D","X","ONL"],"state":"ND","postal_code":"58201","city":"Grand Forks","address":"1405 S 9th St","latitude":47.9071423,"longitude":-97.0380025,"location":"Calvary Lutheran Church","url":"https://aanorthdakota.org/meetings/first-things-first-group-2/","timezone":"America/Chicago"},{"feed":"aanorthdakota.org","slug":"keep-it-simple-4","name":"Keep It Simple","day":2,"time":"19:00","types":["B","X"],"state":"ND","postal_code":"58501","city":"Bismarck","address":"1525 E Thayer Ave","latitude":46.8071223,"longitude":-100.7682139,"location":"Serenity Place","url":"https://aanorthdakota.org/meetings/keep-it-simple-4/","timezone":"America/Chicago"},{"feed":"aanorthdakota.org","slug":"keep-it-simple-6th-street-group","name":"Keep It Simple 6th Street Group","day":2,"time":"19:00","types":["ABSI","B","H","DR","D","LIT","LGBTQ","MED","BE","O","ST","X","Y"],"state":"ND","postal_code":"58801","city":"Williston","address":"1024 6th St W","latitude":48.1497939,"longitude":-103.6386906,"location":"Our Redeemer Lutheran Church","url":"https://aanorthdakota.org/meetings/keep-it-simple-6th-street-group/","timezone":"America/Chicago"},{"feed":"aanorthdakota.org","slug":"lake-region-group","name":"Lake Region Group","day":2,"time":"19:00","types":["X"],"state":"ND","postal_code":"58301","city":"Devils Lake","address":"313 3rd St NE","latitude":48.1110324,"longitude":-98.8610141,"location":"Hope Center","url":"https://aanorthdakota.org/meetings/lake-region-group/","timezone":"America/Chicago"},{"feed":"aanorthdakota.org","slug":"last-house-on-the-block","name":"Men&#039;s Stag","day":2,"time":"19:00","types":["12x12","B","C","D","LIT","M","BE"],"state":"ND","postal_code":"58835","city":"Arnegard","address":"2126 Vista Ave","latitude":47.7215879,"longitude":-103.361214,"location":"Providence House Admin Building","url":"https://aanorthdakota.org/meetings/last-house-on-the-block/","timezone":"America/Chicago"},{"feed":"aanorthdakota.org","slug":"milnor-big-book-group","name":"Milnor Big Book Group","day":2,"time":"19:00","types":["B","C","X"],"state":"ND","postal_code":"58060","city":"Milnor","address":"720 Main St","latitude":46.2618107,"longitude":-97.4596919,"location":"United Methodist Church","url":"https://aanorthdakota.org/meetings/milnor-big-book-group/","timezone":"America/Chicago"},{"feed":"aanorthdakota.org","slug":"new-salem-group","name":"New Salem Group","day":2,"time":"19:00","types":["O"],"state":"ND","postal_code":"58563","city":"New Salem","address":"316 5th St N","latitude":46.8459916,"longitude":-101.4133855,"location":"Zion Lutheran Church","url":"https://aanorthdakota.org/meetings/new-salem-group/","timezone":"America/Chicago"},{"feed":"aanorthdakota.org","slug":"queen-city-group","name":"Queen City A.A.","day":2,"time":"19:00","types":["12x12","H","C","D","LIT","TR"],"state":"ND","postal_code":"58601","city":"Dickinson","address":"822 5th Ave W","latitude":46.8876173,"longitude":-102.792369,"location":"St. Johns Episcopal Church","url":"https://aanorthdakota.org/meetings/queen-city-group/","timezone":"America/Chicago"},{"feed":"aanorthdakota.org","slug":"tuesday-night-aa-group","name":"Any Lengths","day":2,"time":"19:00","types":["12x12","ABSI","B","CF","D","LIT","O","X"],"state":"ND","postal_code":"58775","city":"Roseglen","address":"302 Helen Gough Ave","latitude":47.6620784,"longitude":-101.846486,"location":"Old Head Start Building (White Shield)","url":"https://aanorthdakota.org/meetings/tuesday-night-aa-group/","timezone":"America/Chicago"},{"feed":"aanorthdakota.org","slug":"tuesday-night-group","name":"Tuesday Nite Group","day":2,"time":"19:00","types":["C"],"state":"ND","postal_code":"58201","city":"Grand Forks","address":"1917 S Washington St","latitude":47.9010476,"longitude":-97.0443204,"location":"Calvary Community Church","url":"https://aanorthdakota.org/meetings/tuesday-night-group/","timezone":"America/Chicago"},{"feed":"aanorthdakota.org","slug":"tuesday-night-mens-meeting","name":"Tuesday Night Mens Meeting","day":2,"time":"19:00","types":["C"],"state":"ND","postal_code":"58102","city":"Fargo","address":"909 19th Ave N","latitude":46.905157,"longitude":-96.7928578,"location":"Faith United Methodist Church","url":"https://aanorthdakota.org/meetings/tuesday-night-mens-meeting/","timezone":"America/Chicago"},{"feed":"aanorthdakota.org","slug":"west-river-group","name":"West River Group","day":2,"time":"19:00","types":["C","ST"],"state":"ND","postal_code":"58554","city":"Mandan","address":"610 12th St NW","latitude":46.8377711,"longitude":-100.9015051,"location":"Mandan United Methodist Church","url":"https://aanorthdakota.org/meetings/west-river-group/","timezone":"America/Chicago"},{"feed":"aanorthdakota.org","slug":"bismarck-shoulder-to-shoulder","name":"Bismarck Shoulder To Shoulder","day":2,"time":"19:30","types":["O","SP","X"],"state":"ND","postal_code":"58504","city":"Bismarck","address":"1617 Michigan Ave","latitude":46.7979216,"longitude":-100.7670248,"location":"Bismarck Community Church","url":"https://aanorthdakota.org/meetings/bismarck-shoulder-to-shoulder/","timezone":"America/Chicago"},{"feed":"aanorthdakota.org","slug":"northern-plains-group","name":"Northern Plains Group","day":2,"time":"19:30","types":["O","SP","X","ONL"],"state":"ND","postal_code":"58103","city":"Fargo","address":"1330 S University Dr","latitude":46.8600941,"longitude":-96.7977957,"location":"Olivet Lutheran Church","url":"https://aanorthdakota.org/meetings/northern-plains-group/","timezone":"America/Chicago"},{"feed":"aanorthdakota.org","slug":"nuts-and-bolts","name":"Nuts and Bolts","day":2,"time":"19:30","types":["12x12","B","BE","O","SP","ST","X","Y"],"state":"ND","postal_code":"58504","city":"Bismarck","address":"321 S 1st St","latitude":46.8023285,"longitude":-100.7904519,"location":"The HUB","url":"https://aanorthdakota.org/meetings/nuts-and-bolts/","timezone":"America/Chicago"},{"feed":"aanorthdakota.org","slug":"515-group-6","name":"515 Group","day":2,"time":"20:00","types":["X"],"state":"ND","postal_code":"58703","city":"Minot","address":"515 5th Ave NW","latitude":48.2418131,"longitude":-101.3021296,"location":"515 Club","url":"https://aanorthdakota.org/meetings/515-group-6/","timezone":"America/Chicago"},{"feed":"aanorthdakota.org","slug":"700-group-16","name":"700 Group","day":2,"time":"20:00","types":["C"],"state":"ND","postal_code":"58701","city":"Minot","address":"700 16th Ave SW","latitude":48.2184781,"longitude":-101.3031897,"location":"700 Group","url":"https://aanorthdakota.org/meetings/700-group-16/","timezone":"America/Chicago"},{"feed":"aanorthdakota.org","slug":"belfield-aa-group","name":"Belfield A.A. Group","day":2,"time":"20:00","types":["C"],"state":"ND","postal_code":"58622","city":"Belfield","address":"506 2nd Ave NE","latitude":46.885646,"longitude":-103.1925665,"location":"Belfield Lutheran Parish","url":"https://aanorthdakota.org/meetings/belfield-aa-group/","timezone":"America/Chicago"},{"feed":"aanorthdakota.org","slug":"capital-city-group-10","name":"Capital City Group","day":2,"time":"20:00","types":["D","O"],"state":"ND","postal_code":"58501","city":"Bismarck","address":"2206 E Broadway Ave","latitude":46.8065412,"longitude":-100.7584066,"location":"Capital City Group","url":"https://aanorthdakota.org/meetings/capital-city-group-10/","timezone":"America/Chicago"},{"feed":"aanorthdakota.org","slug":"cavalier-aa-group","name":"Cavalier A.A. Group","day":2,"time":"20:00","types":["O","X"],"state":"ND","postal_code":"58220","city":"Cavalier","address":"301 Mountain St E","latitude":48.7925848,"longitude":-97.6187283,"location":"Pembina County Memorial Hospital","url":"https://aanorthdakota.org/meetings/cavalier-aa-group/","timezone":"America/Chicago"},{"feed":"aanorthdakota.org","slug":"fargo-aa-group-7","name":"Fargo A.A. Group","day":2,"time":"20:00","types":["C"],"state":"ND","postal_code":"58103","city":"Fargo","address":"1112 3rd Ave S","latitude":46.8714388,"longitude":-96.7967956,"location":"SDSOS Clubhouse","url":"https://aanorthdakota.org/meetings/fargo-aa-group-7/","timezone":"America/Chicago"},{"feed":"aanorthdakota.org","slug":"james-river-group-5","name":"James River Group","day":2,"time":"20:00","types":["B","O"],"state":"ND","postal_code":"58401","city":"Jamestown","address":"518 10th Ave SE","latitude":46.9034237,"longitude":-98.6952095,"location":"A.A. Clubhouse","url":"https://aanorthdakota.org/meetings/james-river-group-5/","timezone":"America/Chicago"},{"feed":"aanorthdakota.org","slug":"new-town-aa","name":"New Town A.A.","day":2,"time":"20:00","types":[],"state":"ND","postal_code":"58763","city":"New Town","address":"228 Eagle Dr","latitude":47.98088,"longitude":-102.4892165,"location":"Bethel Lutheran Church","url":"https://aanorthdakota.org/meetings/new-town-aa/","timezone":"America/Chicago"},{"feed":"aanorthdakota.org","slug":"north-side-group","name":"North Side Group","day":2,"time":"20:00","types":["12x12"],"state":"ND","postal_code":"58075","city":"Wahpeton","address":"1021 Center St S","latitude":46.254721,"longitude":-96.6006643,"location":"New Life Christian Center","url":"https://aanorthdakota.org/meetings/north-side-group/","timezone":"America/Chicago"},{"feed":"aanorthdakota.org","slug":"primary-purpose-group","name":"Primary Purpose Group","day":2,"time":"20:00","types":["C","X"],"state":"ND","postal_code":"58201","city":"Grand Forks","address":"1720 S 20th St","latitude":47.9032783,"longitude":-97.0566467,"location":"Sharon Lutheran Church","url":"https://aanorthdakota.org/meetings/primary-purpose-group/","timezone":"America/Chicago"},{"feed":"aanorthdakota.org","slug":"sixth-ave-aa-group-3","name":"Sixth Ave. A.A. Group","day":2,"time":"20:00","types":["D","O"],"state":"ND","postal_code":"58801","city":"Williston","address":"1924 6th Ave E","latitude":48.1625928,"longitude":-103.6132545,"location":"Papa Jacks","url":"https://aanorthdakota.org/meetings/sixth-ave-aa-group-3/","timezone":"America/Chicago"},{"feed":"aanorthdakota.org","slug":"way-of-life-group","name":"Way Of Life Group","day":2,"time":"20:00","types":["C","D"],"state":"ND","postal_code":"58203","city":"Grand Forks","address":"520 University Ave","latitude":47.9252531,"longitude":-97.037103,"location":"Augustana Lutheran Church","url":"https://aanorthdakota.org/meetings/way-of-life-group/","timezone":"America/Chicago"},{"feed":"aanorthdakota.org","slug":"capital-city-group-14","name":"Capital City Group","day":2,"time":"21:30","types":["CAN","D","O","ONL"],"state":"ND","city":"Bismarck","latitude":46.8041643,"longitude":-100.7877616,"url":"https://aanorthdakota.org/meetings/capital-city-group-14/","timezone":"America/Chicago"},{"feed":"aanorthdakota.org","slug":"keep-it-simple-5","name":"Keep It Simple","day":3,"time":"06:30","types":["O","X"],"state":"ND","postal_code":"58501","city":"Bismarck","address":"1525 E Thayer Ave","latitude":46.8071223,"longitude":-100.7682139,"location":"Serenity Place","url":"https://aanorthdakota.org/meetings/keep-it-simple-5/","timezone":"America/Chicago"},{"feed":"aanorthdakota.org","slug":"sunrise-group-4","name":"Sunrise Group","day":3,"time":"06:30","types":["O"],"state":"ND","postal_code":"58203","city":"Grand Forks","address":"401 N 7th St","latitude":47.9247704,"longitude":-97.0395873,"location":"Antenna Building","url":"https://aanorthdakota.org/meetings/sunrise-group-4/","timezone":"America/Chicago"},{"feed":"aanorthdakota.org","slug":"fargo-a-a-group","name":"Fargo A.A. Group","day":3,"time":"07:00","types":["C"],"state":"ND","postal_code":"58103","city":"Fargo","address":"1112 3rd Ave S","latitude":46.8714388,"longitude":-96.7967956,"location":"SDSOS Clubhouse","url":"https://aanorthdakota.org/meetings/fargo-a-a-group/","timezone":"America/Chicago"},{"feed":"aanorthdakota.org","slug":"capital-city-group-31","name":"Capital City Group","day":3,"time":"09:00","types":["D","O","ONL"],"state":"ND","city":"Bismarck","latitude":46.8041643,"longitude":-100.7877616,"url":"https://aanorthdakota.org/meetings/capital-city-group-31/","timezone":"America/Chicago"},{"feed":"aanorthdakota.org","slug":"keep-it-simple-13","name":"Keep It Simple","day":3,"time":"09:00","types":["X"],"state":"ND","postal_code":"58501","city":"Bismarck","address":"1525 E Thayer Ave","latitude":46.8071223,"longitude":-100.7682139,"location":"Serenity Place","url":"https://aanorthdakota.org/meetings/keep-it-simple-13/","timezone":"America/Chicago"},{"feed":"aanorthdakota.org","slug":"700-group-19","name":"700 Group","day":3,"time":"12:00","types":["C","X"],"state":"ND","postal_code":"58701","city":"Minot","address":"700 16th Ave SW","latitude":48.2184781,"longitude":-101.3031897,"location":"700 Group","url":"https://aanorthdakota.org/meetings/700-group-19/","timezone":"America/Chicago"},{"feed":"aanorthdakota.org","slug":"capital-city-group-11","name":"Capital City Group","day":3,"time":"12:00","types":["12x12"],"state":"ND","postal_code":"58501","city":"Bismarck","address":"2206 E Broadway Ave","latitude":46.8065412,"longitude":-100.7584066,"location":"Capital City Group","url":"https://aanorthdakota.org/meetings/capital-city-group-11/","timezone":"America/Chicago"},{"feed":"aanorthdakota.org","slug":"choose-wisely-campaign-group-4","name":"Choose Wisely Campaign Group","day":3,"time":"12:00","types":["LIT","O","ONL"],"state":"ND","city":"Minot","latitude":48.2329668,"longitude":-101.2922906,"url":"https://aanorthdakota.org/meetings/choose-wisely-campaign-group-4/","timezone":"America/Chicago"},{"feed":"aanorthdakota.org","slug":"james-river-group-6","name":"James River Group","day":3,"time":"12:00","types":["B","C"],"state":"ND","postal_code":"58401","city":"Jamestown","address":"518 10th Ave SE","latitude":46.9034237,"longitude":-98.6952095,"location":"A.A. Clubhouse","url":"https://aanorthdakota.org/meetings/james-river-group-6/","timezone":"America/Chicago"},{"feed":"aanorthdakota.org","slug":"keep-it-simple-6","name":"Keep It Simple","day":3,"time":"12:00","types":["X"],"state":"ND","postal_code":"58501","city":"Bismarck","address":"1525 E Thayer Ave","latitude":46.8071223,"longitude":-100.7682139,"location":"Serenity Place","url":"https://aanorthdakota.org/meetings/keep-it-simple-6/","timezone":"America/Chicago"},{"feed":"aanorthdakota.org","slug":"new-england-aa-group-2","name":"New England A.A. Group","day":3,"time":"12:00","types":["B","O","X"],"state":"ND","postal_code":"58647","city":"New England","address":"925 Main St","latitude":46.5405192,"longitude":-102.8677297,"location":"Memorial Hall","url":"https://aanorthdakota.org/meetings/new-england-aa-group-2/","timezone":"America/Chicago"},{"feed":"aanorthdakota.org","slug":"noon-day-serenity-group-2","name":"Noon Day Serenity Group","day":3,"time":"12:00","types":["C","X"],"state":"ND","postal_code":"58201","city":"Grand Forks","address":"1720 S 20th St","latitude":47.9032783,"longitude":-97.0566467,"location":"Sharon Lutheran Church","url":"https://aanorthdakota.org/meetings/noon-day-serenity-group-2/","timezone":"America/Chicago"},{"feed":"aanorthdakota.org","slug":"red-river-group-3","name":"Red River Group","day":3,"time":"12:00","types":["C"],"state":"ND","postal_code":"58203","city":"Grand Forks","address":"401 N 7th St","latitude":47.9247704,"longitude":-97.0395873,"location":"Antenna Building","url":"https://aanorthdakota.org/meetings/red-river-group-3/","timezone":"America/Chicago"},{"feed":"aanorthdakota.org","slug":"wednesday-big-book-luncheon","name":"Wednesday Big Book Luncheon Group","day":3,"time":"12:00","types":["C","X"],"state":"ND","postal_code":"58104","city":"Fargo","address":"4480 23rd Ave S","latitude":46.8427832,"longitude":-96.8609076,"location":"Pizza Ranch","url":"https://aanorthdakota.org/meetings/wednesday-big-book-luncheon/","timezone":"America/Chicago"},{"feed":"aanorthdakota.org","slug":"williston-a-a-group-3","name":"Williston A.A. Group","day":3,"time":"12:00","types":["D","O"],"state":"ND","postal_code":"58801","city":"Williston","address":"305 Main St","latitude":48.1467077,"longitude":-103.6221269,"location":"Williston A.A. Group","url":"https://aanorthdakota.org/meetings/williston-a-a-group-3/","timezone":"America/Chicago"},{"feed":"aanorthdakota.org","slug":"valley-city-area-group-3","name":"Valley City Area Group","day":3,"time":"12:05","types":["C"],"state":"ND","postal_code":"58072","city":"Valley City","address":"320 2nd Ave SE","latitude":46.9210907,"longitude":-98.0017211,"location":"Fellowship Corner","url":"https://aanorthdakota.org/meetings/valley-city-area-group-3/","timezone":"America/Chicago"},{"feed":"aanorthdakota.org","slug":"fargo-aa-group-8","name":"Fargo A.A. Group","day":3,"time":"13:00","types":["C"],"state":"ND","postal_code":"58103","city":"Fargo","address":"1112 3rd Ave S","latitude":46.8714388,"longitude":-96.7967956,"location":"SDSOS Clubhouse","url":"https://aanorthdakota.org/meetings/fargo-aa-group-8/","timezone":"America/Chicago"},{"feed":"aanorthdakota.org","slug":"capital-city-group-12","name":"Capital City Group","day":3,"time":"16:00","types":["O","P"],"state":"ND","postal_code":"58501","city":"Bismarck","address":"2206 E Broadway Ave","latitude":46.8065412,"longitude":-100.7584066,"location":"Capital City Group","url":"https://aanorthdakota.org/meetings/capital-city-group-12/","timezone":"America/Chicago"},{"feed":"aanorthdakota.org","slug":"hard-core-at-4-group-4","name":"Hard Core At 4 Group","day":3,"time":"16:00","types":[],"state":"ND","postal_code":"58501","city":"Bismarck","address":"1525 E Thayer Ave","latitude":46.8071223,"longitude":-100.7682139,"location":"Serenity Place","url":"https://aanorthdakota.org/meetings/hard-core-at-4-group-4/","timezone":"America/Chicago"},{"feed":"aanorthdakota.org","slug":"living-sober-group","name":"Living Sober Group","day":3,"time":"17:30","types":["ABSI","C","X","ONL"],"state":"ND","postal_code":"58103","city":"Fargo","address":"1801 38th St S","latitude":46.851814,"longitude":-96.8422969,"location":"Hope &amp; Coffee Community Room","url":"https://aanorthdakota.org/meetings/living-sober-group/","timezone":"America/Chicago"},{"feed":"aanorthdakota.org","slug":"red-river-group-happy-joyous-and-free-4","name":"Red River Group - Happy, Joyous and Free","day":3,"time":"17:30","types":["D","O"],"state":"ND","postal_code":"58203","city":"Grand Forks","address":"401 N 7th St","latitude":47.9247704,"longitude":-97.0395873,"location":"Antenna Building","url":"https://aanorthdakota.org/meetings/red-river-group-happy-joyous-and-free-4/","timezone":"America/Chicago"},{"feed":"aanorthdakota.org","slug":"fort-berthold-mens-stag","name":"Fort Berthold Men&rsquo;s Stag","day":3,"time":"18:00","types":["12x12","H","C","LIT","N","BE","SP","X"],"state":"ND","postal_code":"58763","city":"New Town","address":"705 3rd Ave E","latitude":47.9875296,"longitude":-102.4787799,"location":"MHA Sober Living","url":"https://aanorthdakota.org/meetings/fort-berthold-mens-stag/","timezone":"America/Chicago"},{"feed":"aanorthdakota.org","slug":"plentywood-group","name":"Plentywood Group","day":3,"time":"18:00","types":[],"state":"ND","postal_code":"59254","city":"Plentywood","address":"100 W Laurel Ave","latitude":48.7784435,"longitude":-104.5565922,"location":"Plentywood Group","url":"https://aanorthdakota.org/meetings/plentywood-group/","timezone":"America/Chicago"},{"feed":"aanorthdakota.org","slug":"the-answers-within","name":"The Answers Within","day":3,"time":"18:00","types":["B","C"],"state":"ND","postal_code":"58801","city":"Williston","address":"219 1st Ave W","latitude":48.1460963,"longitude":-103.6235298,"location":"Faith Methodist Church","url":"https://aanorthdakota.org/meetings/the-answers-within/","timezone":"America/Chicago"},{"feed":"aanorthdakota.org","slug":"tmrc-group","name":"TMRC Group","day":3,"time":"18:00","types":["12x12","ABSI","B","H","DR","LIT","N","BE","O","Y"],"state":"ND","postal_code":"58316","city":"Belcourt","address":"308 Red Rd Dr","latitude":48.816023,"longitude":-99.7798459,"location":"Turtle Mountain Recovery Center","url":"https://aanorthdakota.org/meetings/tmrc-group/","timezone":"America/Chicago"},{"feed":"aanorthdakota.org","slug":"women-on-wednesdays-wow","name":"Women On Wednesdays (WOW)","day":3,"time":"18:00","types":["12x12","D","X","W"],"state":"ND","postal_code":"58102","city":"Fargo","address":"309 4th St N","latitude":46.8796474,"longitude":-96.7843281,"location":"Pontoppidan Lutheran Church","url":"https://aanorthdakota.org/meetings/women-on-wednesdays-wow/","timezone":"America/Chicago"},{"feed":"aanorthdakota.org","slug":"professionals-in-recovery-together","name":"Professionals In Recovery Together","day":3,"time":"18:30","types":["C","DR","MED","P","X"],"state":"ND","postal_code":"58501","city":"Bismarck","address":"502 N 4th St","latitude":46.8099624,"longitude":-100.7868427,"location":"Trinity Lutheran Church","url":"https://aanorthdakota.org/meetings/professionals-in-recovery-together/","timezone":"America/Chicago"},{"feed":"aanorthdakota.org","slug":"24-hour-aa-group-2","name":"24-Hour A.A. Group","day":3,"time":"19:00","types":["O"],"state":"ND","postal_code":"58854","city":"Watford City","address":"108 North St","latitude":47.8037714,"longitude":-103.2025238,"location":"Northern Pump &amp; Compression","url":"https://aanorthdakota.org/meetings/24-hour-aa-group-2/","timezone":"America/Chicago"},{"feed":"aanorthdakota.org","slug":"abercrombie-group","name":"Abercrombie Group","day":3,"time":"19:00","types":["O","ONL"],"state":"ND","postal_code":"58001","city":"Abercrombie","latitude":46.4462175,"longitude":-96.729521,"location":"Online only-Abercrombie","url":"https://aanorthdakota.org/meetings/abercrombie-group/","timezone":"America/Chicago"},{"feed":"aanorthdakota.org","slug":"coffee-and-resentments-group","name":"Coffee and Resentments Group","day":3,"time":"19:00","types":["H","D","GR","LIT","N","O","X"],"state":"ND","postal_code":"58501","city":"Bismarck","address":"3111 E Broadway Ave","latitude":46.8055488,"longitude":-100.7450865,"location":"Summit Counseling","url":"https://aanorthdakota.org/meetings/coffee-and-resentments-group/","timezone":"America/Chicago"},{"feed":"aanorthdakota.org","slug":"common-problem-common-solution-group","name":"Common Problem Common Solution Group","day":3,"time":"19:00","types":["B","O","X","ONL"],"state":"ND","postal_code":"58703","city":"Minot","address":"502 17th St NW","latitude":48.2422316,"longitude":-101.3187172,"location":"Christ Lutheran Church","url":"https://aanorthdakota.org/meetings/common-problem-common-solution-group/","timezone":"America/Chicago"},{"feed":"aanorthdakota.org","slug":"emerado-group","name":"Larimore Living Sober Group","day":3,"time":"19:00","types":["H","C","D"],"state":"ND","postal_code":"58251","city":"Larimore","address":"231 Towner Ave","latitude":47.9054969,"longitude":-97.6234383,"location":"Masonic Lodge","url":"https://aanorthdakota.org/meetings/emerado-group/","timezone":"America/Chicago"},{"feed":"aanorthdakota.org","slug":"fargo-wednesday-night-group","name":"Fargo Wednesday Night Group","day":3,"time":"19:00","types":["C","SP"],"state":"ND","postal_code":"58102","city":"Fargo","address":"St Paul&#039;s Chapel, 1141 N University Dr","latitude":46.8900319,"longitude":-96.7978412,"location":"St. Paul&#039;s Newman Center","url":"https://aanorthdakota.org/meetings/fargo-wednesday-night-group/","timezone":"America/Chicago"},{"feed":"aanorthdakota.org","slug":"founders-group","name":"Founder&#039;s Group (Hybrid)","day":3,"time":"19:00","types":["B","H","O","X","ONL"],"state":"ND","postal_code":"58504","city":"Bismarck","address":"321 S 1st St","latitude":46.8023285,"longitude":-100.7904519,"location":"The HUB","url":"https://aanorthdakota.org/meetings/founders-group/","timezone":"America/Chicago"},{"feed":"aanorthdakota.org","slug":"keep-it-simple-7","name":"Keep It Simple","day":3,"time":"19:00","types":["12x12","X"],"state":"ND","postal_code":"58501","city":"Bismarck","address":"1525 E Thayer Ave","latitude":46.8071223,"longitude":-100.7682139,"location":"Serenity Place","url":"https://aanorthdakota.org/meetings/keep-it-simple-7/","timezone":"America/Chicago"},{"feed":"aanorthdakota.org","slug":"nuevo-amanecer","name":"Nuevo Amanecer (Spanish)","day":3,"time":"19:00","types":["LIT","S"],"state":"ND","postal_code":"58103","city":"Fargo","address":"1112 3rd Ave S","latitude":46.8714388,"longitude":-96.7967956,"location":"SDSOS Clubhouse","url":"https://aanorthdakota.org/meetings/nuevo-amanecer/","timezone":"America/Chicago"},{"feed":"aanorthdakota.org","slug":"primary-purpose-group-3","name":"Primary Purpose Group","day":3,"time":"19:00","types":["B","O"],"state":"ND","postal_code":"58401","city":"Jamestown","address":"116 1st Ave S","latitude":46.908053,"longitude":-98.7088298,"location":"Two Rivers Performing Arts School","url":"https://aanorthdakota.org/meetings/primary-purpose-group-3/","timezone":"America/Chicago"},{"feed":"aanorthdakota.org","slug":"ready-for-recovery-group-2","name":"Ready For Recovery Group","day":3,"time":"19:00","types":["12x12","ABSI","B","DR","D","GR","LIT","LS","BE","O","ONL"],"state":"ND","postal_code":"58631","city":"Glen Ullin","address":"203 F St S","latitude":46.8150361,"longitude":-101.823127,"location":"Bethel Assembly of God Church","url":"https://aanorthdakota.org/meetings/ready-for-recovery-group-2/","timezone":"America/Chicago"},{"feed":"aanorthdakota.org","slug":"williston-group-8","name":"Williston A.A. Group","day":3,"time":"19:00","types":["ABSI","DR","D","O"],"state":"ND","postal_code":"58801","city":"Williston","address":"305 Main St","latitude":48.1467077,"longitude":-103.6221269,"location":"Williston A.A. Group","url":"https://aanorthdakota.org/meetings/williston-group-8/","timezone":"America/Chicago"},{"feed":"aanorthdakota.org","slug":"faith-freedom-2","name":"Faith &amp; Freedom","day":3,"time":"19:30","types":["12x12","ABSI","B","DR","D","GR","LIT","LS","N","BE","O","SP","ST","TR","ONL"],"state":"ND","city":"Bismarck","latitude":46.8041643,"longitude":-100.7877616,"url":"https://aanorthdakota.org/meetings/faith-freedom-2/","timezone":"America/Chicago"},{"feed":"aanorthdakota.org","slug":"grapevine-group","name":"Grapevine Group","day":3,"time":"19:30","types":["C","GR","X"],"state":"ND","postal_code":"58075","city":"Wahpeton","address":"1202 Westmore Ave","latitude":46.2729127,"longitude":-96.617667,"location":"United Church of Christ","url":"https://aanorthdakota.org/meetings/grapevine-group/","timezone":"America/Chicago"},{"feed":"aanorthdakota.org","slug":"wednesday-nite-aa-topic-group","name":"Wednesday Nite A.A. Topic Group","day":3,"time":"19:30","types":[],"state":"ND","postal_code":"58601","city":"Dickinson","address":"822 5th Ave W","latitude":46.8876173,"longitude":-102.792369,"location":"St. Johns Episcopal Church","url":"https://aanorthdakota.org/meetings/wednesday-nite-aa-topic-group/","timezone":"America/Chicago"},{"feed":"aanorthdakota.org","slug":"515-group-7","name":"515 Group","day":3,"time":"20:00","types":["SM","X"],"state":"ND","postal_code":"58703","city":"Minot","address":"515 5th Ave NW","latitude":48.2418131,"longitude":-101.3021296,"location":"515 Club","url":"https://aanorthdakota.org/meetings/515-group-7/","timezone":"America/Chicago"},{"feed":"aanorthdakota.org","slug":"700-group-3rd-wednesday-only","name":"700 Group 3rd Wednesday only","day":3,"time":"20:00","types":["O","SP","X"],"state":"ND","postal_code":"58701","city":"Minot","address":"700 16th Ave SW","latitude":48.2184781,"longitude":-101.3031897,"location":"700 Group","url":"https://aanorthdakota.org/meetings/700-group-3rd-wednesday-only/","timezone":"America/Chicago"},{"feed":"aanorthdakota.org","slug":"capital-city-group-13","name":"Capital City Group","day":3,"time":"20:00","types":["12x12","C"],"state":"ND","postal_code":"58501","city":"Bismarck","address":"2206 E Broadway Ave","latitude":46.8065412,"longitude":-100.7584066,"location":"Capital City Group","url":"https://aanorthdakota.org/meetings/capital-city-group-13/","timezone":"America/Chicago"},{"feed":"aanorthdakota.org","slug":"carrington-group","name":"Carrington Group","day":3,"time":"20:00","types":["C"],"state":"ND","postal_code":"58421","city":"Carrington","address":"1030 1st St N","latitude":47.4504067,"longitude":-99.1267512,"location":"Armory","url":"https://aanorthdakota.org/meetings/carrington-group/","timezone":"America/Chicago"},{"feed":"aanorthdakota.org","slug":"fargo-aa-group-9","name":"Fargo A.A. Group","day":3,"time":"20:00","types":["O"],"state":"ND","postal_code":"58103","city":"Fargo","address":"1112 3rd Ave S","latitude":46.8714388,"longitude":-96.7967956,"location":"SDSOS Clubhouse","url":"https://aanorthdakota.org/meetings/fargo-aa-group-9/","timezone":"America/Chicago"},{"feed":"aanorthdakota.org","slug":"james-river-group-7","name":"James River Group","day":3,"time":"20:00","types":["C","D"],"state":"ND","postal_code":"58401","city":"Jamestown","address":"518 10th Ave SE","latitude":46.9034237,"longitude":-98.6952095,"location":"A.A. Clubhouse","url":"https://aanorthdakota.org/meetings/james-river-group-7/","timezone":"America/Chicago"},{"feed":"aanorthdakota.org","slug":"oakes-group-2","name":"Oakes Group","day":3,"time":"20:00","types":[],"state":"ND","postal_code":"58474","city":"Oakes","address":"201 S 5th St","latitude":46.1367717,"longitude":-98.0934668,"location":"Oakes Group","url":"https://aanorthdakota.org/meetings/oakes-group-2/","timezone":"America/Chicago"},{"feed":"aanorthdakota.org","slug":"park-river-group-2","name":"Park River Group","day":3,"time":"20:00","types":[],"state":"ND","postal_code":"58270","city":"Park River","address":"3rd St E","latitude":48.3961275,"longitude":-97.7404478,"location":"Lorac Hall","url":"https://aanorthdakota.org/meetings/park-river-group-2/","timezone":"America/Chicago"},{"feed":"aanorthdakota.org","slug":"satellite-group","name":"Satellite Group","day":3,"time":"20:00","types":["12x12","ABSI","B","H","C","DR","LS","N","BE","SP","X","Y","ONL"],"state":"ND","postal_code":"58703","city":"Minot","address":"502 17th St NW","latitude":48.2422316,"longitude":-101.3187172,"location":"Christ Lutheran Church","url":"https://aanorthdakota.org/meetings/satellite-group/","timezone":"America/Chicago"},{"feed":"aanorthdakota.org","slug":"sixth-ave-a-a-group-2","name":"Sixth Ave. A.A. Group","day":3,"time":"20:00","types":["O"],"state":"ND","postal_code":"58801","city":"Williston","address":"1924 6th Ave E","latitude":48.1625928,"longitude":-103.6132545,"location":"Papa Jacks","url":"https://aanorthdakota.org/meetings/sixth-ave-a-a-group-2/","timezone":"America/Chicago"},{"feed":"aanorthdakota.org","slug":"capital-city-group-33","name":"Capital City Group","day":3,"time":"21:30","types":["CAN","D","O","ONL"],"state":"ND","city":"Bismarck","latitude":46.8041643,"longitude":-100.7877616,"url":"https://aanorthdakota.org/meetings/capital-city-group-33/","timezone":"America/Chicago"},{"feed":"aanorthdakota.org","slug":"old-time-aa-group","name":"Old Time AA Group","day":4,"time":"06:30","types":["12x12","B","C","BE","X"],"state":"ND","postal_code":"58501","city":"Bismarck","address":"1525 E Thayer Ave","latitude":46.8071223,"longitude":-100.7682139,"location":"Serenity Place","url":"https://aanorthdakota.org/meetings/old-time-aa-group/","timezone":"America/Chicago"},{"feed":"aanorthdakota.org","slug":"sunrise-group-5","name":"Sunrise Group","day":4,"time":"06:30","types":["O"],"state":"ND","postal_code":"58203","city":"Grand Forks","address":"401 N 7th St","latitude":47.9247704,"longitude":-97.0395873,"location":"Antenna Building","url":"https://aanorthdakota.org/meetings/sunrise-group-5/","timezone":"America/Chicago"},{"feed":"aanorthdakota.org","slug":"fargo-aa-group-10","name":"Fargo A.A. Group","day":4,"time":"07:00","types":["C"],"state":"ND","postal_code":"58103","city":"Fargo","address":"1112 3rd Ave S","latitude":46.8714388,"longitude":-96.7967956,"location":"SDSOS Clubhouse","url":"https://aanorthdakota.org/meetings/fargo-aa-group-10/","timezone":"America/Chicago"},{"feed":"aanorthdakota.org","slug":"james-river-group-15","name":"James River Group","day":4,"time":"08:00","types":["O","X"],"state":"ND","postal_code":"58401","city":"Jamestown","address":"518 10th Ave SE","latitude":46.9034237,"longitude":-98.6952095,"location":"A.A. Clubhouse","url":"https://aanorthdakota.org/meetings/james-river-group-15/","timezone":"America/Chicago"},{"feed":"aanorthdakota.org","slug":"capital-city-group-32","name":"Capital City Group","day":4,"time":"09:00","types":["D","O","ONL"],"state":"ND","city":"Bismarck","latitude":46.8041643,"longitude":-100.7877616,"url":"https://aanorthdakota.org/meetings/capital-city-group-32/","timezone":"America/Chicago"},{"feed":"aanorthdakota.org","slug":"faith-over-fear-group-2","name":"Faith Over Fear Group","day":4,"time":"09:00","types":["12x12","B","H","CF","DR","D","O","X"],"state":"ND","postal_code":"58501","city":"Bismarck","address":"1525 E Thayer Ave","latitude":46.8071223,"longitude":-100.7682139,"location":"Serenity Place","url":"https://aanorthdakota.org/meetings/faith-over-fear-group-2/","timezone":"America/Chicago"},{"feed":"aanorthdakota.org","slug":"700-group-20","name":"700 Group","day":4,"time":"12:00","types":["C","X"],"state":"ND","postal_code":"58701","city":"Minot","address":"700 16th Ave SW","latitude":48.2184781,"longitude":-101.3031897,"location":"700 Group","url":"https://aanorthdakota.org/meetings/700-group-20/","timezone":"America/Chicago"},{"feed":"aanorthdakota.org","slug":"brown-bag-topic-meeting","name":"Brown Bag Topic Meeting","day":4,"time":"12:00","types":["C","X"],"state":"ND","postal_code":"58103","city":"Fargo","address":"21 9th St S","latitude":46.8738813,"longitude":-96.7930867,"location":"The Lighthouse Church","url":"https://aanorthdakota.org/meetings/brown-bag-topic-meeting/","timezone":"America/Chicago"},{"feed":"aanorthdakota.org","slug":"capital-city-group-15","name":"Capital City Group","day":4,"time":"12:00","types":["12x12"],"state":"ND","postal_code":"58501","city":"Bismarck","address":"2206 E Broadway Ave","latitude":46.8065412,"longitude":-100.7584066,"location":"Capital City Group","url":"https://aanorthdakota.org/meetings/capital-city-group-15/","timezone":"America/Chicago"},{"feed":"aanorthdakota.org","slug":"choose-wisely-campaign-group-5","name":"Choose Wisely Campaign Group","day":4,"time":"12:00","types":["LIT","O","ONL"],"state":"ND","city":"Minot","latitude":48.2329668,"longitude":-101.2922906,"url":"https://aanorthdakota.org/meetings/choose-wisely-campaign-group-5/","timezone":"America/Chicago"},{"feed":"aanorthdakota.org","slug":"grafton-aa-group-3","name":"Grafton A.A. Group","day":4,"time":"12:00","types":["C"],"state":"ND","postal_code":"58237","city":"Grafton","address":"807 Hill Ave","latitude":48.416325,"longitude":-97.4114751,"url":"https://aanorthdakota.org/meetings/grafton-aa-group-3/","timezone":"America/Chicago"},{"feed":"aanorthdakota.org","slug":"james-river-group-8","name":"James River Group","day":4,"time":"12:00","types":["C","D"],"state":"ND","postal_code":"58401","city":"Jamestown","address":"518 10th Ave SE","latitude":46.9034237,"longitude":-98.6952095,"location":"A.A. Clubhouse","url":"https://aanorthdakota.org/meetings/james-river-group-8/","timezone":"America/Chicago"},{"feed":"aanorthdakota.org","slug":"keep-it-simple-8","name":"Keep It Simple","day":4,"time":"12:00","types":["X"],"state":"ND","postal_code":"58501","city":"Bismarck","address":"1525 E Thayer Ave","latitude":46.8071223,"longitude":-100.7682139,"location":"Serenity Place","url":"https://aanorthdakota.org/meetings/keep-it-simple-8/","timezone":"America/Chicago"},{"feed":"aanorthdakota.org","slug":"red-river-group-5","name":"Red River Group","day":4,"time":"12:00","types":["C"],"state":"ND","postal_code":"58203","city":"Grand Forks","address":"401 N 7th St","latitude":47.9247704,"longitude":-97.0395873,"location":"Antenna Building","url":"https://aanorthdakota.org/meetings/red-river-group-5/","timezone":"America/Chicago"},{"feed":"aanorthdakota.org","slug":"williston-a-a-group-4","name":"Williston A.A. Group","day":4,"time":"12:00","types":["12x12","C","D","TR"],"state":"ND","postal_code":"58801","city":"Williston","address":"305 Main St","latitude":48.1467077,"longitude":-103.6221269,"location":"Williston A.A. Group","url":"https://aanorthdakota.org/meetings/williston-a-a-group-4/","timezone":"America/Chicago"},{"feed":"aanorthdakota.org","slug":"capital-city-group-16","name":"Capital City Group","day":4,"time":"16:00","types":["ABSI","O"],"state":"ND","postal_code":"58501","city":"Bismarck","address":"2206 E Broadway Ave","latitude":46.8065412,"longitude":-100.7584066,"location":"Capital City Group","url":"https://aanorthdakota.org/meetings/capital-city-group-16/","timezone":"America/Chicago"},{"feed":"aanorthdakota.org","slug":"hard-core-at-4-group-5","name":"Hard Core At 4 Group","day":4,"time":"16:00","types":[],"state":"ND","postal_code":"58501","city":"Bismarck","address":"1525 E Thayer Ave","latitude":46.8071223,"longitude":-100.7682139,"location":"Serenity Place","url":"https://aanorthdakota.org/meetings/hard-core-at-4-group-5/","timezone":"America/Chicago"},{"feed":"aanorthdakota.org","slug":"fargo-a-a-group-2","name":"Fargo A.A. Group","day":4,"time":"17:30","types":["C"],"state":"ND","postal_code":"58103","city":"Fargo","address":"1112 3rd Ave S","latitude":46.8714388,"longitude":-96.7967956,"location":"SDSOS Clubhouse","url":"https://aanorthdakota.org/meetings/fargo-a-a-group-2/","timezone":"America/Chicago"},{"feed":"aanorthdakota.org","slug":"red-river-group-womens-meeting","name":"Red River Group - Happy, Joyous and Free","day":4,"time":"17:30","types":["D","O"],"state":"ND","postal_code":"58203","city":"Grand Forks","address":"401 N 7th St","latitude":47.9247704,"longitude":-97.0395873,"location":"Antenna Building","url":"https://aanorthdakota.org/meetings/red-river-group-womens-meeting/","timezone":"America/Chicago"},{"feed":"aanorthdakota.org","slug":"crossroads-group","name":"Crossroads Group","day":4,"time":"17:45","types":[],"state":"ND","postal_code":"58078","city":"West Fargo","address":"1420 16th St E","latitude":46.8600404,"longitude":-96.8742843,"location":"Crossway Center","url":"https://aanorthdakota.org/meetings/crossroads-group/","timezone":"America/Chicago"},{"feed":"aanorthdakota.org","slug":"life-on-lifes-terms","name":"Life on Life&rsquo;s Terms","day":4,"time":"18:00","types":["CF","O","X","W"],"state":"ND","postal_code":"58501","city":"Bismarck","address":"1525 E Thayer Ave","latitude":46.8071223,"longitude":-100.7682139,"location":"Serenity Place","url":"https://aanorthdakota.org/meetings/life-on-lifes-terms/","timezone":"America/Chicago"},{"feed":"aanorthdakota.org","slug":"no-later-vicissitude-group","name":"No Later Vicissitude Group","day":4,"time":"18:00","types":["B","D","BE","O","X"],"state":"ND","postal_code":"58503","city":"Bismarck","address":"1308 Elbowoods Ln","latitude":46.8699806,"longitude":-100.7694352,"location":"Good Road Recovery Center","url":"https://aanorthdakota.org/meetings/no-later-vicissitude-group/","timezone":"America/Chicago"},{"feed":"aanorthdakota.org","slug":"700-group-12","name":"700 Group","day":4,"time":"18:30","types":["C","X"],"state":"ND","postal_code":"58701","city":"Minot","address":"700 16th Ave SW","latitude":48.2184781,"longitude":-101.3031897,"location":"700 Group","url":"https://aanorthdakota.org/meetings/700-group-12/","timezone":"America/Chicago"},{"feed":"aanorthdakota.org","slug":"new-freedom-group","name":"New Freedom Group","day":4,"time":"18:30","types":["12x12","ABSI","B","C","DR","D","GR","BE","SP","X","Y"],"state":"ND","postal_code":"58601","city":"Dickinson","address":"1550 21st St W","latitude":46.9054445,"longitude":-102.8062819,"location":"Peace Lutheran Church","url":"https://aanorthdakota.org/meetings/new-freedom-group/","timezone":"America/Chicago"},{"feed":"aanorthdakota.org","slug":"women-of-recovery","name":"Women of Recovery","day":4,"time":"18:30","types":["C","X"],"state":"ND","postal_code":"58104","city":"Fargo","address":"5202 25th St S","latitude":46.8023728,"longitude":-96.8172187,"location":"Sts. Anne &amp; Joachim Catholic Church","url":"https://aanorthdakota.org/meetings/women-of-recovery/","timezone":"America/Chicago"},{"feed":"aanorthdakota.org","slug":"3-legacies-group","name":"The 3 Legacies Group  (Hybrid)","day":4,"time":"19:00","types":["12x12","O","X","ONL"],"state":"ND","postal_code":"58504","city":"Bismarck","address":"321 S 1st St","latitude":46.8023285,"longitude":-100.7904519,"location":"The HUB","url":"https://aanorthdakota.org/meetings/3-legacies-group/","timezone":"America/Chicago"},{"feed":"aanorthdakota.org","slug":"first-things-first-group-3","name":"First Things First Group (Hybrid)","day":4,"time":"19:00","types":["O","ONL"],"state":"ND","postal_code":"58201","city":"Grand Forks","address":"1405 S 9th St","latitude":47.9071423,"longitude":-97.0380025,"location":"Calvary Lutheran Church","url":"https://aanorthdakota.org/meetings/first-things-first-group-3/","timezone":"America/Chicago"},{"feed":"aanorthdakota.org","slug":"harvey-group","name":"Harvey Group","day":4,"time":"19:00","types":[],"state":"ND","postal_code":"58341","city":"Harvey","address":"413 Brewster St E","latitude":47.767255,"longitude":-99.9311072,"location":"St. Cecillia&#039;s Catholic Church","url":"https://aanorthdakota.org/meetings/harvey-group/","timezone":"America/Chicago"},{"feed":"aanorthdakota.org","slug":"keep-it-simple-6th-street-group-2","name":"Keep It Simple 6th Street Group","day":4,"time":"19:00","types":["12x12","ABSI","B","H","DR","D","LIT","LGBTQ","MED","BE","ST","Y"],"state":"ND","postal_code":"58801","city":"Williston","address":"1024 6th St W","latitude":48.1497939,"longitude":-103.6386906,"location":"Our Redeemer Lutheran Church","url":"https://aanorthdakota.org/meetings/keep-it-simple-6th-street-group-2/","timezone":"America/Chicago"},{"feed":"aanorthdakota.org","slug":"mayville-portland-group","name":"Mayville Portland Group","day":4,"time":"19:00","types":["12x12","C","X"],"state":"ND","postal_code":"58257","city":"Mayville","address":"42 6th Ave SE","latitude":47.5006824,"longitude":-97.316882,"location":"Sanford Hospital","url":"https://aanorthdakota.org/meetings/mayville-portland-group/","timezone":"America/Chicago"},{"feed":"aanorthdakota.org","slug":"north-of-normal-mens-book-study","name":"North of Normal Men&rsquo;s Book Study","day":4,"time":"19:00","types":["12x12","B","C","LIT","BE","ST","TR","X"],"state":"ND","postal_code":"58103","city":"Fargo","address":"1330 S University Dr","latitude":46.8600941,"longitude":-96.7977957,"location":"Olivet Lutheran Church","url":"https://aanorthdakota.org/meetings/north-of-normal-mens-book-study/","timezone":"America/Chicago"},{"feed":"aanorthdakota.org","slug":"rainbow-recovery","name":"Rainbow Recovery","day":4,"time":"19:00","types":["C","LGBTQ","ST","X","ONL"],"state":"ND","postal_code":"58102","city":"Fargo","address":"1011 12th Ave N","latitude":46.8907293,"longitude":-96.7944341,"location":"Peace Lutheran Church","url":"https://aanorthdakota.org/meetings/rainbow-recovery/","timezone":"America/Chicago"},{"feed":"aanorthdakota.org","slug":"straight-pepper-diet-mens-meeting","name":"Straight Pepper Diet Men&#039;s Meeting","day":4,"time":"19:00","types":["12x12","B","O","SP","TR","X"],"state":"ND","postal_code":"58501","city":"Bismarck","address":"106 Osage Ave","latitude":46.8233293,"longitude":-100.7927202,"location":"Good Shepherd Lutheran Church","url":"https://aanorthdakota.org/meetings/straight-pepper-diet-mens-meeting/","timezone":"America/Chicago"},{"feed":"aanorthdakota.org","slug":"the-aberholics","name":"The Aberholics","day":4,"time":"19:00","types":["DR","D","BE","O"],"state":"ND","postal_code":"58001","city":"Abercrombie","address":"107 Broadway","latitude":46.4478511,"longitude":-96.734944,"location":"Emmanuel Lutheran Church","url":"https://aanorthdakota.org/meetings/the-aberholics/","timezone":"America/Chicago"},{"feed":"aanorthdakota.org","slug":"buffalo-city-group","name":"Buffalo City Group","day":4,"time":"19:30","types":["O","SP","X","ONL"],"state":"ND","postal_code":"58401","city":"Jamestown","address":"302 2nd Ave SE","latitude":46.9063108,"longitude":-98.7070895,"location":"United Presbyterian Church","url":"https://aanorthdakota.org/meetings/buffalo-city-group/","timezone":"America/Chicago"},{"feed":"aanorthdakota.org","slug":"spring-creek-group-2","name":"Spring Creek Group","day":4,"time":"19:30","types":["O","X"],"state":"ND","postal_code":"58545","city":"Hazen","address":"146 Main St W","latitude":47.2947065,"longitude":-101.6206862,"location":"English Lutheran Church","url":"https://aanorthdakota.org/meetings/spring-creek-group-2/","timezone":"America/Chicago"},{"feed":"aanorthdakota.org","slug":"24-hour-aa-group-3","name":"24-Hour A.A. Group","day":4,"time":"20:00","types":[],"state":"ND","postal_code":"58854","city":"Watford City","address":"108 North St","latitude":47.8037714,"longitude":-103.2025238,"location":"Northern Pump &amp; Compression","url":"https://aanorthdakota.org/meetings/24-hour-aa-group-3/","timezone":"America/Chicago"},{"feed":"aanorthdakota.org","slug":"515-group-9","name":"515 Group","day":4,"time":"20:00","types":["SM","X"],"state":"ND","postal_code":"58703","city":"Minot","address":"515 5th Ave NW","latitude":48.2418131,"longitude":-101.3021296,"location":"515 Club","url":"https://aanorthdakota.org/meetings/515-group-9/","timezone":"America/Chicago"},{"feed":"aanorthdakota.org","slug":"any-lengths","name":"Any Lengths","day":4,"time":"20:00","types":["B","CF","DR","D","LGBTQ","LIT","LS","BE","O","SM","ST","Y"],"state":"ND","postal_code":"58775","city":"Roseglen","address":"302 Helen Gough Ave","latitude":47.6620784,"longitude":-101.846486,"location":"Old Head Start Building (White Shield)","url":"https://aanorthdakota.org/meetings/any-lengths/","timezone":"America/Chicago"},{"feed":"aanorthdakota.org","slug":"big-book-study-group","name":"Big Book Study Group","day":4,"time":"20:00","types":["B","C","X"],"state":"ND","postal_code":"58601","city":"Dickinson","address":"2510 21st St W","latitude":46.9057579,"longitude":-102.8255615,"location":"Prairie Winds Church","url":"https://aanorthdakota.org/meetings/big-book-study-group/","timezone":"America/Chicago"},{"feed":"aanorthdakota.org","slug":"bottineau-group","name":"Bottineau Group","day":4,"time":"20:00","types":[],"state":"ND","postal_code":"58318","city":"Bottineau","address":"810 Main St","latitude":48.8238089,"longitude":-100.4465219,"location":"United Parish","url":"https://aanorthdakota.org/meetings/bottineau-group/","timezone":"America/Chicago"},{"feed":"aanorthdakota.org","slug":"capital-city-group-17","name":"Capital City Group","day":4,"time":"20:00","types":["12x12","C"],"state":"ND","postal_code":"58501","city":"Bismarck","address":"2206 E Broadway Ave","latitude":46.8065412,"longitude":-100.7584066,"location":"Capital City Group","url":"https://aanorthdakota.org/meetings/capital-city-group-17/","timezone":"America/Chicago"},{"feed":"aanorthdakota.org","slug":"city-center-aa","name":"City Center A.A.","day":4,"time":"20:00","types":["12x12","X"],"state":"ND","postal_code":"58501","city":"Bismarck","address":"1525 E Thayer Ave","latitude":46.8071223,"longitude":-100.7682139,"location":"Serenity Place","url":"https://aanorthdakota.org/meetings/city-center-aa/","timezone":"America/Chicago"},{"feed":"aanorthdakota.org","slug":"evergreen-group","name":"Evergreen Group","day":4,"time":"20:00","types":["B","X"],"state":"ND","postal_code":"58075","city":"Wahpeton","address":"1120 Evergreen Ct","latitude":46.2677639,"longitude":-96.6178762,"location":"Evergreen United Methodist Church","url":"https://aanorthdakota.org/meetings/evergreen-group/","timezone":"America/Chicago"},{"feed":"aanorthdakota.org","slug":"fargo-aa-group-11","name":"Fargo A.A. Group","day":4,"time":"20:00","types":["C"],"state":"ND","postal_code":"58103","city":"Fargo","address":"1112 3rd Ave S","latitude":46.8714388,"longitude":-96.7967956,"location":"SDSOS Clubhouse","url":"https://aanorthdakota.org/meetings/fargo-aa-group-11/","timezone":"America/Chicago"},{"feed":"aanorthdakota.org","slug":"garrison-group","name":"Garrison Group","day":4,"time":"20:00","types":[],"state":"ND","postal_code":"58540","city":"Garrison","address":"407 3rd Ave SE","latitude":47.6490443,"longitude":-101.410497,"location":"Garrison Memorial Hospital","url":"https://aanorthdakota.org/meetings/garrison-group/","timezone":"America/Chicago"},{"feed":"aanorthdakota.org","slug":"james-river-group-9","name":"James River Group","day":4,"time":"20:00","types":["B","C"],"state":"ND","postal_code":"58401","city":"Jamestown","address":"518 10th Ave SE","latitude":46.9034237,"longitude":-98.6952095,"location":"A.A. Clubhouse","url":"https://aanorthdakota.org/meetings/james-river-group-9/","timezone":"America/Chicago"},{"feed":"aanorthdakota.org","slug":"just-for-today","name":"Just for Today","day":4,"time":"20:00","types":[],"state":"ND","postal_code":"58040","city":"Gwinner","address":"207 1st St SE","latitude":46.2234815,"longitude":-97.6609454,"location":"Gustaf Adolf Lutheran Church","url":"https://aanorthdakota.org/meetings/just-for-today/","timezone":"America/Chicago"},