[{"feed":"aaoklahoma.org","slug":"why-group","name":"WHY Group","day":0,"time":"05:00","types":["O"],"state":"OK","postal_code":"73120","city":"Oklahoma City","address":"2913 W Britton Rd","latitude":35.5665424,"longitude":-97.5682756,"location":"May Club - back of building south of Uptown Grocery","region":"Oklahoma City","url":"https://aaoklahoma.org/meetings/why-group/","group":"May Club","timezone":"America/Chicago"},{"feed":"okcintergroup.org","slug":"why-group","name":"WHY Group","day":0,"time":"05:00","types":["O"],"state":"OK","postal_code":"73120","city":"The Village","address":"2913 W Britton Rd","latitude":35.566608,"longitude":-97.5687965,"location":"May Club - back of building south of Uptown Grocery","region":"Oklahoma City","url":"https://okcintergroup.org/meetings/why-group/","group":"May Club","timezone":"America/Chicago"},{"feed":"aaoklahoma.org","slug":"open-door-group-23-2","name":"Open Door Group","day":0,"time":"06:00","end_time":"07:00","types":["D","O"],"state":"OK","postal_code":"73507","city":"Lawton","address":"1816 NW Liberty Ave","latitude":34.6198713,"longitude":-98.4172523,"location":"Meeting Location","region":"Lawton","url":"https://aaoklahoma.org/meetings/open-door-group-23-2/","group":"Open Door Group","timezone":"America/Chicago"},{"feed":"okcintergroup.org","slug":"open-door-group-23-2","name":"Open Door Group","day":0,"time":"06:00","end_time":"07:00","types":["D","O"],"state":"OK","postal_code":"73507","city":"Lawton","address":"1816 NW Liberty Ave","latitude":34.6199724,"longitude":-98.4175125,"region":"Lawton","url":"https://okcintergroup.org/meetings/open-door-group-23-2/","group":"Open Door Group","timezone":"America/Chicago"},{"feed":"aaoklahoma.org","slug":"norman-original-group-42","name":"Norman Original Group","day":0,"time":"06:30","end_time":"07:30","types":["GR","O"],"state":"OK","postal_code":"73069","city":"Norman","address":"3565 Macdonnell Dr","latitude":35.261607,"longitude":-97.4643439,"location":"White metal building, front faces Tecumseh","region":"Norman","notes":"Spiritual Awakens and Vol II - Prayer and Meditation\n\nchild-friendly","url":"https://aaoklahoma.org/meetings/norman-original-group-42/","group":"Norman Original Group","timezone":"America/Chicago"},{"feed":"okcintergroup.org","slug":"norman-original-group-42","name":"Norman Original Group","day":0,"time":"06:30","end_time":"07:30","types":["GR","O"],"state":"OK","postal_code":"73069","city":"Norman","address":"3565 Macdonnell Dr","latitude":35.261607,"longitude":-97.4643439,"location":"White metal building, front faces Tecumseh","region":"Norman","notes":"Spiritual Awakens and Vol II - Prayer and Meditation\n\nchild-friendly","url":"https://okcintergroup.org/meetings/norman-original-group-42/","group":"Norman Original Group","timezone":"America/Chicago"},{"feed":"aaoklahoma.org","slug":"western-club","name":"Western Club","day":0,"time":"06:30","types":["C"],"state":"OK","postal_code":"73118","city":"Oklahoma City","address":"5207 N Western Ave","latitude":35.5240559,"longitude":-97.5302666,"location":"Meeting Location","region":"Oklahoma City","url":"https://aaoklahoma.org/meetings/western-club/","group":"Western Club","timezone":"America/Chicago"},{"feed":"okcintergroup.org","slug":"western-club","name":"Western Club","day":0,"time":"06:30","types":["C"],"state":"OK","postal_code":"73118","city":"Oklahoma City","address":"5207 N Western Ave","latitude":35.5240215,"longitude":-97.5302567,"region":"Oklahoma City","url":"https://okcintergroup.org/meetings/western-club/","group":"Western Club","timezone":"America/Chicago"},{"feed":"aaneok.org","slug":"jump-start-3","name":"Jump Start","day":0,"time":"07:00","end_time":"08:00","state":"OK","postal_code":"74135","city":"Tulsa","address":"5525 E 51st St #403","latitude":36.0904096,"longitude":-95.9146558,"location":"Dry Dock","region":"Tulsa","url":"https://aaneok.org/meetings/jump-start-3/","timezone":"America/Chicago"},{"feed":"aaoklahoma.org","slug":"jump-start-3","name":"Jump Start","day":0,"time":"07:00","end_time":"08:00","state":"OK","postal_code":"74135","city":"Tulsa","address":"5525 E 51st St #403","latitude":36.0904096,"longitude":-95.9146558,"location":"Dry Dock","region":"Tulsa","url":"https://aaoklahoma.org/meetings/jump-start-3/","timezone":"America/Chicago"},{"feed":"aaneok.org","slug":"our-fellow-travelers-copy","name":"Our Fellow Travelers","day":0,"time":"07:00","end_time":"08:00","types":["12x12","ABSI","B","D","BE","O","SP","EN","ONL"],"state":"OK","postal_code":"74135","city":"Tulsa","latitude":36.1005816,"longitude":-95.9251211,"region":"Tulsa","notes":"This is an online with video option meeting.\n\nOur Fellow Travelers webpage is:\n\nourfellowtravelers.org/home","conference_url":"https://us06web.zoom.us/j/89648310685?pwd=evztEOVUqCCPtt9eSacM23uUSLR2j9.1","url":"https://aaneok.org/meetings/our-fellow-travelers-copy/","group":"Our Fellow Travelers","timezone":"America/Chicago"},{"feed":"aaoklahoma.org","slug":"our-fellow-travelers-copy","name":"Our Fellow Travelers","day":0,"time":"07:00","end_time":"08:00","types":["12x12","ABSI","B","D","BE","O","SP","EN","ONL"],"state":"OK","postal_code":"74135","city":"Tulsa","latitude":36.1005816,"longitude":-95.9251211,"location":"Meeting Location","region":"Tulsa","notes":"This is an online with video option meeting.\n\nOur Fellow Travelers webpage is:\n\nourfellowtravelers.org/home","conference_url":"https://us06web.zoom.us/j/89648310685?pwd=evztEOVUqCCPtt9eSacM23uUSLR2j9.1","url":"https://aaoklahoma.org/meetings/our-fellow-travelers-copy/","group":"Our Fellow Travelers","timezone":"America/Chicago"},{"feed":"aaneok.org","slug":"sunrise-7","name":"Sunrise","day":0,"time":"07:00","types":["12x12","O","X","ONL"],"state":"OK","postal_code":"74137","city":"Tulsa","address":"8749 S Lewis Ave","latitude":36.0371618,"longitude":-95.9542884,"location":"Unanimity Club","region":"Tulsa","notes":"IN PERSON & ZOOM\nMeeting ID: 429 010 1394\nNo password needed","conference_url":"https://zoom.us/j/4290101394","url":"https://aaneok.org/meetings/sunrise-7/","group":"Sunrise","timezone":"America/Chicago"},{"feed":"aaoklahoma.org","slug":"sunrise-7","name":"Sunrise","day":0,"time":"07:00","types":["12x12","O","X","ONL"],"state":"OK","postal_code":"74137","city":"Tulsa","address":"8749 S Lewis Ave","latitude":36.0370838,"longitude":-95.9541655,"location":"Unanimity Club","region":"Tulsa","notes":"IN PERSON & ZOOM\nMeeting ID: 429 010 1394\nNo password needed","conference_url":"https://zoom.us/j/4290101394","url":"https://aaoklahoma.org/meetings/sunrise-7/","group":"Sunrise","timezone":"America/Chicago"},{"feed":"aaoklahoma.org","slug":"altus-original-group-14","name":"Altus Original Group","day":0,"time":"08:00","end_time":"09:00","types":["D","O"],"state":"OK","postal_code":"73521","city":"Altus","address":"315 N Crain St","latitude":34.6406965,"longitude":-99.3395053,"location":"Meeting Location","region":"Altus","url":"https://aaoklahoma.org/meetings/altus-original-group-14/","group":"Altus Original Group","timezone":"America/Chicago"},{"feed":"okcintergroup.org","slug":"altus-original-group-14","name":"Altus Original Group","day":0,"time":"08:00","end_time":"09:00","types":["D","O"],"state":"OK","postal_code":"73521","city":"Altus","address":"315 N Crain St","latitude":34.6407132,"longitude":-99.3394986,"region":"Altus","url":"https://okcintergroup.org/meetings/altus-original-group-14/","group":"Altus Original Group","timezone":"America/Chicago"},{"feed":"aaneok.org","slug":"bartlesville-downtown-9","name":"Bartlesville Downtown","day":0,"time":"08:00","types":["LIT","O"],"state":"OK","postal_code":"74003","city":"Bartlesville","address":"325 S Osage Ave","latitude":36.7498251,"longitude":-95.975097,"location":"Brick Building","region":"Bartlesville","url":"https://aaneok.org/meetings/bartlesville-downtown-9/","group":"Bartlesville Downtown","timezone":"America/Chicago"},{"feed":"aaoklahoma.org","slug":"bartlesville-downtown-9","name":"Bartlesville Downtown","day":0,"time":"08:00","types":["LIT","O"],"state":"OK","postal_code":"74003","city":"Bartlesville","address":"325 S Osage Ave","latitude":36.7498251,"longitude":-95.975097,"location":"Brick Building","region":"Bartlesville","url":"https://aaoklahoma.org/meetings/bartlesville-downtown-9/","group":"Bartlesville Downtown","timezone":"America/Chicago"},{"feed":"aaneok.org","slug":"rose-garden","name":"Rose Garden","day":0,"time":"08:00","end_time":"09:00","types":["B","D","O"],"state":"OK","postal_code":"74114","city":"Tulsa","address":"2435 S Peoria Ave","latitude":36.1292133,"longitude":-95.9755406,"location":"Tulsa Rose Garden at Woodward Park","region":"Tulsa","notes":"Meeting is held on the steps of the Rose Garden from April through October at 8 a.m. Bring your own chair if you like.","url":"https://aaneok.org/meetings/rose-garden/","group":"Rose Garden","timezone":"America/Chicago"},{"feed":"aaoklahoma.org","slug":"rose-garden","name":"Rose Garden","day":0,"time":"08:00","end_time":"09:00","types":["B","D","O"],"state":"OK","postal_code":"74114","city":"Tulsa","address":"2435 S Peoria Ave","latitude":36.1313527,"longitude":-95.9733441,"location":"Tulsa Rose Garden at Woodward Park","region":"Tulsa","notes":"Meeting is held on the steps of the Rose Garden from April through October at 8 a.m. Bring your own chair if you like.","url":"https://aaoklahoma.org/meetings/rose-garden/","group":"Rose Garden","timezone":"America/Chicago"},{"feed":"aaoklahoma.org","slug":"tri-city-both-unity-and-glass-house-4","name":"TriCity","day":0,"time":"08:00","end_time":"09:00","types":["LIT","O"],"state":"OK","postal_code":"73160","city":"Moore","address":"115 SE 1st St","latitude":35.3374452,"longitude":-97.4858477,"location":"Tri City Clubhouse","region":"Moore","url":"https://aaoklahoma.org/meetings/tri-city-both-unity-and-glass-house-4/","group":"tricity","timezone":"America/Chicago"},{"feed":"okcintergroup.org","slug":"tri-city-both-unity-and-glass-house-4","name":"TriCity","day":0,"time":"08:00","end_time":"09:00","types":["LIT","O"],"state":"OK","postal_code":"73160","city":"Moore","address":"115 SE 1st St","latitude":35.3374452,"longitude":-97.4858477,"location":"Tri City Clubhouse","region":"Moore","url":"https://okcintergroup.org/meetings/tri-city-both-unity-and-glass-house-4/","group":"tricity","timezone":"America/Chicago"},{"feed":"aaoklahoma.org","slug":"atheists-agnostics-and-all-others","name":"Atheists, Agnostics, and Openminded","day":0,"time":"09:00","end_time":"10:00","types":["D","LIT"],"state":"OK","postal_code":"73120","city":"Oklahoma City","address":"2913 W Britton Rd","latitude":35.5665424,"longitude":-97.5682756,"location":"May Club - back of building south of Uptown Grocery","region":"Oklahoma City","url":"https://aaoklahoma.org/meetings/atheists-agnostics-and-all-others/","timezone":"America/Chicago"},{"feed":"okcintergroup.org","slug":"atheists-agnostics-and-all-others","name":"Atheists, Agnostics, and Openminded","day":0,"time":"09:00","end_time":"10:00","types":["D","LIT"],"state":"OK","postal_code":"73120","city":"The Village","address":"2913 W Britton Rd","latitude":35.566608,"longitude":-97.5687965,"location":"May Club - back of building south of Uptown Grocery","region":"Oklahoma City","url":"https://okcintergroup.org/meetings/atheists-agnostics-and-all-others/","timezone":"America/Chicago"},{"feed":"aaoklahoma.org","slug":"courage-to-change","name":"Courage to Change","day":0,"time":"09:00","types":["D","O"],"state":"OK","postal_code":"73118","city":"Oklahoma City","address":"5207 N Western Ave","latitude":35.5240559,"longitude":-97.5302666,"location":"Meeting Location","region":"Oklahoma City","url":"https://aaoklahoma.org/meetings/courage-to-change/","group":"Western Club","timezone":"America/Chicago"},{"feed":"okcintergroup.org","slug":"courage-to-change","name":"Courage to Change","day":0,"time":"09:00","types":["D","O"],"state":"OK","postal_code":"73118","city":"Oklahoma City","address":"5207 N Western Ave","latitude":35.5240215,"longitude":-97.5302567,"region":"Oklahoma City","url":"https://okcintergroup.org/meetings/courage-to-change/","group":"Western Club","timezone":"America/Chicago"},{"feed":"aaneok.org","slug":"hugo-serenity-group","name":"Hugo Serenity Group","day":0,"time":"09:00","end_time":"10:00","types":["O"],"state":"OK","postal_code":"74743","city":"Hugo","address":"201 E Kirk St","latitude":34.012106,"longitude":-95.5112108,"location":"First United Methodist Church","region":"Hugo","notes":"Came to Believe","url":"https://aaneok.org/meetings/hugo-serenity-group/","timezone":"America/Chicago"},{"feed":"aaoklahoma.org","slug":"hugo-serenity-group","name":"Hugo Serenity Group","day":0,"time":"09:00","end_time":"10:00","types":["O"],"state":"OK","postal_code":"74743","city":"Hugo","address":"201 E Kirk St","latitude":34.012106,"longitude":-95.5112108,"location":"First United Methodist Church","region":"Hugo","notes":"Came to Believe","url":"https://aaoklahoma.org/meetings/hugo-serenity-group/","timezone":"America/Chicago"},{"feed":"aaoklahoma.org","slug":"norman-original-group","name":"Norman Original Group","day":0,"time":"09:00","end_time":"10:00","types":["D","O"],"state":"OK","postal_code":"73069","city":"Norman","address":"3565 Macdonnell Dr","latitude":35.261607,"longitude":-97.4643439,"location":"White metal building, front faces Tecumseh","region":"Norman","notes":"child-friendly","url":"https://aaoklahoma.org/meetings/norman-original-group/","group":"Norman Original Group","timezone":"America/Chicago"},{"feed":"okcintergroup.org","slug":"norman-original-group","name":"Norman Original Group","day":0,"time":"09:00","end_time":"10:00","types":["D","O"],"state":"OK","postal_code":"73069","city":"Norman","address":"3565 Macdonnell Dr","latitude":35.261607,"longitude":-97.4643439,"location":"White metal building, front faces Tecumseh","region":"Norman","notes":"child-friendly","url":"https://okcintergroup.org/meetings/norman-original-group/","group":"Norman Original Group","timezone":"America/Chicago"},{"feed":"aaoklahoma.org","slug":"room-390-2","name":"Room 390","day":0,"time":"09:00","end_time":"10:00","types":["C","D"],"state":"OK","postal_code":"74601","city":"Ponca City","address":"212 S 3rd St","latitude":36.7019741,"longitude":-97.0815679,"location":"Harmony House","region":"Ponca City","url":"https://aaoklahoma.org/meetings/room-390-2/","timezone":"America/Chicago"},{"feed":"okcintergroup.org","slug":"room-390-2","name":"Room 390","day":0,"time":"09:00","end_time":"10:00","types":["C","D"],"state":"OK","postal_code":"74601","city":"Ponca City","address":"212 S 3rd St","latitude":36.7019741,"longitude":-97.0815679,"location":"Harmony House","region":"Ponca City","url":"https://okcintergroup.org/meetings/room-390-2/","timezone":"America/Chicago"},{"feed":"aaneok.org","slug":"we-agnostics-tulsa-broken-arrow","name":"Secular Sobriety","day":0,"time":"09:00","end_time":"10:00","types":["D","O","A","ONL"],"state":"OK","postal_code":"74110","city":"Tulsa","address":"3010 E King St","latitude":36.1678548,"longitude":-95.9454502,"location":"TIE Club. Meets in a house, corner of College & King","region":"Tulsa","notes":"In person and Zoom.\nZoom ID: 438 590 0679\nPassword: BillW","conference_url":"https://us02web.zoom.us/j/4385900679","url":"https://aaneok.org/meetings/we-agnostics-tulsa-broken-arrow/","timezone":"America/Chicago"},{"feed":"aaoklahoma.org","slug":"we-agnostics-tulsa-broken-arrow","name":"Secular Sobriety","day":0,"time":"09:00","end_time":"10:00","types":["D","O","A","ONL"],"state":"OK","postal_code":"74110","city":"Tulsa","address":"3010 E King St","latitude":36.1678649,"longitude":-95.9454403,"location":"TIE Club. Meets in a house, corner of College & King","region":"Tulsa","notes":"In person and Zoom.\nZoom ID: 438 590 0679\nPassword: BillW","conference_url":"https://us02web.zoom.us/j/4385900679","url":"https://aaoklahoma.org/meetings/we-agnostics-tulsa-broken-arrow/","timezone":"America/Chicago"},{"feed":"aaoklahoma.org","slug":"edmond-group","name":"Edmond Group","day":0,"time":"09:30","types":["LIT","O"],"state":"OK","postal_code":"73013","city":"Edmond","address":"3130 S Blvd","latitude":35.624903,"longitude":-97.4772911,"location":"beside the sign shop","region":"Edmond","url":"https://aaoklahoma.org/meetings/edmond-group/","group":"Edmond Group","timezone":"America/Chicago"},{"feed":"okcintergroup.org","slug":"edmond-group","name":"Edmond Group","day":0,"time":"09:30","types":["LIT","O"],"state":"OK","postal_code":"73013","city":"Edmond","address":"3130 S Blvd","latitude":35.62497,"longitude":-97.477365,"location":"beside the sign shop","region":"Edmond","url":"https://okcintergroup.org/meetings/edmond-group/","group":"Edmond Group","timezone":"America/Chicago"},{"feed":"aaoklahoma.org","slug":"sahara-group","name":"Sahara Group","day":0,"time":"09:30","types":["M","O"],"state":"OK","postal_code":"73103","city":"Oklahoma City","address":"436 NW 12th St","latitude":35.4811357,"longitude":-97.5205732,"location":"Meeting Location","region":"Oklahoma City","url":"https://aaoklahoma.org/meetings/sahara-group/","timezone":"America/Chicago"},{"feed":"okcintergroup.org","slug":"sahara-group","name":"Sahara Group","day":0,"time":"09:30","types":["M","O"],"state":"OK","postal_code":"73103","city":"Oklahoma City","address":"436 NW 12th St","latitude":35.481005,"longitude":-97.5204679,"region":"Oklahoma City","url":"https://okcintergroup.org/meetings/sahara-group/","timezone":"America/Chicago"},{"feed":"aaneok.org","slug":"sunday-morning-meeting","name":"Sunday Morning Meeting","day":0,"time":"09:30","types":["B","O"],"state":"OK","postal_code":"74137","city":"Tulsa","address":"8749 S Lewis Ave","latitude":36.0371618,"longitude":-95.9542884,"location":"Unanimity Club","region":"Tulsa","url":"https://aaneok.org/meetings/sunday-morning-meeting/","group":"Sunday Morning Meeting","timezone":"America/Chicago"},{"feed":"aaoklahoma.org","slug":"sunday-morning-meeting","name":"Sunday Morning Meeting","day":0,"time":"09:30","types":["B","O"],"state":"OK","postal_code":"74137","city":"Tulsa","address":"8749 S Lewis Ave","latitude":36.0370838,"longitude":-95.9541655,"location":"Unanimity Club","region":"Tulsa","url":"https://aaoklahoma.org/meetings/sunday-morning-meeting/","group":"Sunday Morning Meeting","timezone":"America/Chicago"},{"feed":"aaoklahoma.org","slug":"free-life-group","name":"Free Life Group","day":0,"time":"10:00","types":["O"],"state":"OK","postal_code":"74804","city":"Shawnee","address":"1872 N Airport Dr","latitude":35.3525937,"longitude":-96.9353175,"location":"Freelife Clubhouse Next to Little Theater (rear door)","region":"Shawnee","url":"https://aaoklahoma.org/meetings/free-life-group/","group":"Free Life Group","timezone":"America/Chicago"},{"feed":"okcintergroup.org","slug":"free-life-group","name":"Free Life Group","day":0,"time":"10:00","types":["O"],"state":"OK","postal_code":"74804","city":"Shawnee","address":"1872 N Airport Dr","latitude":35.3525913,"longitude":-96.9353594,"location":"Freelife Clubhouse Next to Little Theater (rear door)","region":"Shawnee","url":"https://okcintergroup.org/meetings/free-life-group/","group":"Free Life Group","timezone":"America/Chicago"},{"feed":"aaoklahoma.org","slug":"groupo-serenidad-spanish-group-4","name":"Groupo Serenidad","day":0,"time":"10:00","end_time":"11:30","types":["D","O","S","SP"],"state":"OK","postal_code":"73122","city":"Warr Acres","address":"5840 NW 50th St","latitude":35.5214943,"longitude":-97.6174561,"location":"Meeting Location","region":"Oklahoma City","url":"https://aaoklahoma.org/meetings/groupo-serenidad-spanish-group-4/","group":"Groupo Serendad","timezone":"America/Chicago"},{"feed":"okcintergroup.org","slug":"groupo-serenidad-spanish-group-4","name":"Groupo Serenidad","day":0,"time":"10:00","end_time":"11:30","types":["D","O","S","SP"],"state":"OK","postal_code":"73122","city":"Warr Acres","address":"5840 NW 50th St","latitude":35.521506,"longitude":-97.6174493,"region":"Oklahoma City","url":"https://okcintergroup.org/meetings/groupo-serenidad-spanish-group-4/","group":"Groupo Serendad","timezone":"America/Chicago"},{"feed":"aaneok.org","slug":"groupo-un-nuevo-caminar","name":"Groupo Un Nuevo Caminar","day":0,"time":"10:00","end_time":"12:00","state":"OK","postal_code":"74129","city":"Tulsa","address":"9938 E 21st St","latitude":36.132889,"longitude":-95.8652642,"region":"Tulsa","url":"https://aaneok.org/meetings/groupo-un-nuevo-caminar/","group":"Grupo Un Nuevo Caminar","timezone":"America/Chicago"},{"feed":"aaoklahoma.org","slug":"groupo-un-nuevo-caminar","name":"Groupo Un Nuevo Caminar","day":0,"time":"10:00","end_time":"12:00","state":"OK","postal_code":"74129","city":"Tulsa","address":"grupo alcoholicos anonimos Un Nuevo Caminar, 9938 E 21st St","latitude":36.1324669,"longitude":-95.8651932,"location":"Meeting Location","region":"Tulsa","url":"https://aaoklahoma.org/meetings/groupo-un-nuevo-caminar/","timezone":"America/Chicago"},{"feed":"aaneok.org","slug":"grupo-un-nuevo-caminar-8","name":"Grupo Un Nuevo Caminar","day":0,"time":"10:00","end_time":"12:00","types":["S"],"state":"OK","postal_code":"74129","city":"Tulsa","address":"grupo alcoholicos anonimos Un Nuevo Caminar, 9938 E 21st St","latitude":36.1324669,"longitude":-95.8651932,"region":"Tulsa","url":"https://aaneok.org/meetings/grupo-un-nuevo-caminar-8/","timezone":"America/Chicago"},{"feed":"aaoklahoma.org","slug":"grupo-un-nuevo-caminar-8","name":"Grupo Un Nuevo Caminar","day":0,"time":"10:00","end_time":"12:00","types":["S"],"state":"OK","postal_code":"74129","city":"Tulsa","address":"grupo alcoholicos anonimos Un Nuevo Caminar, 9938 E 21st St","latitude":36.1324669,"longitude":-95.8651932,"location":"Meeting Location","region":"Tulsa","url":"https://aaoklahoma.org/meetings/grupo-un-nuevo-caminar-8/","timezone":"America/Chicago"},{"feed":"aaoklahoma.org","slug":"grupo-viviendo-sobrio-11","name":"Grupo Viviendo Sobrio","day":0,"time":"10:00","end_time":"11:30","types":["D","S"],"state":"OK","postal_code":"73119","city":"Oklahoma City","address":"4550 S May Ave","latitude":35.4200002,"longitude":-97.5642015,"location":"4550 S May Ave, Oklahoma City, OK 73119, USA","region":"Oklahoma City","notes":"Contact: 405-802-8963, 405-520-3614, 405-520-7709, 405-361-4127","url":"https://aaoklahoma.org/meetings/grupo-viviendo-sobrio-11/","group":"Grupo Viviendo Sobrio","timezone":"America/Chicago"},{"feed":"okcintergroup.org","slug":"grupo-viviendo-sobrio-11","name":"Grupo Viviendo Sobrio","day":0,"time":"10:00","end_time":"11:30","types":["D","S"],"state":"OK","postal_code":"73119","city":"Oklahoma City","address":"4550 S May Ave","latitude":35.4199762,"longitude":-97.5642073,"location":"4550 S May Ave, Oklahoma City, OK 73119, USA","region":"Oklahoma City","notes":"Contact: 405-802-8963, 405-520-3614, 405-520-7709, 405-361-4127","url":"https://okcintergroup.org/meetings/grupo-viviendo-sobrio-11/","group":"Grupo Viviendo Sobrio","timezone":"America/Chicago"},{"feed":"aaoklahoma.org","slug":"mwc-tinker-fellowship","name":"MWC/Tinker Fellowship","day":0,"time":"10:00","end_time":"11:00","types":["D","O"],"state":"OK","postal_code":"73110","city":"Midwest City","address":"6500 E Reno Ave","latitude":35.4635914,"longitude":-97.4130701,"location":"Free Methodist Church (West Wing) Eff 1/1/2025","region":"Midwest City","url":"https://aaoklahoma.org/meetings/mwc-tinker-fellowship/","group":"MWC Tinker","timezone":"America/Chicago"},{"feed":"okcintergroup.org","slug":"mwc-tinker-fellowship","name":"MWC/Tinker Fellowship","day":0,"time":"10:00","end_time":"11:00","types":["D","O"],"state":"OK","postal_code":"73110","city":"Midwest City","address":"6500 E Reno Ave","latitude":35.4635914,"longitude":-97.4130701,"location":"Free Methodist Church (West Wing) Eff 1/1/2025","region":"Midwest City","url":"https://okcintergroup.org/meetings/mwc-tinker-fellowship/","group":"MWC Tinker","timezone":"America/Chicago"},{"feed":"aaoklahoma.org","slug":"night-creatures-group","name":"Kelley Club Night Creatures Group","day":0,"time":"10:00","end_time":"11:00","types":["O","ST"],"state":"OK","postal_code":"73111","city":"Oklahoma City","address":"2300 N Kelley Ave","latitude":35.4925603,"longitude":-97.4942205,"location":"Kelley Club","region":"Oklahoma City","notes":"3 and 11","url":"https://aaoklahoma.org/meetings/night-creatures-group/","group":"Night Creatures Group","timezone":"America/Chicago"},{"feed":"okcintergroup.org","slug":"night-creatures-group","name":"Kelley Club Night Creatures Group","day":0,"time":"10:00","end_time":"11:00","types":["O","ST"],"state":"OK","postal_code":"73111","city":"Oklahoma City","address":"2300 N Kelley Ave","latitude":35.4925541,"longitude":-97.4943091,"location":"Kelley Club","region":"Oklahoma City","notes":"3 and 11","url":"https://okcintergroup.org/meetings/night-creatures-group/","group":"Night Creatures Group","timezone":"America/Chicago"},{"feed":"aaoklahoma.org","slug":"northside-freedom-group","name":"Northside Freedom Group","day":0,"time":"10:00","types":["D","O"],"state":"OK","postal_code":"73132","city":"Oklahoma City","address":"6444 Northwest Expy","latitude":35.5528925,"longitude":-97.6293843,"location":"Pepper Tree Square","region":"Oklahoma City","notes":"Spirituality discussion","url":"https://aaoklahoma.org/meetings/northside-freedom-group/","group":"Northside Freedom Group","timezone":"America/Chicago"},{"feed":"okcintergroup.org","slug":"northside-freedom-group","name":"Northside Freedom Group","day":0,"time":"10:00","types":["D","O"],"state":"OK","postal_code":"73132","city":"Oklahoma City","address":"6444 Northwest Expy","latitude":35.5525849,"longitude":-97.6290597,"location":"Pepper Tree Square","region":"Oklahoma City","notes":"Spirituality discussion","url":"https://okcintergroup.org/meetings/northside-freedom-group/","group":"Northside Freedom Group","timezone":"America/Chicago"},{"feed":"aaneok.org","slug":"nueva-vida-2-13","name":"Nueva Vida 2","day":0,"time":"10:00","end_time":"12:00","types":["O","S","SP"],"state":"OK","postal_code":"74010","city":"Bristow","address":"1081 Silverpine St","latitude":35.779868,"longitude":-96.355118,"location":"Spanish--Meets in a House","region":"Bristow","url":"https://aaneok.org/meetings/nueva-vida-2-13/","group":"Nueva Vida 2","timezone":"America/Chicago"},{"feed":"aaoklahoma.org","slug":"nueva-vida-2-13","name":"Nueva Vida 2","day":0,"time":"10:00","end_time":"12:00","types":["O","S","SP"],"state":"OK","postal_code":"74010","city":"Bristow","address":"1081 Silverpine St","latitude":35.779868,"longitude":-96.355118,"location":"Spanish--Meets in a House","region":"Bristow","url":"https://aaoklahoma.org/meetings/nueva-vida-2-13/","group":"Nueva Vida 2","timezone":"America/Chicago"},{"feed":"aaoklahoma.org","slug":"rockwell-group","name":"Rockwell Group","day":0,"time":"10:00","types":["C"],"state":"OK","postal_code":"73127","city":"Oklahoma City","address":"1425 1/2 N Rockwell Ave","latitude":35.4841087,"longitude":-97.6371258,"location":"behind the masonic lodge (Bus Route #023/023N)","region":"Oklahoma City","notes":"non smoking\n\nchild-friendly","url":"https://aaoklahoma.org/meetings/rockwell-group/","group":"Rockwell Club","timezone":"America/Chicago"},{"feed":"okcintergroup.org","slug":"rockwell-group","name":"Rockwell Group","day":0,"time":"10:00","types":["C"],"state":"OK","postal_code":"73127","city":"Oklahoma City","address":"1425 1/2 N Rockwell Ave","latitude":35.4841087,"longitude":-97.6371258,"location":"behind the masonic lodge (Bus Route #023/023N)","region":"Oklahoma City","notes":"non smoking\n\nchild-friendly","url":"https://okcintergroup.org/meetings/rockwell-group/","group":"Rockwell Club","timezone":"America/Chicago"},{"feed":"aaoklahoma.org","slug":"shawnee-big-book-group","name":"Shawnee Big Book Group","day":0,"time":"10:00","end_time":"11:00","types":["D","O"],"state":"OK","postal_code":"74801","city":"Shawnee","address":"1315 N McKinley Ave","latitude":35.3416838,"longitude":-96.9131039,"location":"Trinity Baptist Church, enter on McKinley side","region":"Shawnee","notes":"Topic: God Working In Our Lives\nENTER AND PARK IN BACK FOR THIS MEETING","url":"https://aaoklahoma.org/meetings/shawnee-big-book-group/","group":"Shawnee Big Book Group","timezone":"America/Chicago"},{"feed":"okcintergroup.org","slug":"shawnee-big-book-group","name":"Shawnee Big Book Group","day":0,"time":"10:00","end_time":"11:00","types":["D","O"],"state":"OK","postal_code":"74801","city":"Shawnee","address":"1315 N McKinley Ave","latitude":35.3416476,"longitude":-96.9130733,"location":"Trinity Baptist Church, enter on McKinley side","region":"Shawnee","notes":"Topic: God Working In Our Lives\nENTER AND PARK IN BACK FOR THIS MEETING","url":"https://okcintergroup.org/meetings/shawnee-big-book-group/","group":"Shawnee Big Book Group","timezone":"America/Chicago"},{"feed":"aaneok.org","slug":"sunday-big-book-group","name":"Sunday Big Book Group","day":0,"time":"10:00","types":["B","O"],"state":"OK","postal_code":"74017","city":"Claremore","address":"632 E 4th St","latitude":36.3084676,"longitude":-95.6022482,"location":"NW Corner 4th & Lavira","region":"Claremore","url":"https://aaneok.org/meetings/sunday-big-book-group/","group":"Sunday Big Book Group","timezone":"America/Chicago"},{"feed":"aaoklahoma.org","slug":"sunday-big-book-group","name":"Sunday Big Book Group","day":0,"time":"10:00","types":["B","O"],"state":"OK","postal_code":"74017","city":"Claremore","address":"632 E 4th St","latitude":36.3084904,"longitude":-95.602258,"location":"NW Corner 4th & Lavira","region":"Claremore","url":"https://aaoklahoma.org/meetings/sunday-big-book-group/","group":"Sunday Big Book Group","timezone":"America/Chicago"},{"feed":"aaoklahoma.org","slug":"triangle-group","name":"Triangle Group","day":0,"time":"10:00","types":["O","SP"],"state":"OK","postal_code":"73069","city":"Norman","address":"1005 N Flood Ave","latitude":35.2271077,"longitude":-97.452503,"location":"Elite Plaza, Suite 114 (Bus Route #121)","region":"Norman","url":"https://aaoklahoma.org/meetings/triangle-group/","group":"Triangle Group","timezone":"America/Chicago"},{"feed":"okcintergroup.org","slug":"triangle-group","name":"Triangle Group","day":0,"time":"10:00","types":["O","SP"],"state":"OK","postal_code":"73069","city":"Norman","address":"1005 N Flood Ave","latitude":35.2273011,"longitude":-97.452824,"location":"Elite Plaza, Suite 114 (Bus Route #121)","region":"Norman","url":"https://okcintergroup.org/meetings/triangle-group/","group":"Triangle Group","timezone":"America/Chicago"},{"feed":"aaoklahoma.org","slug":"western-club-2","name":"Western Club","day":0,"time":"10:00","types":["C"],"state":"OK","postal_code":"73118","city":"Oklahoma City","address":"5207 N Western Ave","latitude":35.5240559,"longitude":-97.5302666,"location":"Meeting Location","region":"Oklahoma City","url":"https://aaoklahoma.org/meetings/western-club-2/","group":"Western Club","timezone":"America/Chicago"},{"feed":"okcintergroup.org","slug":"western-club-2","name":"Western Club","day":0,"time":"10:00","types":["C"],"state":"OK","postal_code":"73118","city":"Oklahoma City","address":"5207 N Western Ave","latitude":35.5240215,"longitude":-97.5302567,"region":"Oklahoma City","url":"https://okcintergroup.org/meetings/western-club-2/","group":"Western Club","timezone":"America/Chicago"},{"feed":"aaneok.org","slug":"action-19","name":"Action","day":0,"time":"10:30","end_time":"12:00","types":["C","D"],"state":"OK","postal_code":"74012","city":"Broken Arrow","address":"1631 S Main St","latitude":36.0381906,"longitude":-95.790145,"location":"Main Street Plaza","region":"Broken Arrow","notes":"In person only","url":"https://aaneok.org/meetings/action-19/","group":"Action","timezone":"America/Chicago"},{"feed":"aaoklahoma.org","slug":"action-19","name":"Action","day":0,"time":"10:30","end_time":"12:00","types":["C","D"],"state":"OK","postal_code":"74012","city":"Broken Arrow","address":"1631 S Main St","latitude":36.0381906,"longitude":-95.790145,"location":"Main Street Plaza","region":"Broken Arrow","notes":"In person only","url":"https://aaoklahoma.org/meetings/action-19/","group":"Action","timezone":"America/Chicago"},{"feed":"aaneok.org","slug":"bright-sunlight","name":"Bright Sunlight","day":0,"time":"10:30","end_time":"11:30","types":["D","O","SP"],"state":"OK","postal_code":"74104","city":"Tulsa","address":"10 S Lewis Ave","latitude":36.1594513,"longitude":-95.958524,"location":"Circle Cinema, Theater 2","region":"Tulsa","url":"https://aaneok.org/meetings/bright-sunlight/","group":"Bright Sunlight","timezone":"America/Chicago"},{"feed":"aaoklahoma.org","slug":"bright-sunlight","name":"Bright Sunlight","day":0,"time":"10:30","end_time":"11:30","types":["D","O","SP"],"state":"OK","postal_code":"74104","city":"Tulsa","address":"10 S Lewis Ave","latitude":36.1594366,"longitude":-95.9585557,"location":"Circle Cinema, Theater 2","region":"Tulsa","url":"https://aaoklahoma.org/meetings/bright-sunlight/","group":"Bright Sunlight","timezone":"America/Chicago"},{"feed":"aaoklahoma.org","slug":"classen-group","name":"Classen Club","day":0,"time":"10:30","types":["DR","LS","O"],"state":"OK","postal_code":"73118","city":"Oklahoma City","address":"722 NW 30th St","latitude":35.5002879,"longitude":-97.5251058,"location":"Southeast corner of Shartel and 30th - use back door (Bus Route: Rapid NW @ Classen &amp; 30th)","region":"Oklahoma City","url":"https://aaoklahoma.org/meetings/classen-group/","group":"Classen Group","timezone":"America/Chicago"},{"feed":"okcintergroup.org","slug":"classen-group","name":"Classen Club","day":0,"time":"10:30","types":["DR","LS","O"],"state":"OK","postal_code":"73118","city":"Oklahoma City","address":"722 NW 30th St","latitude":35.5002879,"longitude":-97.5251058,"location":"Southeast corner of Shartel and 30th - use back door (Bus Route: Rapid NW @ Classen &amp; 30th)","region":"Oklahoma City","url":"https://okcintergroup.org/meetings/classen-group/","group":"Classen Group","timezone":"America/Chicago"},{"feed":"aaoklahoma.org","slug":"norman-original-group-44","name":"Norman Original Group","day":0,"time":"10:30","end_time":"11:30","types":["GR","O","A"],"state":"OK","postal_code":"73069","city":"Norman","address":"3565 Macdonnell Dr","latitude":35.261607,"longitude":-97.4643439,"location":"White metal building, front faces Tecumseh","region":"Norman","notes":"\"Freethinkers Group\" at NOG - From Grapevine Book \"One Big Tent\"\n\nchild-friendly","url":"https://aaoklahoma.org/meetings/norman-original-group-44/","group":"Norman Original Group","timezone":"America/Chicago"},{"feed":"okcintergroup.org","slug":"norman-original-group-44","name":"Norman Original Group","day":0,"time":"10:30","end_time":"11:30","types":["GR","O","A"],"state":"OK","postal_code":"73069","city":"Norman","address":"3565 Macdonnell Dr","latitude":35.261607,"longitude":-97.4643439,"location":"White metal building, front faces Tecumseh","region":"Norman","notes":"\"Freethinkers Group\" at NOG - From Grapevine Book \"One Big Tent\"\n\nchild-friendly","url":"https://okcintergroup.org/meetings/norman-original-group-44/","group":"Norman Original Group","timezone":"America/Chicago"},{"feed":"aaoklahoma.org","slug":"southside-serenity-group","name":"SouthSide Serenity Group","day":0,"time":"10:30","end_time":"11:30","types":["D","O"],"state":"OK","postal_code":"73159","city":"Oklahoma City","address":"2212 SW 74th St","latitude":35.3905699,"longitude":-97.550282,"location":"next to papa johns - door faces west (Bus Routes #016 &amp; #013)","region":"Oklahoma City","notes":"Spirituality","url":"https://aaoklahoma.org/meetings/southside-serenity-group/","group":"Southside Serenity","timezone":"America/Chicago"},{"feed":"okcintergroup.org","slug":"southside-serenity-group","name":"SouthSide Serenity Group","day":0,"time":"10:30","end_time":"11:30","types":["D","O"],"state":"OK","postal_code":"73159","city":"Oklahoma City","address":"2212 SW 74th St","latitude":35.3905699,"longitude":-97.550282,"location":"next to papa johns - door faces west (Bus Routes #016 &amp; #013)","region":"Oklahoma City","notes":"Spirituality","url":"https://okcintergroup.org/meetings/southside-serenity-group/","group":"Southside Serenity","timezone":"America/Chicago"},{"feed":"aaoklahoma.org","slug":"the-solution-group-11","name":"The Solution Group","day":0,"time":"10:30","end_time":"11:30","types":["D","O"],"state":"OK","postal_code":"73139","city":"Oklahoma City","address":"633 SW 89th St","latitude":35.3775725,"longitude":-97.5232093,"location":"Bus Route #040","region":"Oklahoma City","notes":"24 hours a day book","url":"https://aaoklahoma.org/meetings/the-solution-group-11/","group":"The Solution Group","timezone":"America/Chicago"},{"feed":"okcintergroup.org","slug":"the-solution-group-11","name":"The Solution Group","day":0,"time":"10:30","end_time":"11:30","types":["D","O"],"state":"OK","postal_code":"73139","city":"Oklahoma City","address":"633 SW 89th St","latitude":35.3775725,"longitude":-97.5232093,"location":"Bus Route #040","region":"Oklahoma City","notes":"24 hours a day book","url":"https://okcintergroup.org/meetings/the-solution-group-11/","group":"The Solution Group","timezone":"America/Chicago"},{"feed":"aaoklahoma.org","slug":"tricity","name":"Tricity","day":0,"time":"10:30","end_time":"11:30","types":["LIT","O"],"state":"OK","postal_code":"73160","city":"Moore","address":"115 SE 1st St","latitude":35.3374452,"longitude":-97.4858477,"location":"Tri City Clubhouse","region":"Moore","url":"https://aaoklahoma.org/meetings/tricity/","group":"tricity","timezone":"America/Chicago"},{"feed":"okcintergroup.org","slug":"tricity","name":"Tricity","day":0,"time":"10:30","end_time":"11:30","types":["LIT","O"],"state":"OK","postal_code":"73160","city":"Moore","address":"115 SE 1st St","latitude":35.3374452,"longitude":-97.4858477,"location":"Tri City Clubhouse","region":"Moore","url":"https://okcintergroup.org/meetings/tricity/","group":"tricity","timezone":"America/Chicago"},{"feed":"aaoklahoma.org","slug":"tricity-17","name":"TriCity","day":0,"time":"10:30","end_time":"11:30","types":["D","O","ONL"],"state":"OK","city":"Moore","latitude":35.3395079,"longitude":-97.4867028,"location":"Moore, OK, USA","region":"Moore","notes":"24 hours a day","conference_url":"https://us06web.zoom.us/j/81983324882","url":"https://aaoklahoma.org/meetings/tricity-17/","timezone":"America/Chicago"},{"feed":"okcintergroup.org","slug":"tricity-17","name":"TriCity","day":0,"time":"10:30","end_time":"11:30","types":["D","O","ONL"],"state":"OK","city":"Moore","latitude":35.3395079,"longitude":-97.4867028,"location":"Moore, OK, USA","region":"Moore","notes":"24 hours a day","conference_url":"https://us06web.zoom.us/j/81983324882","url":"https://okcintergroup.org/meetings/tricity-17/","timezone":"America/Chicago"},{"feed":"aaneok.org","slug":"tulsa-group-11","name":"Tulsa Group","day":0,"time":"10:30","types":["D","O","X"],"state":"OK","postal_code":"74110","city":"Tulsa","address":"3010 E King St","latitude":36.1678548,"longitude":-95.9454502,"location":"TIE Club. Meets in a house, corner of College & King","region":"Tulsa","url":"https://aaneok.org/meetings/tulsa-group-11/","group":"Tulsa Group","timezone":"America/Chicago"},{"feed":"aaoklahoma.org","slug":"tulsa-group-11","name":"Tulsa Group","day":0,"time":"10:30","types":["D","O","X"],"state":"OK","postal_code":"74110","city":"Tulsa","address":"3010 E King St","latitude":36.1678649,"longitude":-95.9454403,"location":"TIE Club. Meets in a house, corner of College & King","region":"Tulsa","url":"https://aaoklahoma.org/meetings/tulsa-group-11/","group":"Tulsa Group","timezone":"America/Chicago"},{"feed":"aaoklahoma.org","slug":"may-club-4","name":"May Club","day":0,"time":"11:00","types":["O"],"state":"OK","postal_code":"73120","city":"Oklahoma City","address":"2913 W Britton Rd","latitude":35.5665424,"longitude":-97.5682756,"location":"May Club - back of building south of Uptown Grocery","region":"Oklahoma City","url":"https://aaoklahoma.org/meetings/may-club-4/","group":"May Club","timezone":"America/Chicago"},{"feed":"okcintergroup.org","slug":"may-club-4","name":"May Club","day":0,"time":"11:00","types":["O"],"state":"OK","postal_code":"73120","city":"The Village","address":"2913 W Britton Rd","latitude":35.566608,"longitude":-97.5687965,"location":"May Club - back of building south of Uptown Grocery","region":"Oklahoma City","url":"https://okcintergroup.org/meetings/may-club-4/","group":"May Club","timezone":"America/Chicago"},{"feed":"aaneok.org","slug":"muskogee-happy-hour-9","name":"Muskogee Happy Hour","day":0,"time":"11:00","types":["O","ST"],"state":"OK","postal_code":"74403","city":"Muskogee","address":"313 N K St","latitude":35.7465111,"longitude":-95.3553913,"location":"Behind Lakeland Shopping Center","region":"Muskogee","url":"https://aaneok.org/meetings/muskogee-happy-hour-9/","group":"Muskogee Happy Hour","timezone":"America/Chicago"},{"feed":"aaoklahoma.org","slug":"muskogee-happy-hour-9","name":"Muskogee Happy Hour","day":0,"time":"11:00","types":["O","ST"],"state":"OK","postal_code":"74403","city":"Muskogee","address":"313 N K St","latitude":35.7465111,"longitude":-95.3553913,"location":"Behind Lakeland Shopping Center","region":"Muskogee","url":"https://aaoklahoma.org/meetings/muskogee-happy-hour-9/","group":"Muskogee Happy Hour","timezone":"America/Chicago"},{"feed":"aaneok.org","slug":"on-your-feet","name":"On your Feet","day":0,"time":"11:00","end_time":"12:00","types":["B","M","O"],"state":"OK","postal_code":"74146","city":"Tulsa","address":"5649 S Garnett Rd","latitude":36.0806262,"longitude":-95.8506344,"location":"HOW Foundation","region":"Tulsa","url":"https://aaneok.org/meetings/on-your-feet/","timezone":"America/Chicago"},{"feed":"aaoklahoma.org","slug":"on-your-feet","name":"On your Feet","day":0,"time":"11:00","end_time":"12:00","types":["B","M","O"],"state":"OK","postal_code":"74146","city":"Tulsa","address":"5649 S Garnett Rd","latitude":36.0805813,"longitude":-95.8505998,"location":"HOW Foundation","region":"Tulsa","url":"https://aaoklahoma.org/meetings/on-your-feet/","timezone":"America/Chicago"},{"feed":"aaoklahoma.org","slug":"serenity-house","name":"Serenity House","day":0,"time":"11:00","types":["O","SM","X"],"state":"OK","postal_code":"73701","city":"Enid","address":"930 N Madison St","latitude":36.4063881,"longitude":-97.8855518,"location":"Meeting Location","region":"Enid","url":"https://aaoklahoma.org/meetings/serenity-house/","group":"Serenity House","timezone":"America/Chicago"},{"feed":"okcintergroup.org","slug":"serenity-house","name":"Serenity House","day":0,"time":"11:00","types":["O","SM","X"],"state":"OK","postal_code":"73701","city":"Enid","address":"930 N Madison St","latitude":36.4064079,"longitude":-97.8855327,"region":"Enid","url":"https://okcintergroup.org/meetings/serenity-house/","group":"Serenity House","timezone":"America/Chicago"},{"feed":"aaneok.org","slug":"tahlequah-eastside-14","name":"Tahlequah Eastside","day":0,"time":"11:00","types":["O","ST","X"],"state":"OK","postal_code":"74464","city":"Tahlequah","address":"812 E Ward St","latitude":35.9161342,"longitude":-94.9587513,"location":"Behind Braum's","region":"Tahlequah","url":"https://aaneok.org/meetings/tahlequah-eastside-14/","group":"Tahlequah Eastside","timezone":"America/Chicago"},{"feed":"aaoklahoma.org","slug":"tahlequah-eastside-14","name":"Tahlequah Eastside","day":0,"time":"11:00","types":["O","ST","X"],"state":"OK","postal_code":"74464","city":"Tahlequah","address":"812 E Ward St","latitude":35.9161517,"longitude":-94.9587571,"location":"Behind Braum's","region":"Tahlequah","url":"https://aaoklahoma.org/meetings/tahlequah-eastside-14/","group":"Tahlequah Eastside","timezone":"America/Chicago"},{"feed":"aaneok.org","slug":"gratitude-day-womens-7","name":"Gratitude Group","day":0,"time":"12:00","types":["O","X","W","ONL"],"state":"OK","postal_code":"74145","city":"Tulsa","latitude":36.1026614,"longitude":-95.8828751,"location":"Online Only","region":"Tulsa","notes":"Zoom only\nID: 836 4633 5270\npw: gratitude","conference_url":"https://us02web.zoom.us/j/83646335270","url":"https://aaneok.org/meetings/gratitude-day-womens-7/","group":"Gratitude Group","timezone":"America/Chicago"},{"feed":"aaoklahoma.org","slug":"gratitude-day-womens-7","name":"Gratitude Group","day":0,"time":"12:00","types":["O","X","W","ONL"],"state":"OK","postal_code":"74145","city":"Tulsa","latitude":36.1026614,"longitude":-95.8828751,"location":"Online Only","region":"Tulsa","notes":"Zoom only\nID: 836 4633 5270\npw: gratitude","conference_url":"https://us02web.zoom.us/j/83646335270","url":"https://aaoklahoma.org/meetings/gratitude-day-womens-7/","group":"Gratitude Group","timezone":"America/Chicago"},{"feed":"aaoklahoma.org","slug":"grupo-nueva-vida","name":"Grupo Nueva Vida","day":0,"time":"12:00","end_time":"13:30","types":["C","S"],"state":"OK","postal_code":"73109","city":"Oklahoma City","address":"213 SW 25th St","latitude":35.4396866,"longitude":-97.5167395,"location":"Meeting Location","region":"Oklahoma City","url":"https://aaoklahoma.org/meetings/grupo-nueva-vida/","group":"Grupo Nueva Vida","timezone":"America/Chicago"},{"feed":"okcintergroup.org","slug":"grupo-nueva-vida","name":"Grupo Nueva Vida","day":0,"time":"12:00","end_time":"13:30","types":["C","S"],"state":"OK","postal_code":"73109","city":"Oklahoma City","address":"213 SW 25th St","latitude":35.439724,"longitude":-97.5168232,"region":"Oklahoma City","url":"https://okcintergroup.org/meetings/grupo-nueva-vida/","group":"Grupo Nueva Vida","timezone":"America/Chicago"},{"feed":"aaoklahoma.org","slug":"maine-street-aa-group-14","name":"Maine Street AA Group","day":0,"time":"12:00","end_time":"13:00","types":["D","O"],"state":"OK","postal_code":"73701","city":"Enid","address":"704 W Maine St","latitude":36.3958577,"longitude":-97.8868084,"location":"Suite D","region":"Enid","url":"https://aaoklahoma.org/meetings/maine-street-aa-group-14/","group":"Maine Street AA Group","timezone":"America/Chicago"},{"feed":"okcintergroup.org","slug":"maine-street-aa-group-14","name":"Maine Street AA Group","day":0,"time":"12:00","end_time":"13:00","types":["D","O"],"state":"OK","postal_code":"73701","city":"Enid","address":"704 W Maine St","latitude":36.3958577,"longitude":-97.8868084,"location":"Suite D","region":"Enid","url":"https://okcintergroup.org/meetings/maine-street-aa-group-14/","group":"Maine Street AA Group","timezone":"America/Chicago"},{"feed":"aaneok.org","slug":"mens-big-book-study","name":"Men's Big Book Study","day":0,"time":"12:00","end_time":"13:00","types":["B","C"],"state":"OK","postal_code":"74501","city":"McAlester","address":"100 N A St","latitude":34.9326891,"longitude":-95.7714625,"location":"Cherokee Club","region":"McAlester","url":"https://aaneok.org/meetings/mens-big-book-study/","timezone":"America/Chicago"},{"feed":"aaoklahoma.org","slug":"mens-big-book-study","name":"Men's Big Book Study","day":0,"time":"12:00","end_time":"13:00","types":["B","C"],"state":"OK","postal_code":"74501","city":"McAlester","address":"100 N A St","latitude":34.9327443,"longitude":-95.771778,"location":"Cherokee Club","region":"McAlester","url":"https://aaoklahoma.org/meetings/mens-big-book-study/","timezone":"America/Chicago"},{"feed":"aaoklahoma.org","slug":"new-awakening","name":"Noon Awakening","day":0,"time":"12:00","end_time":"13:00","types":["D","O","ONL"],"state":"OK","city":"Tulsa","latitude":36.1551375,"longitude":-95.989501,"location":"Tulsa, OK, USA","region":"Tulsa","notes":"PASSCODE: ODAT123","conference_url":"https://zoom.us/j/478332211","url":"https://aaoklahoma.org/meetings/new-awakening/","timezone":"America/Chicago"},{"feed":"okcintergroup.org","slug":"new-awakening","name":"Noon Awakening","day":0,"time":"12:00","end_time":"13:00","types":["D","O","ONL"],"state":"OK","city":"Tulsa","latitude":36.1551375,"longitude":-95.989501,"location":"passcode ODAT123","region":"Tulsa","notes":"PASSCODE: ODAT123","conference_url":"https://zoom.us/j/478332211","url":"https://okcintergroup.org/meetings/new-awakening/","timezone":"America/Chicago"},{"feed":"aaneok.org","slug":"noon-awakenings-sunday","name":"Noon Awakenings","day":0,"time":"12:00","end_time":"13:00","types":["12x12","ABSI","B","EN","ONL"],"state":"OK","postal_code":"74145","city":"Tulsa","latitude":36.1026614,"longitude":-95.8828751,"location":"Online Only","region":"Tulsa","conference_url":"https://us02web.zoom.us/j/478332211","url":"https://aaneok.org/meetings/noon-awakenings-sunday/","group":"Noon Awakenings","timezone":"America/Chicago"},{"feed":"aaoklahoma.org","slug":"noon-awakenings-sunday","name":"Noon Awakenings","day":0,"time":"12:00","end_time":"13:00","types":["12x12","ABSI","B","EN","ONL"],"state":"OK","postal_code":"74145","city":"Tulsa","latitude":36.1026614,"longitude":-95.8828751,"location":"Online Only","region":"Tulsa","conference_url":"https://us02web.zoom.us/j/478332211","url":"https://aaoklahoma.org/meetings/noon-awakenings-sunday/","group":"Noon Awakenings","timezone":"America/Chicago"},{"feed":"aaoklahoma.org","slug":"norman-original-group-43","name":"Norman Original Group","day":0,"time":"12:00","end_time":"13:00","types":["GR","O"],"state":"OK","postal_code":"73069","city":"Norman","address":"3565 Macdonnell Dr","latitude":35.261607,"longitude":-97.4643439,"location":"White metal building, front faces Tecumseh","region":"Norman","notes":"child-friendly","url":"https://aaoklahoma.org/meetings/norman-original-group-43/","group":"Norman Original Group","timezone":"America/Chicago"},{"feed":"okcintergroup.org","slug":"norman-original-group-43","name":"Norman Original Group","day":0,"time":"12:00","end_time":"13:00","types":["GR","O"],"state":"OK","postal_code":"73069","city":"Norman","address":"3565 Macdonnell Dr","latitude":35.261607,"longitude":-97.4643439,"location":"White metal building, front faces Tecumseh","region":"Norman","notes":"child-friendly","url":"https://okcintergroup.org/meetings/norman-original-group-43/","group":"Norman Original Group","timezone":"America/Chicago"},{"feed":"aaneok.org","slug":"one-day-at-a-time-7","name":"ODAT (One Day at a Time)","day":0,"time":"12:00","types":["D","O"],"state":"OK","postal_code":"74137","city":"Tulsa","address":"8749 S Lewis Ave","latitude":36.0371618,"longitude":-95.9542884,"location":"Unanimity Club","region":"Tulsa","url":"https://aaneok.org/meetings/one-day-at-a-time-7/","group":"ODAT (One Day at a Time)","timezone":"America/Chicago"},{"feed":"aaoklahoma.org","slug":"one-day-at-a-time-7","name":"ODAT (One Day at a Time)","day":0,"time":"12:00","types":["D","O"],"state":"OK","postal_code":"74137","city":"Tulsa","address":"8749 S Lewis Ave","latitude":36.0370838,"longitude":-95.9541655,"location":"Unanimity Club","region":"Tulsa","url":"https://aaoklahoma.org/meetings/one-day-at-a-time-7/","group":"ODAT (One Day at a Time)","timezone":"America/Chicago"},{"feed":"aaoklahoma.org","slug":"open-door-group","name":"Open Door Group","day":0,"time":"12:00","types":["O"],"state":"OK","postal_code":"73507","city":"Lawton","address":"1816 NW Liberty Ave","latitude":34.6198713,"longitude":-98.4172523,"location":"Meeting Location","region":"Lawton","url":"https://aaoklahoma.org/meetings/open-door-group/","group":"Open Door Group","timezone":"America/Chicago"},{"feed":"okcintergroup.org","slug":"open-door-group","name":"Open Door Group","day":0,"time":"12:00","types":["O"],"state":"OK","postal_code":"73507","city":"Lawton","address":"1816 NW Liberty Ave","latitude":34.6199724,"longitude":-98.4175125,"region":"Lawton","url":"https://okcintergroup.org/meetings/open-door-group/","group":"Open Door Group","timezone":"America/Chicago"},{"feed":"aaneok.org","slug":"original-12","name":"Original Group","day":0,"time":"12:00","types":["D","O"],"state":"OK","postal_code":"74112","city":"Tulsa","address":"6815 E 15th St","latitude":36.1409789,"longitude":-95.9013071,"location":"Office Complex","region":"Tulsa","url":"https://aaneok.org/meetings/original-12/","group":"Original Group","timezone":"America/Chicago"},{"feed":"aaoklahoma.org","slug":"original-12","name":"Original Group","day":0,"time":"12:00","types":["D","O"],"state":"OK","postal_code":"74112","city":"Tulsa","address":"6815 E 15th St","latitude":36.1409789,"longitude":-95.9013071,"location":"Office Complex","region":"Tulsa","url":"https://aaoklahoma.org/meetings/original-12/","group":"Original Group","timezone":"America/Chicago"},{"feed":"aaneok.org","slug":"serenity-harbor-7","name":"Serenity Harbor","day":0,"time":"12:00","types":["LIT","O","X"],"state":"OK","postal_code":"74135","city":"Tulsa","address":"5525 E 51st St #403","latitude":36.0904096,"longitude":-95.9146558,"location":"Dry Dock","region":"Tulsa","url":"https://aaneok.org/meetings/serenity-harbor-7/","group":"Serenity Harbor","timezone":"America/Chicago"},{"feed":"aaoklahoma.org","slug":"serenity-harbor-7","name":"Serenity Harbor","day":0,"time":"12:00","types":["LIT","O","X"],"state":"OK","postal_code":"74135","city":"Tulsa","address":"5525 E 51st St #403","latitude":36.0904096,"longitude":-95.9146558,"location":"Dry Dock","region":"Tulsa","url":"https://aaoklahoma.org/meetings/serenity-harbor-7/","group":"Serenity Harbor","timezone":"America/Chicago"},{"feed":"aaoklahoma.org","slug":"tradition-two-group","name":"Tradition Two Group","day":0,"time":"12:00","types":["O"],"state":"OK","postal_code":"73401","city":"Ardmore","address":"62 Broadlawn Village","latitude":34.1938476,"longitude":-97.133569,"location":"corner of Harris &amp; Maxwell","region":"Ardmore","notes":"#62 Broadlawn Plaza crn of Harris &amp; Maxwell","url":"https://aaoklahoma.org/meetings/tradition-two-group/","group":"Tradition Two Group","timezone":"America/Chicago"},{"feed":"okcintergroup.org","slug":"tradition-two-group","name":"Tradition Two Group","day":0,"time":"12:00","types":["O"],"state":"OK","postal_code":"73401","city":"Ardmore","address":"62 Broadlawn Village","latitude":34.1937929,"longitude":-97.1336195,"location":"corner of Harris &amp; Maxwell","region":"Ardmore","notes":"#62 Broadlawn Plaza crn of Harris &amp; Maxwell","url":"https://okcintergroup.org/meetings/tradition-two-group/","group":"Tradition Two Group","timezone":"America/Chicago"},{"feed":"aaoklahoma.org","slug":"triangle-group-18","name":"Triangle Group","day":0,"time":"12:00","end_time":"13:00","types":["C","DR"],"state":"OK","postal_code":"73069","city":"Norman","address":"1005 N Flood Ave","latitude":35.2271077,"longitude":-97.452503,"location":"Elite Plaza, Suite 114 (Bus Route #121)","region":"Norman","url":"https://aaoklahoma.org/meetings/triangle-group-18/","timezone":"America/Chicago"},{"feed":"okcintergroup.org","slug":"triangle-group-18","name":"Triangle Group","day":0,"time":"12:00","end_time":"13:00","types":["C","DR"],"state":"OK","postal_code":"73069","city":"Norman","address":"1005 N Flood Ave","latitude":35.2273011,"longitude":-97.452824,"location":"Elite Plaza, Suite 114 (Bus Route #121)","region":"Norman","url":"https://okcintergroup.org/meetings/triangle-group-18/","timezone":"America/Chicago"},{"feed":"aaoklahoma.org","slug":"tyler-house-group","name":"Tyler House Group","day":0,"time":"12:00","types":["C","SM"],"state":"OK","postal_code":"73703","city":"Enid","address":"416 S Tyler St","latitude":36.3928279,"longitude":-97.8930637,"location":"Meeting Location","region":"Enid","url":"https://aaoklahoma.org/meetings/tyler-house-group/","group":"Tyler House Group","timezone":"America/Chicago"},{"feed":"okcintergroup.org","slug":"tyler-house-group","name":"Tyler House Group","day":0,"time":"12:00","types":["C","SM"],"state":"OK","postal_code":"73703","city":"Enid","address":"416 S Tyler St","latitude":36.392783,"longitude":-97.892984,"region":"Enid","url":"https://okcintergroup.org/meetings/tyler-house-group/","group":"Tyler House Group","timezone":"America/Chicago"},{"feed":"aaoklahoma.org","slug":"santa-fe-group","name":"Santa Fe Group","day":0,"time":"12:10","types":["D","O"],"state":"OK","postal_code":"73114","city":"Oklahoma City","address":"36 W Memorial Rd","latitude":35.6084833,"longitude":-97.515756,"location":"Memorial Bus. Park","region":"Oklahoma City","url":"https://aaoklahoma.org/meetings/santa-fe-group/","group":"Sante Fe Group","timezone":"America/Chicago"},{"feed":"okcintergroup.org","slug":"santa-fe-group","name":"Santa Fe Group","day":0,"time":"12:10","types":["D","O"],"state":"OK","postal_code":"73114","city":"Oklahoma City","address":"36 W Memorial Rd","latitude":35.6087939,"longitude":-97.5155444,"location":"Memorial Bus. Park","region":"Oklahoma City","url":"https://okcintergroup.org/meetings/santa-fe-group/","group":"Sante Fe Group","timezone":"America/Chicago"},{"feed":"aaoklahoma.org","slug":"89er-group","name":"89er Group","day":0,"time":"12:30","types":["11","CF","O"],"state":"OK","postal_code":"73044","city":"Guthrie","address":"3522 S Division St","latitude":35.841986,"longitude":-97.4250467,"location":"Meeting Location","region":"Guthrie","url":"https://aaoklahoma.org/meetings/89er-group/","group":"89er Group","timezone":"America/Chicago"},{"feed":"okcintergroup.org","slug":"89er-group","name":"89er Group","day":0,"time":"12:30","types":["11","CF","O"],"state":"OK","postal_code":"73044","city":"Guthrie","address":"3522 S Division St","latitude":35.8419699,"longitude":-97.4250355,"region":"Guthrie","url":"https://okcintergroup.org/meetings/89er-group/","group":"89er Group","timezone":"America/Chicago"},{"feed":"aaoklahoma.org","slug":"el-reno-group","name":"El Reno Group","day":0,"time":"13:00","types":["C"],"state":"OK","postal_code":"73036","city":"El Reno","address":"506 S Barker Ave","latitude":35.5292673,"longitude":-97.9518371,"location":"Episcopal Parrish House","region":"El Reno","notes":"child-friendly","url":"https://aaoklahoma.org/meetings/el-reno-group/","group":"El Reno Group","timezone":"America/Chicago"},{"feed":"okcintergroup.org","slug":"el-reno-group","name":"El Reno Group","day":0,"time":"13:00","types":["C"],"state":"OK","postal_code":"73036","city":"El Reno","address":"506 S Barker Ave","latitude":35.5292829,"longitude":-97.9518586,"location":"Episcopal Parrish House","region":"El Reno","notes":"child-friendly","url":"https://okcintergroup.org/meetings/el-reno-group/","group":"El Reno Group","timezone":"America/Chicago"},{"feed":"aaoklahoma.org","slug":"love-and-tolerance-group-2-2-2","name":"Love And Tolerance Group","day":0,"time":"13:00","end_time":"14:00","types":["O","SM","ST"],"state":"OK","postal_code":"73122","city":"Warr Acres","address":"4848 N MacArthur Blvd","latitude":35.5210189,"longitude":-97.617012,"location":"Warr Acres Place","region":"Oklahoma City","notes":"studies 3rd &amp; 11 Steps","url":"https://aaoklahoma.org/meetings/love-and-tolerance-group-2-2-2/","group":"Love and Tolerance Group","timezone":"America/Chicago"},{"feed":"okcintergroup.org","slug":"love-and-tolerance-group-2-2-2","name":"Love And Tolerance Group","day":0,"time":"13:00","end_time":"14:00","types":["O","SM","ST"],"state":"OK","postal_code":"73122","city":"Warr Acres","address":"4848 N MacArthur Blvd","latitude":35.5210189,"longitude":-97.617012,"location":"Warr Acres Place","region":"Oklahoma City","notes":"studies 3rd &amp; 11 Steps","url":"https://okcintergroup.org/meetings/love-and-tolerance-group-2-2-2/","group":"Love and Tolerance Group","timezone":"America/Chicago"},{"feed":"aaneok.org","slug":"sapulpa-serenity-13","name":"Sapulpa Serenity","day":0,"time":"13:00","types":["C","DR"],"state":"OK","postal_code":"74066","city":"Sapulpa","address":"201 S Oak St","latitude":35.9964319,"longitude":-96.1084817,"location":"Oak and Thompson","region":"Sapulpa","notes":"Speaker 2nd Thursday of the month\nBirthday meeting last Thursday of month","url":"https://aaneok.org/meetings/sapulpa-serenity-13/","group":"Sapulpa Serenity","timezone":"America/Chicago"},{"feed":"aaoklahoma.org","slug":"sapulpa-serenity-13","name":"Sapulpa Serenity","day":0,"time":"13:00","types":["C","DR"],"state":"OK","postal_code":"74066","city":"Sapulpa","address":"201 S Oak St","latitude":35.9963788,"longitude":-96.1084513,"location":"Oak and Thompson","region":"Sapulpa","notes":"Speaker 2nd Thursday of the month\nBirthday meeting last Thursday of month","url":"https://aaoklahoma.org/meetings/sapulpa-serenity-13/","group":"Sapulpa Serenity","timezone":"America/Chicago"},{"feed":"aaoklahoma.org","slug":"yukon-yana-group-you-are-never-alone","name":"Yukon YANA Group (You Are Never Alone)","day":0,"time":"13:00","types":["O"],"state":"OK","postal_code":"73099","city":"Yukon","address":"400 Elm Ave","latitude":35.5065128,"longitude":-97.7497214,"location":"First United Methodist Church","region":"Yukon","url":"https://aaoklahoma.org/meetings/yukon-yana-group-you-are-never-alone/","group":"Yukon YANA Group","timezone":"America/Chicago"},{"feed":"okcintergroup.org","slug":"yukon-yana-group-you-are-never-alone","name":"Yukon YANA Group (You Are Never Alone)","day":0,"time":"13:00","types":["O"],"state":"OK","postal_code":"73099","city":"Yukon","address":"400 Elm Ave","latitude":35.5065545,"longitude":-97.749606,"location":"First United Methodist Church","region":"Yukon","url":"https://okcintergroup.org/meetings/yukon-yana-group-you-are-never-alone/","group":"Yukon YANA Group","timezone":"America/Chicago"},{"feed":"aaoklahoma.org","slug":"old-homestead-group","name":"Old Homestead Group","day":0,"time":"13:30","end_time":"14:30","types":["CF","C","SM","X","W"],"state":"OK","postal_code":"73110","city":"Midwest City","address":"500 W Lockheed Dr","latitude":35.4404168,"longitude":-97.4016077,"location":"House on NW corner - Smoking unless designated NS (Bus Route #015)","region":"Midwest City","notes":"child-friendly","url":"https://aaoklahoma.org/meetings/old-homestead-group/","group":"Old Homestead Group","timezone":"America/Chicago"},{"feed":"okcintergroup.org","slug":"old-homestead-group","name":"Old Homestead Group","day":0,"time":"13:30","end_time":"14:30","types":["CF","C","SM","X","W"],"state":"OK","postal_code":"73110","city":"Midwest City","address":"500 W Lockheed Dr","latitude":35.4403943,"longitude":-97.4015329,"location":"House on NW corner - Smoking unless designated NS (Bus Route #015)","region":"Midwest City","notes":"child-friendly","url":"https://okcintergroup.org/meetings/old-homestead-group/","group":"Old Homestead Group","timezone":"America/Chicago"},{"feed":"aaoklahoma.org","slug":"ardmore-group-10","name":"Ardmore Group","day":0,"time":"14:00","end_time":"15:00","types":["D","O","W"],"state":"OK","postal_code":"73401","city":"Ardmore","address":"935 Grand Ave","latitude":34.1796598,"longitude":-97.1392078,"location":"corner of I St NW and Grand","region":"Ardmore","url":"https://aaoklahoma.org/meetings/ardmore-group-10/","group":"Ardmore Group","timezone":"America/Chicago"},{"feed":"okcintergroup.org","slug":"ardmore-group-10","name":"Ardmore Group","day":0,"time":"14:00","end_time":"15:00","types":["D","O","W"],"state":"OK","postal_code":"73401","city":"Ardmore","address":"935 Grand Ave","latitude":34.1796598,"longitude":-97.1392078,"location":"corner of I St NW and Grand","region":"Ardmore","url":"https://okcintergroup.org/meetings/ardmore-group-10/","group":"Ardmore Group","timezone":"America/Chicago"},{"feed":"aaneok.org","slug":"broken-brain","name":"Skiatook Broken Brain","day":0,"time":"14:00","end_time":"15:00","types":["D","BE","O"],"state":"OK","postal_code":"74070","city":"Skiatook","address":"114 N Broadway St","latitude":36.369151,"longitude":-95.9985649,"location":"First Presbyterian--Mike Bradley Youth Center","region":"Skiatook","url":"https://aaneok.org/meetings/broken-brain/","timezone":"America/Chicago"},{"feed":"aaoklahoma.org","slug":"broken-brain","name":"Skiatook Broken Brain","day":0,"time":"14:00","end_time":"15:00","types":["D","BE","O"],"state":"OK","postal_code":"74070","city":"Skiatook","address":"114 N Broadway St","latitude":36.369135,"longitude":-95.9985502,"location":"First Presbyterian--Mike Bradley Youth Center","region":"Skiatook","url":"https://aaoklahoma.org/meetings/broken-brain/","timezone":"America/Chicago"},{"feed":"aaoklahoma.org","slug":"cache-aa-group-14","name":"Cache AA Group","day":0,"time":"14:00","end_time":"15:00","types":["B","D","O"],"state":"OK","postal_code":"73527","city":"Cache","address":"419 C Ave","latitude":34.6289236,"longitude":-98.6287097,"location":"Meeting Location","region":"Cache","url":"https://aaoklahoma.org/meetings/cache-aa-group-14/","group":"Cache Alcoholics Anonymous","timezone":"America/Chicago"},{"feed":"okcintergroup.org","slug":"cache-aa-group-14","name":"Cache AA Group","day":0,"time":"14:00","end_time":"15:00","types":["B","D","O"],"state":"OK","postal_code":"73527","city":"Cache","address":"419 C Ave","latitude":34.6289236,"longitude":-98.6287097,"region":"Cache","url":"https://okcintergroup.org/meetings/cache-aa-group-14/","group":"Cache Alcoholics Anonymous","timezone":"America/Chicago"},{"feed":"aaoklahoma.org","slug":"courage-to-change-group","name":"Courage to Change Group","day":0,"time":"14:00","end_time":"15:00","types":["B","D","O"],"state":"OK","postal_code":"73460","city":"Tishomingo","address":"202 N Neshoba St","latitude":34.2362811,"longitude":-96.6770344,"location":"First UMC","region":"Tishomingo","url":"https://aaoklahoma.org/meetings/courage-to-change-group/","group":"Courage to Change","timezone":"America/Chicago"},{"feed":"okcintergroup.org","slug":"courage-to-change-group","name":"Courage to Change Group","day":0,"time":"14:00","end_time":"15:00","types":["B","D","O"],"state":"OK","postal_code":"73460","city":"Tishomingo","address":"202 N Neshoba St","latitude":34.2362811,"longitude":-96.6770344,"location":"First UMC","region":"Tishomingo","url":"https://okcintergroup.org/meetings/courage-to-change-group/","group":"Courage to Change","timezone":"America/Chicago"},{"feed":"aaoklahoma.org","slug":"duncan-group-5","name":"Duncan Group","day":0,"time":"14:00","end_time":"15:00","types":["C","DR"],"state":"OK","postal_code":"73533","city":"Duncan","address":"806 Chestnut Ave","latitude":34.5070078,"longitude":-97.9567938,"location":"Meeting Location","region":"Duncan","notes":"and 24 Hours A Day","url":"https://aaoklahoma.org/meetings/duncan-group-5/","group":"Duncan Group","timezone":"America/Chicago"},{"feed":"okcintergroup.org","slug":"duncan-group-5","name":"Duncan Group","day":0,"time":"14:00","end_time":"15:00","types":["C","DR"],"state":"OK","postal_code":"73533","city":"Duncan","address":"806 Chestnut Ave","latitude":34.5069836,"longitude":-97.9567749,"region":"Duncan","notes":"and 24 Hours A Day","url":"https://okcintergroup.org/meetings/duncan-group-5/","group":"Duncan Group","timezone":"America/Chicago"},{"feed":"aaoklahoma.org","slug":"rockwell-group-2","name":"Rockwell Group","day":0,"time":"14:00","types":["C","SM"],"state":"OK","postal_code":"73127","city":"Oklahoma City","address":"1425 1/2 N Rockwell Ave","latitude":35.4841087,"longitude":-97.6371258,"location":"behind the masonic lodge (Bus Route #023/023N)","region":"Oklahoma City","notes":"child-friendly","url":"https://aaoklahoma.org/meetings/rockwell-group-2/","group":"Rockwell Club","timezone":"America/Chicago"},{"feed":"okcintergroup.org","slug":"rockwell-group-2","name":"Rockwell Group","day":0,"time":"14:00","types":["C","SM"],"state":"OK","postal_code":"73127","city":"Oklahoma City","address":"1425 1/2 N Rockwell Ave","latitude":35.4841087,"longitude":-97.6371258,"location":"behind the masonic lodge (Bus Route #023/023N)","region":"Oklahoma City","notes":"child-friendly","url":"https://okcintergroup.org/meetings/rockwell-group-2/","group":"Rockwell Club","timezone":"America/Chicago"},{"feed":"aaoklahoma.org","slug":"sleepy-hollow","name":"Sleepy Hollow","day":0,"time":"14:00","types":["C","ST","X"],"state":"OK","postal_code":"74074","city":"Stillwater","address":"2106 W 12th Ave","latitude":36.108946,"longitude":-97.084431,"location":"Meeting Location","region":"Stillwater","url":"https://aaoklahoma.org/meetings/sleepy-hollow/","group":"Sleepy Hollow Group","timezone":"America/Chicago"},{"feed":"okcintergroup.org","slug":"sleepy-hollow","name":"Sleepy Hollow","day":0,"time":"14:00","types":["C","ST","X"],"state":"OK","postal_code":"74074","city":"Stillwater","address":"2106 W 12th Ave","latitude":36.108946,"longitude":-97.084431,"region":"Stillwater","url":"https://okcintergroup.org/meetings/sleepy-hollow/","group":"Sleepy Hollow Group","timezone":"America/Chicago"},{"feed":"aaneok.org","slug":"womens-big-book-study","name":"McAlester Nooners","day":0,"time":"14:00","end_time":"15:00","types":["B","C","W"],"state":"OK","postal_code":"74501","city":"McAlester","address":"100 N A St","latitude":34.9326891,"longitude":-95.7714625,"location":"Cherokee Club","region":"McAlester","url":"https://aaneok.org/meetings/womens-big-book-study/","group":"McAlester Nooners","timezone":"America/Chicago"},{"feed":"aaoklahoma.org","slug":"womens-big-book-study","name":"McAlester Nooners","day":0,"time":"14:00","end_time":"15:00","types":["B","C","W"],"state":"OK","postal_code":"74501","city":"McAlester","address":"100 N A St","latitude":34.9327443,"longitude":-95.771778,"location":"Cherokee Club","region":"McAlester","url":"https://aaoklahoma.org/meetings/womens-big-book-study/","group":"McAlester Nooners","timezone":"America/Chicago"},{"feed":"aaoklahoma.org","slug":"norman-original-group-3","name":"Norman Original Group","day":0,"time":"15:00","end_time":"16:00","types":["C","W"],"state":"OK","postal_code":"73069","city":"Norman","address":"3565 Macdonnell Dr","latitude":35.261607,"longitude":-97.4643439,"location":"White metal building, front faces Tecumseh","region":"Norman","notes":"child-friendly","url":"https://aaoklahoma.org/meetings/norman-original-group-3/","group":"Norman Original Group","timezone":"America/Chicago"},{"feed":"okcintergroup.org","slug":"norman-original-group-3","name":"Norman Original Group","day":0,"time":"15:00","end_time":"16:00","types":["C","W"],"state":"OK","postal_code":"73069","city":"Norman","address":"3565 Macdonnell Dr","latitude":35.261607,"longitude":-97.4643439,"location":"White metal building, front faces Tecumseh","region":"Norman","notes":"child-friendly","url":"https://okcintergroup.org/meetings/norman-original-group-3/","group":"Norman Original Group","timezone":"America/Chicago"},{"feed":"aaoklahoma.org","slug":"old-homestead-group-2","name":"Old Homestead Group","day":0,"time":"15:00","types":["O","SM","X"],"state":"OK","postal_code":"73110","city":"Midwest City","address":"500 W Lockheed Dr","latitude":35.4404168,"longitude":-97.4016077,"location":"House on NW corner - Smoking unless designated NS (Bus Route #015)","region":"Midwest City","notes":"child-friendly","url":"https://aaoklahoma.org/meetings/old-homestead-group-2/","group":"Old Homestead Group","timezone":"America/Chicago"},{"feed":"okcintergroup.org","slug":"old-homestead-group-2","name":"Old Homestead Group","day":0,"time":"15:00","types":["O","SM","X"],"state":"OK","postal_code":"73110","city":"Midwest City","address":"500 W Lockheed Dr","latitude":35.4403943,"longitude":-97.4015329,"location":"House on NW corner - Smoking unless designated NS (Bus Route #015)","region":"Midwest City","notes":"child-friendly","url":"https://okcintergroup.org/meetings/old-homestead-group-2/","group":"Old Homestead Group","timezone":"America/Chicago"},{"feed":"aaneok.org","slug":"eosc-united-ministry-bldg-sunday-400-pm","name":"West End Group","day":0,"time":"16:00","end_time":"17:00","types":["12x12"],"state":"OK","postal_code":"74578","city":"Wilburton","address":"612 SW 12th St","latitude":34.9137589,"longitude":-95.3249758,"location":"EOSC United Ministry Bldg","region":"Wilburton","notes":"Last Sunday is Birthday Meeting.","url":"https://aaneok.org/meetings/eosc-united-ministry-bldg-sunday-400-pm/","timezone":"America/Chicago"},{"feed":"aaoklahoma.org","slug":"eosc-united-ministry-bldg-sunday-400-pm","name":"West End Group","day":0,"time":"16:00","end_time":"17:00","types":["12x12"],"state":"OK","postal_code":"74578","city":"Wilburton","address":"612 SW 12th St","latitude":34.9137377,"longitude":-95.3249735,"location":"EOSC United Ministry Bldg","region":"Wilburton","notes":"Last Sunday is Birthday Meeting.","url":"https://aaoklahoma.org/meetings/eosc-united-ministry-bldg-sunday-400-pm/","timezone":"America/Chicago"},{"feed":"aaoklahoma.org","slug":"grupo-oasis-5","name":"Grupo Oasis","day":0,"time":"16:00","end_time":"17:30","types":["D","M","O","S"],"state":"OK","postal_code":"73112","city":"Oklahoma City","address":"3301 N Pennsylvania Ave","latitude":35.5032623,"longitude":-97.5480321,"location":"Meeting Location","region":"Oklahoma City","url":"https://aaoklahoma.org/meetings/grupo-oasis-5/","group":"Grupo Oasis","timezone":"America/Chicago"},{"feed":"okcintergroup.org","slug":"grupo-oasis-5","name":"Grupo Oasis","day":0,"time":"16:00","end_time":"17:30","types":["D","M","O","S"],"state":"OK","postal_code":"73112","city":"Oklahoma City","address":"3301 N Pennsylvania Ave","latitude":35.5032623,"longitude":-97.5480321,"region":"Oklahoma City","url":"https://okcintergroup.org/meetings/grupo-oasis-5/","group":"Grupo Oasis","timezone":"America/Chicago"},{"feed":"aaoklahoma.org","slug":"love-and-tolerance-group-18-2","name":"Love and Tolerance Group","day":0,"time":"16:00","end_time":"17:00","types":["O","SM","W"],"state":"OK","postal_code":"73122","city":"Warr Acres","address":"4848 N MacArthur Blvd","latitude":35.5210189,"longitude":-97.617012,"location":"Warr Acres Place","region":"Oklahoma City","notes":"12 Steps &amp; 12 Traditions","url":"https://aaoklahoma.org/meetings/love-and-tolerance-group-18-2/","group":"Love and Tolerance Group","timezone":"America/Chicago"},{"feed":"okcintergroup.org","slug":"love-and-tolerance-group-18-2","name":"Love and Tolerance Group","day":0,"time":"16:00","end_time":"17:00","types":["O","SM","W"],"state":"OK","postal_code":"73122","city":"Warr Acres","address":"4848 N MacArthur Blvd","latitude":35.5210189,"longitude":-97.617012,"location":"Warr Acres Place","region":"Oklahoma City","notes":"12 Steps &amp; 12 Traditions","url":"https://okcintergroup.org/meetings/love-and-tolerance-group-18-2/","group":"Love and Tolerance Group","timezone":"America/Chicago"},{"feed":"aaoklahoma.org","slug":"trans-alcoholics-allies-group","name":"Trans Alcoholics &amp; Allies Group","day":0,"time":"16:00","end_time":"17:00","types":["D","LGBTQ","LIT","O","T"],"state":"OK","postal_code":"73112","city":"Oklahoma City","address":"2800 NW 36th St","latitude":35.5072031,"longitude":-97.5646759,"location":"Suite 230 - Enter EAST door (Bus Route #007) - Live & Let Live clubhouse","region":"Oklahoma City","url":"https://aaoklahoma.org/meetings/trans-alcoholics-allies-group/","group":"Live and Let Live","timezone":"America/Chicago"},{"feed":"okcintergroup.org","slug":"trans-alcoholics-allies-group","name":"Trans Alcoholics &amp; Allies Group","day":0,"time":"16:00","end_time":"17:00","types":["D","LGBTQ","LIT","O","T"],"state":"OK","postal_code":"73112","city":"Oklahoma City","address":"2800 NW 36th St","latitude":35.5072031,"longitude":-97.5646759,"location":"Suite 230 - Enter EAST door (Bus Route #007) - Live & Let Live clubhouse","region":"Oklahoma City","url":"https://okcintergroup.org/meetings/trans-alcoholics-allies-group/","group":"Live and Let Live","timezone":"America/Chicago"},{"feed":"aaoklahoma.org","slug":"triangle-group-2","name":"Triangle Group","day":0,"time":"16:00","types":["LS","BE","O"],"state":"OK","postal_code":"73069","city":"Norman","address":"1005 N Flood Ave","latitude":35.2271077,"longitude":-97.452503,"location":"Elite Plaza, Suite 114 (Bus Route #121)","region":"Norman","url":"https://aaoklahoma.org/meetings/triangle-group-2/","group":"Triangle Group","timezone":"America/Chicago"},{"feed":"okcintergroup.org","slug":"triangle-group-2","name":"Triangle Group","day":0,"time":"16:00","types":["LS","BE","O"],"state":"OK","postal_code":"73069","city":"Norman","address":"1005 N Flood Ave","latitude":35.2273011,"longitude":-97.452824,"location":"Elite Plaza, Suite 114 (Bus Route #121)","region":"Norman","url":"https://okcintergroup.org/meetings/triangle-group-2/","group":"Triangle Group","timezone":"America/Chicago"},{"feed":"aaoklahoma.org","slug":"cornerstone-2","name":"Cornerstone Group","day":0,"time":"16:30","end_time":"17:30","types":["B","C"],"state":"OK","postal_code":"73112","city":"Oklahoma City","address":"4407 NW 50th St","latitude":35.5233946,"longitude":-97.5983418,"location":"North Meridian Group - Springdale shopping center (Bus Route #010)","region":"Oklahoma City","url":"https://aaoklahoma.org/meetings/cornerstone-2/","group":"Cornerstone","timezone":"America/Chicago"},{"feed":"okcintergroup.org","slug":"cornerstone-2","name":"Cornerstone Group","day":0,"time":"16:30","end_time":"17:30","types":["B","C"],"state":"OK","postal_code":"73112","city":"Oklahoma City","address":"4407 NW 50th St","latitude":35.5233946,"longitude":-97.5983418,"location":"North Meridian Group - Springdale shopping center (Bus Route #010)","region":"Oklahoma City","url":"https://okcintergroup.org/meetings/cornerstone-2/","group":"Cornerstone","timezone":"America/Chicago"},{"feed":"aaoklahoma.org","slug":"westside-sobriety-sisters-group","name":"Mustang Group Women's Meeting","day":0,"time":"16:30","end_time":"17:30","types":["C","W"],"state":"OK","postal_code":"73064","city":"Mustang","address":"470 W State Hwy 152","latitude":35.391316,"longitude":-97.733307,"location":"Meeting Location","region":"Mustang","notes":"Old Shopping Center, contact: Sydney 425-891-0608","url":"https://aaoklahoma.org/meetings/westside-sobriety-sisters-group/","group":"Mustang Group","timezone":"America/Chicago"},{"feed":"okcintergroup.org","slug":"westside-sobriety-sisters-group","name":"Mustang Group Women's Meeting","day":0,"time":"16:30","end_time":"17:30","types":["C","W"],"state":"OK","postal_code":"73064","city":"Mustang","address":"470 W State Hwy 152","latitude":35.391316,"longitude":-97.733307,"region":"Mustang","notes":"Old Shopping Center, contact: Sydney 425-891-0608","url":"https://okcintergroup.org/meetings/westside-sobriety-sisters-group/","group":"Mustang Group","timezone":"America/Chicago"},{"feed":"aaneok.org","slug":"grupo-un-nuevo-caminar-7","name":"Grupo Un Nuevo Caminar","day":0,"time":"17:00","end_time":"19:00","types":["LIT","O","S","X"],"state":"OK","postal_code":"74129","city":"Tulsa","address":"9938 E 21st St","latitude":36.132889,"longitude":-95.8652642,"region":"Tulsa","notes":"Lunes a Viernes 7pm-8:30pm\nSabado y Doming 5pm-7pm","url":"https://aaneok.org/meetings/grupo-un-nuevo-caminar-7/","group":"Grupo Un Nuevo Caminar","timezone":"America/Chicago"},{"feed":"aaoklahoma.org","slug":"grupo-un-nuevo-caminar-7","name":"Grupo Un Nuevo Caminar","day":0,"time":"17:00","end_time":"19:00","types":["LIT","O","S","X"],"state":"OK","postal_code":"74129","city":"Tulsa","address":"grupo alcoholicos anonimos Un Nuevo Caminar, 9938 E 21st St","latitude":36.1324669,"longitude":-95.8651932,"location":"Meeting Location","region":"Tulsa","notes":"Lunes a Viernes 7pm-8:30pm\nSabado y Doming 5pm-7pm","url":"https://aaoklahoma.org/meetings/grupo-un-nuevo-caminar-7/","group":"Grupo Un Nuevo Caminar","timezone":"America/Chicago"},{"feed":"aaoklahoma.org","slug":"little-axe-group","name":"Little Axe Group","day":0,"time":"17:00","end_time":"18:00","types":["LIT","O"],"state":"OK","postal_code":"73026","city":"Norman","address":"15700 OK-9","latitude":35.230944,"longitude":-97.2075553,"location":"Thunderbird Express","region":"Little Axe","notes":"Thunderbird Express directly in front of the Casino contact Peggy 405-831-8538 or Frank 405-415-5610\nMeeting is Came to Believe","url":"https://aaoklahoma.org/meetings/little-axe-group/","group":"Little Axe Group","timezone":"America/Chicago"},{"feed":"okcintergroup.org","slug":"little-axe-group","name":"Little Axe Group","day":0,"time":"17:00","end_time":"18:00","types":["LIT","O"],"state":"OK","postal_code":"73026","city":"Norman","address":"15700 OK-9","latitude":35.2309193,"longitude":-97.2075495,"location":"Thunderbird Express","region":"Little Axe","notes":"Thunderbird Express directly in front of the Casino contact Peggy 405-831-8538 or Frank 405-415-5610\nMeeting is Came to Believe","url":"https://okcintergroup.org/meetings/little-axe-group/","group":"Little Axe Group","timezone":"America/Chicago"},{"feed":"aaneok.org","slug":"muskogee-happy-hour-10","name":"Muskogee Happy Hour","day":0,"time":"17:00","types":["D","O"],"state":"OK","postal_code":"74403","city":"Muskogee","address":"313 N K St","latitude":35.7465111,"longitude":-95.3553913,"location":"Behind Lakeland Shopping Center","region":"Muskogee","url":"https://aaneok.org/meetings/muskogee-happy-hour-10/","group":"Muskogee Happy Hour","timezone":"America/Chicago"},{"feed":"aaoklahoma.org","slug":"muskogee-happy-hour-10","name":"Muskogee Happy Hour","day":0,"time":"17:00","types":["D","O"],"state":"OK","postal_code":"74403","city":"Muskogee","address":"313 N K St","latitude":35.7465111,"longitude":-95.3553913,"location":"Behind Lakeland Shopping Center","region":"Muskogee","url":"https://aaoklahoma.org/meetings/muskogee-happy-hour-10/","group":"Muskogee Happy Hour","timezone":"America/Chicago"},{"feed":"aaneok.org","slug":"happy-hour-7","name":"Happy Hour","day":0,"time":"17:30","types":["B","C","X"],"state":"OK","postal_code":"74135","city":"Tulsa","address":"5525 E 51st St #403","latitude":36.0904096,"longitude":-95.9146558,"location":"Dry Dock","region":"Tulsa","notes":"Big Book Stories Discussion","url":"https://aaneok.org/meetings/happy-hour-7/","group":"Happy Hour","timezone":"America/Chicago"},{"feed":"aaoklahoma.org","slug":"happy-hour-7","name":"Happy Hour","day":0,"time":"17:30","types":["B","C","X"],"state":"OK","postal_code":"74135","city":"Tulsa","address":"5525 E 51st St #403","latitude":36.0904096,"longitude":-95.9146558,"location":"Dry Dock","region":"Tulsa","notes":"Big Book Stories Discussion","url":"https://aaoklahoma.org/meetings/happy-hour-7/","group":"Happy Hour","timezone":"America/Chicago"},{"feed":"aaoklahoma.org","slug":"lawton-original-group-3","name":"Lawton Original Group","day":0,"time":"17:30","types":["O"],"state":"OK","postal_code":"73501","city":"Lawton","address":"1210 SW F Ave","latitude":34.6013735,"longitude":-98.4070687,"location":"1210 SW F Ave, Lawton, OK 73501, USA","region":"Lawton","url":"https://aaoklahoma.org/meetings/lawton-original-group-3/","group":"Lawton Original Group","timezone":"America/Chicago"},{"feed":"okcintergroup.org","slug":"lawton-original-group-3","name":"Lawton Original Group","day":0,"time":"17:30","types":["O"],"state":"OK","postal_code":"73501","city":"Lawton","address":"1210 SW F Ave","latitude":34.6013735,"longitude":-98.4070687,"location":"1210 SW F Ave, Lawton, OK 73501, USA","region":"Lawton","url":"https://okcintergroup.org/meetings/lawton-original-group-3/","group":"Lawton Original Group","timezone":"America/Chicago"},{"feed":"aaoklahoma.org","slug":"may-club-5","name":"May Club","day":0,"time":"17:30","types":["O"],"state":"OK","postal_code":"73120","city":"Oklahoma City","address":"2913 W Britton Rd","latitude":35.5665424,"longitude":-97.5682756,"location":"May Club - back of building south of Uptown Grocery","region":"Oklahoma City","url":"https://aaoklahoma.org/meetings/may-club-5/","group":"May Club","timezone":"America/Chicago"},{"feed":"okcintergroup.org","slug":"may-club-5","name":"May Club","day":0,"time":"17:30","types":["O"],"state":"OK","postal_code":"73120","city":"The Village","address":"2913 W Britton Rd","latitude":35.566608,"longitude":-97.5687965,"location":"May Club - back of building south of Uptown Grocery","region":"Oklahoma City","url":"https://okcintergroup.org/meetings/may-club-5/","group":"May Club","timezone":"America/Chicago"},{"feed":"aaoklahoma.org","slug":"old-homestead-group-3","name":"Old Homestead Group","day":0,"time":"17:30","end_time":"18:30","types":["O","SM","X"],"state":"OK","postal_code":"73110","city":"Midwest City","address":"500 W Lockheed Dr","latitude":35.4404168,"longitude":-97.4016077,"location":"House on NW corner - Smoking unless designated NS (Bus Route #015)","region":"Midwest City","notes":"child-friendly","url":"https://aaoklahoma.org/meetings/old-homestead-group-3/","group":"Old Homestead Group","timezone":"America/Chicago"},{"feed":"okcintergroup.org","slug":"old-homestead-group-3","name":"Old Homestead Group","day":0,"time":"17:30","end_time":"18:30","types":["O","SM","X"],"state":"OK","postal_code":"73110","city":"Midwest City","address":"500 W Lockheed Dr","latitude":35.4403943,"longitude":-97.4015329,"location":"House on NW corner - Smoking unless designated NS (Bus Route #015)","region":"Midwest City","notes":"child-friendly","url":"https://okcintergroup.org/meetings/old-homestead-group-3/","group":"Old Homestead Group","timezone":"America/Chicago"},{"feed":"aaneok.org","slug":"original-13","name":"Original Group","day":0,"time":"17:30","types":["C","D"],"state":"OK","postal_code":"74112","city":"Tulsa","address":"6815 E 15th St","latitude":36.1409789,"longitude":-95.9013071,"location":"Office Complex","region":"Tulsa","url":"https://aaneok.org/meetings/original-13/","group":"Original Group","timezone":"America/Chicago"},{"feed":"aaoklahoma.org","slug":"original-13","name":"Original Group","day":0,"time":"17:30","types":["C","D"],"state":"OK","postal_code":"74112","city":"Tulsa","address":"6815 E 15th St","latitude":36.1409789,"longitude":-95.9013071,"location":"Office Complex","region":"Tulsa","url":"https://aaoklahoma.org/meetings/original-13/","group":"Original Group","timezone":"America/Chicago"},{"feed":"aaoklahoma.org","slug":"roundtable-group-9","name":"Roundtable Group","day":0,"time":"17:30","end_time":"18:30","types":["ABSI","O"],"state":"OK","postal_code":"73107","city":"Oklahoma City","address":"3006 N Portland Ave","latitude":35.4985786,"longitude":-97.5829425,"location":"Will Rogers Shopping Center South Building (Bus Route #010)","region":"Oklahoma City","url":"https://aaoklahoma.org/meetings/roundtable-group-9/","group":"Roundtable Group","timezone":"America/Chicago"},{"feed":"okcintergroup.org","slug":"roundtable-group-9","name":"Roundtable Group","day":0,"time":"17:30","end_time":"18:30","types":["ABSI","O"],"state":"OK","postal_code":"73107","city":"Oklahoma City","address":"3006 N Portland Ave","latitude":35.4985786,"longitude":-97.5829425,"location":"Will Rogers Shopping Center South Building (Bus Route #010)","region":"Oklahoma City","url":"https://okcintergroup.org/meetings/roundtable-group-9/","group":"Roundtable Group","timezone":"America/Chicago"},{"feed":"aaneok.org","slug":"sos-sharing-our-sobriety-7","name":"SOS (Sharing Our Sobriety)","day":0,"time":"17:30","types":["ABSI","O"],"state":"OK","postal_code":"74137","city":"Tulsa","address":"8749 S Lewis Ave","latitude":36.0371618,"longitude":-95.9542884,"location":"Unanimity Club","region":"Tulsa","url":"https://aaneok.org/meetings/sos-sharing-our-sobriety-7/","group":"SOS (Sharing Our Sobriety)","timezone":"America/Chicago"},{"feed":"aaoklahoma.org","slug":"sos-sharing-our-sobriety-7","name":"SOS (Sharing Our Sobriety)","day":0,"time":"17:30","types":["ABSI","O"],"state":"OK","postal_code":"74137","city":"Tulsa","address":"8749 S Lewis Ave","latitude":36.0370838,"longitude":-95.9541655,"location":"Unanimity Club","region":"Tulsa","url":"https://aaoklahoma.org/meetings/sos-sharing-our-sobriety-7/","group":"SOS (Sharing Our Sobriety)","timezone":"America/Chicago"},{"feed":"aaoklahoma.org","slug":"ardmore-group","name":"Ardmore Group","day":0,"time":"18:00","types":["D","O"],"state":"OK","postal_code":"73401","city":"Ardmore","address":"935 Grand Ave","latitude":34.1796598,"longitude":-97.1392078,"location":"corner of I St NW and Grand","region":"Ardmore","url":"https://aaoklahoma.org/meetings/ardmore-group/","group":"Ardmore Group","timezone":"America/Chicago"},{"feed":"okcintergroup.org","slug":"ardmore-group","name":"Ardmore Group","day":0,"time":"18:00","types":["D","O"],"state":"OK","postal_code":"73401","city":"Ardmore","address":"935 Grand Ave","latitude":34.1796598,"longitude":-97.1392078,"location":"corner of I St NW and Grand","region":"Ardmore","url":"https://okcintergroup.org/meetings/ardmore-group/","group":"Ardmore Group","timezone":"America/Chicago"},{"feed":"aaneok.org","slug":"broken-bow-desire-group","name":"Broken Bow Desire Group","day":0,"time":"18:00","end_time":"19:00","types":["O"],"state":"OK","postal_code":"74728","city":"Broken Bow","address":"1533 E Martin Luther King Dr","latitude":34.0292552,"longitude":-94.718997,"location":"Good News Fellowship Church","region":"Broken Bow","url":"https://aaneok.org/meetings/broken-bow-desire-group/","group":"Broken Bow Desire Group","timezone":"America/Chicago"},{"feed":"aaoklahoma.org","slug":"broken-bow-desire-group","name":"Broken Bow Desire Group","day":0,"time":"18:00","end_time":"19:00","types":["O"],"state":"OK","postal_code":"74728","city":"Broken Bow","address":"1533 E Martin Luther King Dr","latitude":34.0292552,"longitude":-94.718997,"location":"Good News Fellowship Church","region":"Broken Bow","url":"https://aaoklahoma.org/meetings/broken-bow-desire-group/","group":"Broken Bow Desire Group","timezone":"America/Chicago"},{"feed":"aaneok.org","slug":"brookside-mens-meeting-2","name":"Brookside Men's Meeting","day":0,"time":"18:00","end_time":"19:00","types":["M","ONL"],"state":"OK","postal_code":"74105","city":"Tulsa","latitude":36.1036376,"longitude":-95.9726832,"location":"Zoom Only","region":"Tulsa","notes":"Zoom Only\nZoom ID: 990 352 2429\nPassword: 467946","conference_url":"https://us04web.zoom.us/j/9903522429","url":"https://aaneok.org/meetings/brookside-mens-meeting-2/","group":"Brookside Men's Meeting","timezone":"America/Chicago"},{"feed":"aaoklahoma.org","slug":"brookside-mens-meeting-2","name":"Brookside Men's Meeting","day":0,"time":"18:00","end_time":"19:00","types":["M","ONL"],"state":"OK","postal_code":"74105","city":"Tulsa","latitude":36.1036376,"longitude":-95.9726832,"location":"Zoom Only","region":"Tulsa","notes":"Zoom Only\nZoom ID: 990 352 2429\nPassword: 467946","conference_url":"https://us04web.zoom.us/j/9903522429","url":"https://aaoklahoma.org/meetings/brookside-mens-meeting-2/","group":"Brookside Men's Meeting","timezone":"America/Chicago"},{"feed":"aaoklahoma.org","slug":"daily-reprieve-group","name":"A Daily Reprieve Group","day":0,"time":"18:00","end_time":"19:00","types":["O","X","ONL"],"state":"OK","postal_code":"74074","city":"Stillwater","address":"524 S Duncan St","latitude":36.1163214,"longitude":-97.0621965,"location":"First Presbyterian Church","region":"Stillwater","conference_url":"https://zoom.us/j/87415231763","url":"https://aaoklahoma.org/meetings/daily-reprieve-group/","group":"Daily Reprieve","timezone":"America/Chicago"},{"feed":"okcintergroup.org","slug":"daily-reprieve-group","name":"A Daily Reprieve Group","day":0,"time":"18:00","end_time":"19:00","types":["O","X","ONL"],"state":"OK","postal_code":"74074","city":"Stillwater","address":"524 S Duncan St","latitude":36.1163214,"longitude":-97.0621965,"location":"First Presbyterian Church","region":"Stillwater","conference_url":"https://zoom.us/j/87415231763","url":"https://okcintergroup.org/meetings/daily-reprieve-group/","group":"Daily Reprieve","timezone":"America/Chicago"},{"feed":"aaoklahoma.org","slug":"free-life-group-2","name":"Free Life Group","day":0,"time":"18:00","end_time":"19:00","types":["LIT","O"],"state":"OK","postal_code":"74804","city":"Shawnee","address":"1827 N Airport Dr","latitude":35.3525518,"longitude":-96.9353491,"location":"Next to the Little Theater - rear door","region":"Shawnee","notes":"Came to Believe","url":"https://aaoklahoma.org/meetings/free-life-group-2/","group":"Free Life Group","timezone":"America/Chicago"},{"feed":"okcintergroup.org","slug":"free-life-group-2","name":"Free Life Group","day":0,"time":"18:00","end_time":"19:00","types":["LIT","O"],"state":"OK","postal_code":"74804","city":"Shawnee","address":"1827 N Airport Dr","latitude":35.3525448,"longitude":-96.9353573,"location":"Next to the Little Theater - rear door","region":"Shawnee","notes":"Came to Believe","url":"https://okcintergroup.org/meetings/free-life-group-2/","group":"Free Life Group","timezone":"America/Chicago"},{"feed":"aaoklahoma.org","slug":"free-life-group-3","name":"Free Life Group","day":0,"time":"18:00","types":["O"],"state":"OK","postal_code":"74804","city":"Shawnee","address":"1872 N Airport Dr","latitude":35.3525937,"longitude":-96.9353175,"location":"Freelife Clubhouse Next to Little Theater (rear door)","region":"Shawnee","url":"https://aaoklahoma.org/meetings/free-life-group-3/","group":"Free Life Group","timezone":"America/Chicago"},{"feed":"okcintergroup.org","slug":"free-life-group-3","name":"Free Life Group","day":0,"time":"18:00","types":["O"],"state":"OK","postal_code":"74804","city":"Shawnee","address":"1872 N Airport Dr","latitude":35.3525913,"longitude":-96.9353594,"location":"Freelife Clubhouse Next to Little Theater (rear door)","region":"Shawnee","url":"https://okcintergroup.org/meetings/free-life-group-3/","group":"Free Life Group","timezone":"America/Chicago"},{"feed":"aaoklahoma.org","slug":"road-to-recovery-4","name":"Road To Recovery","day":0,"time":"18:00","end_time":"19:00","types":["O","SP"],"state":"OK","postal_code":"73112","city":"Warr Acres","address":"4305 N Meridian Ave","latitude":35.5155811,"longitude":-97.6015527,"location":"Meeting Location","region":"Oklahoma City","notes":"**********SPEAKER MEETING*** THIS MEETING ONLY MEETS THE LAST Sunday of the Month*********","url":"https://aaoklahoma.org/meetings/road-to-recovery-4/","group":"Road to Recovery","timezone":"America/Chicago"},{"feed":"okcintergroup.org","slug":"road-to-recovery-4","name":"Road To Recovery","day":0,"time":"18:00","end_time":"19:00","types":["O","SP"],"state":"OK","postal_code":"73112","city":"Warr Acres","address":"4305 N Meridian Ave","latitude":35.5155811,"longitude":-97.6015527,"region":"Oklahoma City","notes":"**********SPEAKER MEETING*** THIS MEETING ONLY MEETS THE LAST Sunday of the Month*********","url":"https://okcintergroup.org/meetings/road-to-recovery-4/","group":"Road to Recovery","timezone":"America/Chicago"},{"feed":"aaneok.org","slug":"sapulpa-serenity-14","name":"Sapulpa Serenity","day":0,"time":"18:00","end_time":"19:00","types":["C","LIT"],"state":"OK","postal_code":"74066","city":"Sapulpa","address":"201 S Oak St","latitude":35.9964319,"longitude":-96.1084817,"location":"Oak and Thompson","region":"Sapulpa","notes":"Sunday 8 p.m. meeting - A New Pair of Glasses\nSpeaker meeting 2nd Thursday of month\nBirthday meeting last Thursday of month.","url":"https://aaneok.org/meetings/sapulpa-serenity-14/","group":"Sapulpa Serenity","timezone":"America/Chicago"},{"feed":"aaoklahoma.org","slug":"sapulpa-serenity-14","name":"Sapulpa Serenity","day":0,"time":"18:00","end_time":"19:00","types":["C","LIT"],"state":"OK","postal_code":"74066","city":"Sapulpa","address":"201 S Oak St","latitude":35.9963788,"longitude":-96.1084513,"location":"Oak and Thompson","region":"Sapulpa","notes":"Sunday 8 p.m. meeting - A New Pair of Glasses\nSpeaker meeting 2nd Thursday of month\nBirthday meeting last Thursday of month.","url":"https://aaoklahoma.org/meetings/sapulpa-serenity-14/","group":"Sapulpa Serenity","timezone":"America/Chicago"},{"feed":"aaoklahoma.org","slug":"serenity-house-15","name":"Serenity House","day":0,"time":"18:00","end_time":"19:00","types":["D","O","SM"],"state":"OK","postal_code":"73701","city":"Enid","address":"930 N Madison St","latitude":36.4063881,"longitude":-97.8855518,"location":"Meeting Location","region":"Enid","url":"https://aaoklahoma.org/meetings/serenity-house-15/","group":"Serenity House","timezone":"America/Chicago"},{"feed":"okcintergroup.org","slug":"serenity-house-15","name":"Serenity House","day":0,"time":"18:00","end_time":"19:00","types":["D","O","SM"],"state":"OK","postal_code":"73701","city":"Enid","address":"930 N Madison St","latitude":36.4064079,"longitude":-97.8855327,"region":"Enid","url":"https://okcintergroup.org/meetings/serenity-house-15/","group":"Serenity House","timezone":"America/Chicago"},{"feed":"aaoklahoma.org","slug":"snaag","name":"SNAAG","day":0,"time":"18:00","end_time":"19:00","types":["C","M"],"state":"OK","postal_code":"73118","city":"Oklahoma City","address":"5211 N Western Ave","latitude":35.5241714,"longitude":-97.5301186,"location":"Western Club Annex","region":"Oklahoma City","notes":"12 Steps &amp; 12 Traditions","url":"https://aaoklahoma.org/meetings/snaag/","timezone":"America/Chicago"},{"feed":"okcintergroup.org","slug":"snaag","name":"SNAAG","day":0,"time":"18:00","end_time":"19:00","types":["C","M"],"state":"OK","postal_code":"73118","city":"Oklahoma City","address":"5211 N Western Ave","latitude":35.5241714,"longitude":-97.5301186,"location":"Western Club Annex","region":"Oklahoma City","notes":"12 Steps &amp; 12 Traditions","url":"https://okcintergroup.org/meetings/snaag/","timezone":"America/Chicago"},{"feed":"aafsig.org","slug":"sunday-gratitude-group","name":"Sunday Gratitude Group","day":0,"time":"18:00","end_time":"19:00","types":["D","O"],"state":"OK","postal_code":"74959","city":"Spiro","address":"16526 US-271","latitude":35.2645842,"longitude":-94.5413912,"location":"St. Elizabeth Ann Seton Church","region":"Spiro, OK","url":"https://aafsig.org/meetings/sunday-gratitude-group/","timezone":"America/Chicago"},{"feed":"arkansascentraloffice.org","slug":"sunday-gratitude-group","name":"Sunday Gratitude Group","day":0,"time":"18:00","end_time":"19:00","types":["D","O"],"state":"OK","postal_code":"74959","city":"Spiro","address":"16526 US-271","latitude":35.2645842,"longitude":-94.5413912,"location":"St. Elizabeth Ann Seton Church","region":"Spiro, OK","url":"https://arkansascentraloffice.org/meetings/sunday-gratitude-group/","timezone":"America/Chicago"},{"feed":"aaneok.org","slug":"tahlequah-eastside-15","name":"Tahlequah Eastside","day":0,"time":"18:00","end_time":"19:00","types":["BE","O","X"],"state":"OK","postal_code":"74464","city":"Tahlequah","address":"812 E Ward St","latitude":35.9161342,"longitude":-94.9587513,"location":"Behind Braum's","region":"Tahlequah","url":"https://aaneok.org/meetings/tahlequah-eastside-15/","group":"Tahlequah Eastside","timezone":"America/Chicago"},{"feed":"aaoklahoma.org","slug":"tahlequah-eastside-15","name":"Tahlequah Eastside","day":0,"time":"18:00","end_time":"19:00","types":["BE","O","X"],"state":"OK","postal_code":"74464","city":"Tahlequah","address":"812 E Ward St","latitude":35.9161517,"longitude":-94.9587571,"location":"Behind Braum's","region":"Tahlequah","url":"https://aaoklahoma.org/meetings/tahlequah-eastside-15/","group":"Tahlequah Eastside","timezone":"America/Chicago"},{"feed":"aaoklahoma.org","slug":"una-luz-en-mi-camino","name":"Una Luz en Mi Camino","day":0,"time":"18:00","end_time":"19:00","types":["D","O","S"],"state":"OK","postal_code":"73942","city":"Guymon","address":"112 NE 5th St","latitude":36.6830121,"longitude":-101.4810047,"location":"Meeting Location","region":"Guymon","url":"https://aaoklahoma.org/meetings/una-luz-en-mi-camino/","group":"Una Luz en Mi Camino","timezone":"America/Chicago"},