[{"feed":"rhodeisland-aa.org","slug":"sobriety-fix-at-six","name":"Sobriety Fix at Six","day":0,"time":"06:00","end_time":"07:00","types":["C","D","EN","ONL"],"state":"RI","city":"Providence","latitude":41.8239891,"longitude":-71.4128343,"location":"Rhode Island","region":"Providence","notes":"Zoom Meeting ID: 826 7995 7479 Password: sixsix\n\nDaily Reflection","conference_url":"https://us04web.zoom.us/j/82679957479","url":"https://rhodeisland-aa.org/archives/meetings/sobriety-fix-at-six/","timezone":"America/New_York"},{"feed":"rhodeisland-aa.org","slug":"breakfast-with-bill-2","name":"Breakfast With Bill","day":0,"time":"07:00","end_time":"08:00","types":["LIT","O","EN","ONL"],"state":"RI","postal_code":"02903","city":"Providence","address":"71 Traverse St","latitude":41.818384,"longitude":-71.3990034,"location":"Our Lady of the Rosary Church","region":"Providence","notes":"Zoom Meeting ID :87035927804\n\"To get a link to BWB zoom send an email to breakfastwithbillpvd@gmail.com with 'zoom pw' in the subject line. The link to the meeting will be immediately emailed back to you.\"","conference_url":"https://us02web.zoom.us/j/87035927804","url":"https://rhodeisland-aa.org/archives/meetings/breakfast-with-bill-2/","timezone":"America/New_York"},{"feed":"rhodeisland-aa.org","slug":"daily-reflections-5","name":"Daily Reflections","day":0,"time":"07:00","end_time":"08:00","types":["DR","D","O","X","XB","EN"],"state":"RI","postal_code":"02879","city":"South Kingstown","address":"27 North Road","latitude":41.4528171,"longitude":-71.4960256,"location":"Unitarian Universalist","region":"South Kingstown","url":"https://rhodeisland-aa.org/archives/meetings/daily-reflections-5/","timezone":"America/New_York"},{"feed":"rhodeisland-aa.org","slug":"daily-reflections-8","name":"Daily Reflections Virtual","day":0,"time":"07:00","end_time":"08:00","types":["D","O","EN","ONL"],"state":"RI","city":"South Kingstown","latitude":41.4475686,"longitude":-71.524667,"location":"Rhode Island","region":"South Kingstown","notes":"Zoom Meeting ID: 813 4355 8191","conference_url":"https://us04web.zoom.us/j/81343558191","url":"https://rhodeisland-aa.org/archives/meetings/daily-reflections-8/","timezone":"America/New_York"},{"feed":"rhodeisland-aa.org","slug":"footprints-7","name":"Footprints","day":0,"time":"07:00","end_time":"08:00","state":"RI","postal_code":"02865","city":"Lincoln","address":"2 Manchester Print Works Rd","latitude":41.9035758,"longitude":-71.4226839,"location":"Lincoln Woods State Park","region":"Lincoln","url":"https://rhodeisland-aa.org/archives/meetings/footprints-7/","timezone":"America/New_York"},{"feed":"rhodeisland-aa.org","slug":"spritual-awakening","name":"Spiritual Awakening","day":0,"time":"07:00","end_time":"08:00","types":["D","EN","O","ONL"],"state":"RI","postal_code":"02882","city":"Narragansett","address":"39 Boston Neck Rd","latitude":41.435472,"longitude":-71.4557559,"location":"Narragansett Town Beach","region":"Narragansett","notes":"Outside Meeting","conference_url":"https://zoom.us/j/540262249","url":"https://rhodeisland-aa.org/archives/meetings/spritual-awakening/","timezone":"America/New_York"},{"feed":"rhodeisland-aa.org","slug":"24-hours-a-day-morning-meeting-7","name":"24 Hours A Day Morning Meeting","day":0,"time":"07:30","end_time":"08:30","types":["D","LIT","O","EN"],"state":"RI","postal_code":"02891","city":"Westerly","address":"20 Elm St","latitude":41.3746666,"longitude":-71.8284042,"location":"Franklin Lodge","region":"Westerly","url":"https://rhodeisland-aa.org/archives/meetings/24-hours-a-day-morning-meeting-7/","timezone":"America/New_York"},{"feed":"rhodeisland-aa.org","slug":"aa-in-the-am","name":"AA In The AM","day":0,"time":"07:30","end_time":"08:30","types":["EN","O","X","XB"],"state":"RI","postal_code":"02891","city":"Westerly","address":"39 State St","latitude":41.3651868,"longitude":-71.8253998,"location":"Westerly Senior Center","region":"Westerly","notes":"Daily Reflection,","url":"https://rhodeisland-aa.org/archives/meetings/aa-in-the-am/","timezone":"America/New_York"},{"feed":"ct-aa.org","slug":"aa-in-the-am-group","name":"A.A. in the A.M. Group","day":0,"time":"07:30","end_time":"08:30","types":["DR","D","O","X","XB"],"state":"RI","postal_code":"02891","city":"Westerly","address":"39 State St","latitude":41.3651868,"longitude":-71.8253998,"location":"Westerly Senior Citizens Center","region":"Westerly","notes":"Daily Reflections, Lot Door","url":"https://ct-aa.org/meetings/aa-in-the-am-group","group":"RI Group #","timezone":"America/New_York"},{"feed":"rhodeisland-aa.org","slug":"a-newfound-providence","name":"A Newfound Providence","day":0,"time":"08:00","end_time":"09:30","types":["B","EN","O","X","XB"],"state":"RI","postal_code":"02885","city":"Warren","address":"514 Main St","latitude":41.7290038,"longitude":-71.2818381,"location":"Warren Town Hall","region":"Warren","notes":"Basement (Youth Center)","url":"https://rhodeisland-aa.org/archives/meetings/a-newfound-providence/","timezone":"America/New_York"},{"feed":"rhodeisland-aa.org","slug":"bell-tower","name":"Bell Tower","day":0,"time":"08:00","end_time":"09:00","types":["D","EN","O"],"state":"RI","postal_code":"02920","city":"Cranston","address":"237 Garden Hills Dr","latitude":41.7521838,"longitude":-71.4750639,"location":"Immaculate Conception Church","region":"Cranston","url":"https://rhodeisland-aa.org/archives/meetings/bell-tower/","timezone":"America/New_York"},{"feed":"rhodeisland-aa.org","slug":"little-compton-zoom-at-8am","name":"Little Compton Zoom at 8AM","day":0,"time":"08:00","end_time":"09:00","types":["EN","O","SP","ONL"],"state":"RI","city":"Little Compton","latitude":41.5101032,"longitude":-71.1711563,"location":"Rhode Island","region":"Little Compton","notes":"Zoom Meeting ID:902 841 9801","conference_url":"https://zoom.us/j/9028419801","url":"https://rhodeisland-aa.org/archives/meetings/little-compton-zoom-at-8am/","timezone":"America/New_York"},{"feed":"rhodeisland-aa.org","slug":"sunday-serenity","name":"Sunday Serenity","day":0,"time":"08:00","end_time":"09:00","types":["D","EN","O","X","XB"],"state":"RI","postal_code":"02885","city":"Warren","address":"31 Railroad Ave","latitude":41.7290921,"longitude":-71.2807806,"location":"East Bay Recovery Center","region":"Warren","url":"https://rhodeisland-aa.org/archives/meetings/sunday-serenity/","timezone":"America/New_York"},{"feed":"rhodeisland-aa.org","slug":"grupo-despertar-latino","name":"Grupo Despertar Latino","day":0,"time":"09:00","end_time":"11:00","types":["D","O","S"],"state":"RI","postal_code":"02909","city":"Providence","address":"273 Pocasset Ave","latitude":41.80777,"longitude":-71.456378,"location":"273 Pocasset Ave., Providence, RI, 02909,USA","region":"Providence","url":"https://rhodeisland-aa.org/archives/meetings/grupo-despertar-latino/","timezone":"America/New_York"},{"feed":"rhodeisland-aa.org","slug":"seasude-serenity-am","name":"Seaside Serenity AM","day":0,"time":"09:45","end_time":"10:45","types":["D","EN","O","X","XB"],"state":"RI","postal_code":"02840","city":"Newport","address":"18 Market Square","latitude":41.4868242,"longitude":-71.3158185,"location":"Seamen's Church Institute","region":"Newport","url":"https://rhodeisland-aa.org/archives/meetings/seasude-serenity-am/","timezone":"America/New_York"},{"feed":"rhodeisland-aa.org","slug":"aa-in-the-am-3","name":"Welcome Chance","day":0,"time":"10:00","end_time":"11:00","types":["DR","EN","O"],"state":"RI","postal_code":"02914","city":"East Providence","address":"200 Taunton Ave","latitude":41.8199887,"longitude":-71.3743813,"location":"Haven Methodist Church","region":"East Providence","url":"https://rhodeisland-aa.org/archives/meetings/aa-in-the-am-3/","timezone":"America/New_York"},{"feed":"rhodeisland-aa.org","slug":"charleston-big-book","name":"Charlestown Big Book","day":0,"time":"10:00","end_time":"11:15","types":["B","EN","O"],"state":"RI","postal_code":"02813","city":"Charlestown","address":"437 Carolina Back Rd","latitude":41.4530862,"longitude":-71.658598,"location":"St Mary's Catholic Church","region":"Charlestown","url":"https://rhodeisland-aa.org/archives/meetings/charleston-big-book/","timezone":"America/New_York"},{"feed":"rhodeisland-aa.org","slug":"day-at-a-time","name":"Day At A Time","day":0,"time":"10:00","end_time":"11:00","types":["O","SP","EN"],"state":"RI","postal_code":"02906","city":"Providence","address":"345 Blackstone Blvd","latitude":41.846263,"longitude":-71.385631,"location":"Butler Hospital (Ray Hall)","region":"Providence","url":"https://rhodeisland-aa.org/archives/meetings/day-at-a-time/","timezone":"America/New_York"},{"feed":"rhodeisland-aa.org","slug":"keep-it-simple-2","name":"Keep It Simple","day":0,"time":"10:00","end_time":"11:00","types":["DR","EN","O","ONL"],"state":"RI","city":"Warwick","latitude":41.7001009,"longitude":-71.4161671,"location":"Rhode Island","region":"Warwick","notes":"Zoom Meeting ID: 87009525940 Password: 408755","conference_url":"https://us04web.zoom.us/j/87009525940","url":"https://rhodeisland-aa.org/archives/meetings/keep-it-simple-2/","timezone":"America/New_York"},{"feed":"rhodeisland-aa.org","slug":"richmond-sunday-morning","name":"Richmond Sunday Morning","day":0,"time":"10:00","end_time":"11:00","types":["D","EN","O","X","XB"],"state":"RI","postal_code":"02898","city":"Richmond","address":"1168 Main St","latitude":41.514898,"longitude":-71.6989914,"location":"Richmond Community/Senior Cnter","region":"Richmond","url":"https://rhodeisland-aa.org/archives/meetings/richmond-sunday-morning/","timezone":"America/New_York"},{"feed":"rhodeisland-aa.org","slug":"room-to-grow","name":"Room To Grow","day":0,"time":"10:00","end_time":"11:00","types":["D","BE","O","X","XB","W","EN"],"state":"RI","postal_code":"02906","city":"Providence","address":"95 Cushing St","latitude":41.8296709,"longitude":-71.4028278,"location":"Smith-Buonanno Hall - Brown University","region":"Providence","url":"https://rhodeisland-aa.org/archives/meetings/room-to-grow/","timezone":"America/New_York"},{"feed":"rhodeisland-aa.org","slug":"teddys-beach","name":"Teddys Beach","day":0,"time":"10:30","end_time":"11:30","types":["D","EN","O"],"state":"RI","postal_code":"02871","city":"Portsmouth","address":"710 Park Ave","latitude":41.6248302,"longitude":-71.2206304,"location":"Teddy's Beach Island Park","region":"Portsmouth","url":"https://rhodeisland-aa.org/archives/meetings/teddys-beach/","timezone":"America/New_York"},{"feed":"rhodeisland-aa.org","slug":"happy-wanders","name":"Happy Wanderers","day":0,"time":"11:00","end_time":"12:00","types":["EN","O","SP"],"state":"RI","postal_code":"02895","city":"Woonsocket","address":"414 S Main St","latitude":41.995245,"longitude":-71.5231997,"location":"Holy Family Church","region":"Woonsocket","url":"https://rhodeisland-aa.org/archives/meetings/happy-wanders/","timezone":"America/New_York"},{"feed":"rhodeisland-aa.org","slug":"portsmouth-sunday-morning","name":"Portsmouth Sunday Morning","day":0,"time":"11:00","end_time":"12:00","types":["C","D","ASL","X","XB","EN"],"state":"RI","postal_code":"02871","city":"Portsmouth","address":"933 Anthony Rd","latitude":41.6438874,"longitude":-71.2226026,"location":"Common Fence Point Community Center","region":"Portsmouth","url":"https://rhodeisland-aa.org/archives/meetings/portsmouth-sunday-morning/","timezone":"America/New_York"},{"feed":"rhodeisland-aa.org","slug":"promises","name":"Promises","day":0,"time":"14:00","end_time":"15:00","types":["D","EN","LIT","O"],"state":"RI","postal_code":"02882","city":"Narragansett","address":"32 Avice St","latitude":41.4321739,"longitude":-71.4783798,"location":"Anchor Christian Fellowship","region":"Narragansett","url":"https://rhodeisland-aa.org/archives/meetings/promises/","timezone":"America/New_York"},{"feed":"rhodeisland-aa.org","slug":"sunday-serenity-2","name":"Sunday Serenity","day":0,"time":"15:00","end_time":"16:00","types":["D","EN","O"],"state":"RI","postal_code":"02906","city":"Providence","address":"500 Hope St","latitude":41.8401352,"longitude":-71.3998327,"location":"Providence Presbyterian Church","region":"Providence","url":"https://rhodeisland-aa.org/archives/meetings/sunday-serenity-2/","timezone":"America/New_York"},{"feed":"rhodeisland-aa.org","slug":"grupo-divina-providencia","name":"Grupo Divina Providencia","day":0,"time":"16:00","end_time":"18:00","types":["D","O","S"],"state":"RI","postal_code":"02904","city":"North Providence","address":"847 Charles St","latitude":41.860299,"longitude":-71.421983,"location":"Charles 847","region":"North Providence","url":"https://rhodeisland-aa.org/archives/meetings/grupo-divina-providencia/","timezone":"America/New_York"},{"feed":"rhodeisland-aa.org","slug":"time-for-promises","name":"Time For Promises","day":0,"time":"16:30","end_time":"17:30","types":["D","EN","O","X","XB"],"state":"RI","postal_code":"02835","city":"Jamestown","address":"87 Narragansett Ave","latitude":41.4958139,"longitude":-71.3736698,"location":"St Matthews Episcopal Church","region":"Jamestown","url":"https://rhodeisland-aa.org/archives/meetings/time-for-promises/","timezone":"America/New_York"},{"feed":"rhodeisland-aa.org","slug":"aa-beginners","name":"AA Beginners Step 1,2,3","day":0,"time":"17:00","end_time":"18:00","types":["EN","BE","O","X","XB"],"state":"RI","postal_code":"02891","city":"Westerly","address":"39 State St","latitude":41.3651868,"longitude":-71.8253998,"location":"Westerly Senior Center","region":"Westerly","notes":"Steps 1, 2, & 3\n\nStep","url":"https://rhodeisland-aa.org/archives/meetings/aa-beginners/","timezone":"America/New_York"},{"feed":"rhodeisland-aa.org","slug":"grupo-la-derrota","name":"Grupo La Derrota","day":0,"time":"17:00","end_time":"19:00","types":["D","O","S"],"state":"RI","postal_code":"02907","city":"Providence","address":"310 Reservoir Ave","latitude":41.7883947,"longitude":-71.4308077,"location":"310 Reservoir Ave., Providence, RI, 02907, USA","region":"Providence","url":"https://rhodeisland-aa.org/archives/meetings/grupo-la-derrota/","timezone":"America/New_York"},{"feed":"rhodeisland-aa.org","slug":"keep-on-coming-beginners","name":"AA Beginners","day":0,"time":"17:00","end_time":"18:00","types":["D","BE","O","EN"],"state":"RI","postal_code":"02886","city":"Warwick","address":"389 Greenwich Ave","latitude":41.7234026,"longitude":-71.4697769,"location":"St. Pauls Lutheran Church","region":"Warwick","url":"https://rhodeisland-aa.org/archives/meetings/keep-on-coming-beginners/","timezone":"America/New_York"},{"feed":"rhodeisland-aa.org","slug":"the-real-tosspots","name":"The Real Tosspots","day":0,"time":"17:00","end_time":"18:00","types":["EN","BE","O","ST","X","XB"],"state":"RI","postal_code":"02885","city":"Warren","address":"514 Main St","latitude":41.7290038,"longitude":-71.2818381,"location":"Warren Town Hall","region":"Warren","notes":"Steps 1,2,3","url":"https://rhodeisland-aa.org/archives/meetings/the-real-tosspots/","timezone":"America/New_York"},{"feed":"rhodeisland-aa.org","slug":"neuvo-dia","name":"Grupo Nuevo Dia","day":0,"time":"18:00","end_time":"19:00","types":["O","S","ST"],"state":"RI","postal_code":"02895","city":"Woonsocket","address":"414 S Main St","latitude":41.995245,"longitude":-71.5231997,"location":"Holy Family Church","region":"Woonsocket","url":"https://rhodeisland-aa.org/archives/meetings/neuvo-dia/","timezone":"America/New_York"},{"feed":"rhodeisland-aa.org","slug":"sunday-night-grapevine","name":"Grapevine by Candlelight","day":0,"time":"18:00","end_time":"19:00","types":["EN","LIT","O","X","XB"],"state":"RI","postal_code":"02919","city":"Johnston","address":"1804 Atwood Ave","latitude":41.8376043,"longitude":-71.5054953,"location":"St. Robert Bellarmine Church","region":"Johnston","url":"https://rhodeisland-aa.org/archives/meetings/sunday-night-grapevine/","timezone":"America/New_York"},{"feed":"rhodeisland-aa.org","slug":"sunday-night-womens","name":"Sunday Night Womens","day":0,"time":"18:00","end_time":"19:00","types":["C","ST","X","XB","W"],"state":"RI","postal_code":"02879","city":"South Kingstown","address":"236 Main St","latitude":41.4403219,"longitude":-71.496664,"location":"Wakefield Baptist Church","region":"South Kingstown","url":"https://rhodeisland-aa.org/archives/meetings/sunday-night-womens/","timezone":"America/New_York"},{"feed":"rhodeisland-aa.org","slug":"village-womens-step","name":"Village Women's Step","day":0,"time":"18:00","end_time":"19:00","types":["EN","O","ST","W","ONL"],"state":"RI","city":"Cranston","latitude":41.7798226,"longitude":-71.4372796,"location":"Pawtuxet Village","region":"Cranston","notes":"Zoom Meeting ID : 409 671 4613 Password : GcFqB5","conference_url":"https://us04web.zoom.us/j/4096714613","url":"https://rhodeisland-aa.org/archives/meetings/village-womens-step/","timezone":"America/New_York"},{"feed":"rhodeisland-aa.org","slug":"warwick-mall-at-6pm-2","name":"Warwick Mall At 6PM","day":0,"time":"18:00","end_time":"19:00","types":["D","O","EN"],"state":"RI","postal_code":"02886","city":"Warwick","address":"400 Bald Hill Rd","latitude":41.7269929,"longitude":-71.4792706,"location":"Warwick Mall (Firestone Parkinglot)","region":"Warwick","url":"https://rhodeisland-aa.org/archives/meetings/warwick-mall-at-6pm-2/","timezone":"America/New_York"},{"feed":"ct-aa.org","slug":"came-to-believe-group-9","name":"Came To Believe Group","day":0,"time":"18:30","end_time":"19:30","types":["HANDIFACIL","LIT","O","X","XB"],"state":"RI","postal_code":"02891","city":"Westerly","address":"39 State St","latitude":41.3651868,"longitude":-71.8253998,"location":"Westerly Senior Citizens Center","region":"Westerly","url":"https://ct-aa.org/meetings/came-to-believe-group-9","group":"Rhode Island","timezone":"America/New_York"},{"feed":"rhodeisland-aa.org","slug":"breathing-easy-i","name":"Breathing Easy I","day":0,"time":"19:00","end_time":"20:00","types":["D","EN","O","X","XB"],"state":"RI","postal_code":"02906","city":"Providence","address":"1 Benevolent St","latitude":41.8244011,"longitude":-71.4049352,"location":"First Unitarian Church","region":"Providence","url":"https://rhodeisland-aa.org/archives/meetings/breathing-easy-i/","timezone":"America/New_York"},{"feed":"rhodeisland-aa.org","slug":"bristol-freedom","name":"Bristol Freedom","day":0,"time":"19:00","end_time":"20:00","types":["D","EN","O"],"state":"RI","postal_code":"02809","city":"Bristol","address":"65 Ferry Rd","latitude":41.6517919,"longitude":-71.2649372,"location":"Columban Fathers","region":"Bristol","url":"https://rhodeisland-aa.org/archives/meetings/bristol-freedom/","timezone":"America/New_York"},{"feed":"rhodeisland-aa.org","slug":"came-to-live","name":"Came To Live","day":0,"time":"19:00","end_time":"20:00","types":["EN","O","SP"],"state":"RI","postal_code":"02818","city":"East Greenwich","address":"99 Peirce St","latitude":41.6612865,"longitude":-71.451618,"location":"St. Luke's Church","region":"East Greenwich","url":"https://rhodeisland-aa.org/archives/meetings/came-to-live/","timezone":"America/New_York"},{"feed":"rhodeisland-aa.org","slug":"entirely-ready-step","name":"Entirely Ready Step","day":0,"time":"19:00","end_time":"20:00","types":["EN","O","ST","X","XB"],"state":"RI","postal_code":"02891","city":"Westerly","address":"39 State St","latitude":41.3651868,"longitude":-71.8253998,"location":"Westerly Senior Center","region":"Westerly","url":"https://rhodeisland-aa.org/archives/meetings/entirely-ready-step/","timezone":"America/New_York"},{"feed":"rhodeisland-aa.org","slug":"grupo-23-de-noviembre","name":"Grupo 23 de Noviembre","day":0,"time":"19:00","end_time":"21:00","types":["D","O","S"],"state":"RI","postal_code":"02909","city":"Providence","address":"658 Hartford Ave","latitude":41.8195162,"longitude":-71.4668783,"location":"658 Hartford Ave.,Providence,RI,02909,USA","region":"Providence","url":"https://rhodeisland-aa.org/archives/meetings/grupo-23-de-noviembre/","timezone":"America/New_York"},{"feed":"rhodeisland-aa.org","slug":"grupo-international","name":"Grupo International","day":0,"time":"19:00","end_time":"21:00","types":["D","O","S"],"state":"RI","postal_code":"02863","city":"Central Falls","address":"468 High St","latitude":41.8861422,"longitude":-71.3840265,"location":"468 High St.,Central Falls, RI, 02863,USA","region":"Central Falls","url":"https://rhodeisland-aa.org/archives/meetings/grupo-international/","timezone":"America/New_York"},{"feed":"rhodeisland-aa.org","slug":"new-freedom-3","name":"New Freedom","day":0,"time":"19:00","end_time":"20:00","types":["B","O","ST","EN"],"state":"RI","postal_code":"02879","city":"South Kingstown","address":"251 Post Rd","latitude":41.4304229,"longitude":-71.5182844,"location":"New Life Assembly","region":"South Kingstown","url":"https://rhodeisland-aa.org/archives/meetings/new-freedom-3/","timezone":"America/New_York"},{"feed":"rhodeisland-aa.org","slug":"open-step","name":"Open Step","day":0,"time":"19:00","end_time":"20:00","types":["EN","O","ST"],"state":"RI","postal_code":"02828","city":"Greenville","address":"1 Smith Ave","latitude":41.871091,"longitude":-71.5527591,"location":"St. Thomas Episcopal Church","region":"Smithfield/Greenville","url":"https://rhodeisland-aa.org/archives/meetings/open-step/","timezone":"America/New_York"},{"feed":"rhodeisland-aa.org","slug":"pawtuxet-pm","name":"Pawtuxet PM","day":0,"time":"19:00","end_time":"20:00","types":["D","EN","O"],"state":"RI","postal_code":"02905","city":"Cranston","address":"1788 Broad St","latitude":41.776991,"longitude":-71.399279,"location":"Edgewood Congregational Church","region":"Cranston","url":"https://rhodeisland-aa.org/archives/meetings/pawtuxet-pm/","timezone":"America/New_York"},{"feed":"rhodeisland-aa.org","slug":"redhead","name":"Redhead","day":0,"time":"19:00","end_time":"20:00","types":["EN","O","SP"],"state":"RI","postal_code":"02895","city":"Woonsocket","address":"1409 Park Ave","latitude":41.9845832,"longitude":-71.5164814,"location":"Holy Trinity Parish","region":"Woonsocket","url":"https://rhodeisland-aa.org/archives/meetings/redhead/","timezone":"America/New_York"},{"feed":"rhodeisland-aa.org","slug":"remember-when","name":"Remember When","day":0,"time":"19:00","end_time":"20:00","types":["O","SP","EN"],"state":"RI","postal_code":"02865","city":"Lincoln","address":"1643 Lonsdale Ave","latitude":41.9068487,"longitude":-71.4031965,"location":"Christ Church in Londsale (Annex)","region":"Lincoln","url":"https://rhodeisland-aa.org/archives/meetings/remember-when/","timezone":"America/New_York"},{"feed":"rhodeisland-aa.org","slug":"sailing-through-sobriety","name":"Sailing Through Sobriety","day":0,"time":"19:00","end_time":"20:00","types":["D","EN","LIT","LS","BE","O","ONL"],"state":"RI","latitude":41.5800945,"longitude":-71.4774291,"location":"Rhode Island","region":"Rhode Island","notes":"Zoom ID: 852 918 63983 Password: Hope","conference_url":"https://us04web.zoom.us/j/85291863983","url":"https://rhodeisland-aa.org/archives/meetings/sailing-through-sobriety/","timezone":"America/New_York"},{"feed":"rhodeisland-aa.org","slug":"simple","name":"Simple","day":0,"time":"19:00","end_time":"20:00","types":["D","O","SP","X","EN"],"state":"RI","postal_code":"02816","city":"Coventry","address":"1081 Main St","latitude":41.6911119,"longitude":-71.562781,"location":"Cornerstone of Faith UMC","region":"Coventry","url":"https://rhodeisland-aa.org/archives/meetings/simple/","timezone":"America/New_York"},{"feed":"rhodeisland-aa.org","slug":"sos","name":"SOS","day":0,"time":"19:00","end_time":"20:00","types":["EN","O","SP"],"state":"RI","postal_code":"02878","city":"Tiverton","address":"35 Lake Rd","latitude":41.5708531,"longitude":-71.1584286,"location":"St Madeline's Church","region":"Tiverton","url":"https://rhodeisland-aa.org/archives/meetings/sos/","timezone":"America/New_York"},{"feed":"rhodeisland-aa.org","slug":"sunday-night-beginners","name":"Sunday Night Beginner's","day":0,"time":"19:00","end_time":"20:15","types":["D","EN","BE","O"],"state":"RI","postal_code":"02840","city":"Newport","address":"525 Broadway","latitude":41.5049029,"longitude":-71.3014901,"location":"St. Peters Lutheran Church","region":"Newport","url":"https://rhodeisland-aa.org/archives/meetings/sunday-night-beginners/","timezone":"America/New_York"},{"feed":"rhodeisland-aa.org","slug":"sunday-night-hope","name":"Sunday Night Hope","day":0,"time":"19:00","end_time":"20:00","types":["D","EN","O"],"state":"RI","postal_code":"02914","city":"East Providence","address":"200 Taunton Ave","latitude":41.8199887,"longitude":-71.3743813,"location":"Haven Methodist Church","region":"East Providence","url":"https://rhodeisland-aa.org/archives/meetings/sunday-night-hope/","timezone":"America/New_York"},{"feed":"rhodeisland-aa.org","slug":"sunday-night-step","name":"Sunday Night Step","day":0,"time":"19:00","end_time":"20:00","types":["EN","O","ST","X","XB"],"state":"RI","postal_code":"02864","city":"Cumberland","address":"120 Nate Whipple Hwy","latitude":41.9794231,"longitude":-71.447515,"location":"Emmanual Episcopal Church","region":"Cumberland","url":"https://rhodeisland-aa.org/archives/meetings/sunday-night-step/","timezone":"America/New_York"},{"feed":"rhodeisland-aa.org","slug":"westerly-pawcatuck","name":"Westerly/Pawcatuck","day":0,"time":"19:00","end_time":"20:00","types":["D","EN","O","ONL"],"state":"RI","city":"Westerly","latitude":41.3775987,"longitude":-71.8272871,"location":"Rhode Island","region":"Westerly","notes":"Zoom Meeting ID: 5188102959\u00a0Password: 392958","conference_url":"https://zoom.us/j/5188102959","url":"https://rhodeisland-aa.org/archives/meetings/westerly-pawcatuck/","timezone":"America/New_York"},{"feed":"rhodeisland-aa.org","slug":"women-of-grace","name":"Women of Grace","day":0,"time":"19:00","end_time":"20:00","types":["B","C","EN","X","XB","W"],"state":"RI","postal_code":"02871","city":"Portsmouth","address":"1697 E Main Rd","latitude":41.5792714,"longitude":-71.2511941,"location":"St. Barnabus Church","region":"Portsmouth","url":"https://rhodeisland-aa.org/archives/meetings/women-of-grace/","timezone":"America/New_York"},{"feed":"rhodeisland-aa.org","slug":"aquidneck-island-mens","name":"Aquidneck Island Mens","day":0,"time":"19:30","end_time":"21:00","types":["C","D","M","EN","ONL"],"state":"RI","postal_code":"02871","city":"Portsmouth","address":"324 E Main Rd","latitude":41.546341,"longitude":-71.260933,"location":"St. Mary's Episcopal Church","region":"Portsmouth","conference_url":"https://zoom.us/j/7677790938","url":"https://rhodeisland-aa.org/archives/meetings/aquidneck-island-mens/","timezone":"America/New_York"},{"feed":"rhodeisland-aa.org","slug":"came-to-believe-a-spiritual-adventure","name":"Came to Believe-A Spiritual Adventure","day":0,"time":"19:30","end_time":"21:00","types":["C","D","EN"],"state":"RI","postal_code":"02881","city":"Kingston","address":"2610 Kingstown Rd","latitude":41.4800827,"longitude":-71.5251705,"location":"Kingston Congregational Church","region":"Kingston","url":"https://rhodeisland-aa.org/archives/meetings/came-to-believe-a-spiritual-adventure/","timezone":"America/New_York"},{"feed":"rhodeisland-aa.org","slug":"aa8","name":"AA@8","day":0,"time":"20:00","end_time":"21:00","types":["D","EN","O","ONL"],"state":"RI","city":"Providence","latitude":41.8239891,"longitude":-71.4128343,"location":"Rhode Island","region":"Providence","notes":"Zoom ID: 94163128231 Password: AAat8","conference_url":"https://zoom.us/j/94163128231","url":"https://rhodeisland-aa.org/archives/meetings/aa8/","timezone":"America/New_York"},{"feed":"rhodeisland-aa.org","slug":"open-step-2","name":"Breathing Easy II","day":0,"time":"20:30","end_time":"21:30","types":["D","EN","O","X","XB"],"state":"RI","postal_code":"02906","city":"Providence","address":"1 Benevolent St","latitude":41.8244011,"longitude":-71.4049352,"location":"First Unitarian Church","region":"Providence","url":"https://rhodeisland-aa.org/archives/meetings/open-step-2/","timezone":"America/New_York"},{"feed":"rhodeisland-aa.org","slug":"the-fifth-dimension-7","name":"The Fifth Dimension","day":0,"time":"21:30","end_time":"22:30","types":["D","EN","O","Y","ONL"],"state":"RI","city":"Providence","latitude":41.8239891,"longitude":-71.4128343,"location":"Rhode Island","region":"Providence","conference_url":"https://us02web.zoom.us/j/687118144","url":"https://rhodeisland-aa.org/archives/meetings/the-fifth-dimension-7/","timezone":"America/New_York"},{"feed":"rhodeisland-aa.org","slug":"morning-glory","name":"Morning Glory","day":1,"time":"06:00","end_time":"07:00","types":["DR","EN","O","X","XB"],"state":"RI","postal_code":"02835","city":"Jamestown","address":"87 Narragansett Ave","latitude":41.4958139,"longitude":-71.3736698,"location":"St Matthews Episcopal Church","region":"Jamestown","url":"https://rhodeisland-aa.org/archives/meetings/morning-glory/","timezone":"America/New_York"},{"feed":"rhodeisland-aa.org","slug":"sobriety-fix-at-six-2","name":"Sobriety Fix at Six","day":1,"time":"06:00","end_time":"07:00","types":["C","D","EN","X","XB","ONL"],"state":"RI","city":"Providence","latitude":41.8239891,"longitude":-71.4128343,"location":"Rhode Island","region":"Providence","notes":"Zoom Meeting ID: 826 7995 7479 Password: sixsix\n\nDaily Reflection","conference_url":"https://zoom.us/j/82679957479","url":"https://rhodeisland-aa.org/archives/meetings/sobriety-fix-at-six-2/","timezone":"America/New_York"},{"feed":"rhodeisland-aa.org","slug":"breakfast-with-bill-2-2","name":"Breakfast With Bill","day":1,"time":"07:00","end_time":"08:00","types":["LIT","O","EN","ONL"],"state":"RI","postal_code":"02903","city":"Providence","address":"71 Traverse St","latitude":41.818384,"longitude":-71.3990034,"location":"Our Lady of the Rosary Church","region":"Providence","notes":"Zoom Meeting ID :87035927804\n\"To get a link to BWB zoom send an email to breakfastwithbillpvd@gmail.com with 'zoom pw' in the subject line. The link to the meeting will be immediately emailed back to you.\"","conference_url":"https://us02web.zoom.us/j/87035927804","url":"https://rhodeisland-aa.org/archives/meetings/breakfast-with-bill-2-2/","timezone":"America/New_York"},{"feed":"rhodeisland-aa.org","slug":"clean-and-sober","name":"Clean and Sober","day":1,"time":"07:00","end_time":"08:00","types":["D","EN","O","X","XB"],"state":"RI","postal_code":"02842","city":"Middletown","address":"55 Vaucluse Ave","latitude":41.5070828,"longitude":-71.2421428,"location":"St. Columba's Parish Hall","region":"Middletown","url":"https://rhodeisland-aa.org/archives/meetings/clean-and-sober/","timezone":"America/New_York"},{"feed":"rhodeisland-aa.org","slug":"daily-reflections","name":"Daily Reflections","day":1,"time":"07:00","end_time":"08:00","types":["DR","D","O","X","XB","EN"],"state":"RI","postal_code":"02879","city":"South Kingstown","address":"27 North Road","latitude":41.4528171,"longitude":-71.4960256,"location":"Unitarian Universalist","region":"South Kingstown","url":"https://rhodeisland-aa.org/archives/meetings/daily-reflections/","timezone":"America/New_York"},{"feed":"rhodeisland-aa.org","slug":"daily-reflections-8-2","name":"Daily Reflections Virtual","day":1,"time":"07:00","end_time":"08:00","types":["D","EN","O","ONL"],"state":"RI","city":"South Kingstown","latitude":41.4475686,"longitude":-71.524667,"location":"Rhode Island","region":"South Kingstown","notes":"Zoom Meeting ID: 813 4355 8191","conference_url":"https://us04web.zoom.us/j/81343558191","url":"https://rhodeisland-aa.org/archives/meetings/daily-reflections-8-2/","timezone":"America/New_York"},{"feed":"rhodeisland-aa.org","slug":"early-risers","name":"Early Risers","day":1,"time":"07:00","end_time":"08:00","types":["DR","EN","O"],"state":"RI","postal_code":"02878","city":"Tiverton","address":"35 Lake Rd","latitude":41.5708531,"longitude":-71.1584286,"location":"St Madeline's Church","region":"Tiverton","url":"https://rhodeisland-aa.org/archives/meetings/early-risers/","timezone":"America/New_York"},{"feed":"rhodeisland-aa.org","slug":"east-bay-sunrise","name":"East Bay Sunrise","day":1,"time":"07:00","end_time":"08:00","types":["DR","O","X","XB","EN"],"state":"RI","postal_code":"02885","city":"Warren","address":"514 Main St","latitude":41.7290038,"longitude":-71.2818381,"location":"Warren Town Hall","region":"Warren","url":"https://rhodeisland-aa.org/archives/meetings/east-bay-sunrise/","timezone":"America/New_York"},{"feed":"rhodeisland-aa.org","slug":"footprints-2","name":"Footprints","day":1,"time":"07:00","end_time":"08:00","types":["D","O","OUT","EN"],"state":"RI","postal_code":"02865","city":"Lincoln","address":"2 Manchester Print Works Rd","latitude":41.9035758,"longitude":-71.4226839,"location":"Lincoln Woods State Park","region":"Lincoln","url":"https://rhodeisland-aa.org/archives/meetings/footprints-2/","timezone":"America/New_York"},{"feed":"rhodeisland-aa.org","slug":"hope-at-seven","name":"A New Hope at Seven","day":1,"time":"07:00","end_time":"08:00","types":["EN","LIT","O","X","XB"],"state":"RI","postal_code":"02840","city":"Newport","address":"18 Market Square","latitude":41.4868242,"longitude":-71.3158185,"location":"Seamen's Church Institute","region":"Newport","url":"https://rhodeisland-aa.org/archives/meetings/hope-at-seven/","timezone":"America/New_York"},{"feed":"rhodeisland-aa.org","slug":"hope-group-online","name":"Hope Group Online","day":1,"time":"07:00","end_time":"08:00","types":["D","EN","O","ONL"],"state":"RI","postal_code":"02885","city":"Warren","latitude":41.7303793,"longitude":-71.2825493,"location":"Rhode Island","region":"Warren","notes":"Zoom Meeting ID: 992 2571 8003 Password: 654321","conference_url":"https://us02web.zoom.us/j/99225718003","url":"https://rhodeisland-aa.org/archives/meetings/hope-group-online/","timezone":"America/New_York"},{"feed":"rhodeisland-aa.org","slug":"spritual-awakening-2","name":"Spiritual Awakening","day":1,"time":"07:00","end_time":"08:00","types":["D","EN","O","ONL"],"state":"RI","postal_code":"02882","city":"Narragansett","address":"39 Boston Neck Rd","latitude":41.435472,"longitude":-71.4557559,"location":"Narragansett Town Beach","region":"Narragansett","conference_url":"https://zoom.us/j/540262249","url":"https://rhodeisland-aa.org/archives/meetings/spritual-awakening-2/","timezone":"America/New_York"},{"feed":"rhodeisland-aa.org","slug":"24-hours-a-day-morning-meeting","name":"24 Hours A Day Morning Meeting","day":1,"time":"07:30","end_time":"08:30","types":["D","LIT","O","EN"],"state":"RI","postal_code":"02891","city":"Westerly","address":"20 Elm St","latitude":41.3746666,"longitude":-71.8284042,"location":"Franklin Lodge","region":"Westerly","url":"https://rhodeisland-aa.org/archives/meetings/24-hours-a-day-morning-meeting/","timezone":"America/New_York"},{"feed":"rhodeisland-aa.org","slug":"aa-in-the-am-2","name":"AA In The AM","day":1,"time":"07:30","end_time":"08:30","types":["DR","EN","O","X","XB"],"state":"RI","postal_code":"02891","city":"Westerly","address":"39 State St","latitude":41.3651868,"longitude":-71.8253998,"location":"Westerly Senior Center","region":"Westerly","url":"https://rhodeisland-aa.org/archives/meetings/aa-in-the-am-2/","timezone":"America/New_York"},{"feed":"ct-aa.org","slug":"aa-in-the-am-group-2","name":"A.A. in the A.M. Group","day":1,"time":"07:30","end_time":"08:30","types":["DR","D","O","X","XB"],"state":"RI","postal_code":"02891","city":"Westerly","address":"39 State St","latitude":41.3651868,"longitude":-71.8253998,"location":"Westerly Senior Citizens Center","region":"Westerly","notes":"Lot Door,Daily Reflections","url":"https://ct-aa.org/meetings/aa-in-the-am-group-2","group":"RI Group #","timezone":"America/New_York"},{"feed":"rhodeisland-aa.org","slug":"aa-meeting-7","name":"Early Bird","day":1,"time":"08:00","end_time":"09:00","types":["D","EN","O"],"state":"RI","postal_code":"02886","city":"Warwick","address":"389 Greenwich Ave","latitude":41.7234026,"longitude":-71.4697769,"location":"St. Pauls Lutheran Church","region":"Warwick","url":"https://rhodeisland-aa.org/archives/meetings/aa-meeting-7/","timezone":"America/New_York"},{"feed":"rhodeisland-aa.org","slug":"aa-today","name":"AA Today","day":1,"time":"08:00","end_time":"09:00","types":["DR","EN","O"],"state":"RI","postal_code":"02906","city":"Providence","address":"201 Pitman St","latitude":41.8263345,"longitude":-71.3853094,"location":"Salvation Army","region":"Providence","url":"https://rhodeisland-aa.org/archives/meetings/aa-today/","timezone":"America/New_York"},{"feed":"rhodeisland-aa.org","slug":"early-bird-ii","name":"Early Bird II","day":1,"time":"08:00","end_time":"09:00","types":["D","EN","O","ONL"],"state":"RI","city":"Warwick","latitude":41.7001009,"longitude":-71.4161671,"location":"Rhode Island","region":"Warwick","notes":"Zoom Meeting ID:89226046602 Password: 02886","conference_url":"https://us04web.zoom.us/j/89226046602","url":"https://rhodeisland-aa.org/archives/meetings/early-bird-ii/","timezone":"America/New_York"},{"feed":"rhodeisland-aa.org","slug":"early-bird-via-phone","name":"Early Bird (via Phone)","day":1,"time":"08:00","end_time":"09:00","types":["D","EN","O","ONL"],"state":"RI","city":"Warwick","latitude":41.7001009,"longitude":-71.4161671,"location":"Rhode Island","region":"Warwick","notes":"Call 347-817-2790 Meeting # 1465542","url":"https://rhodeisland-aa.org/archives/meetings/early-bird-via-phone/","timezone":"America/New_York"},{"feed":"rhodeisland-aa.org","slug":"little-compton-zoom-at-8am-2","name":"Little Compton Zoom at 8AM","day":1,"time":"08:00","end_time":"09:00","types":["EN","O","SP","ONL"],"state":"RI","city":"Little Compton","latitude":41.5101032,"longitude":-71.1711563,"location":"Rhode Island","region":"Little Compton","notes":"Zoom Meeting ID:902 841 9801","conference_url":"https://zoom.us/j/9028419801","url":"https://rhodeisland-aa.org/archives/meetings/little-compton-zoom-at-8am-2/","timezone":"America/New_York"},{"feed":"rhodeisland-aa.org","slug":"aa-in-the-am-3-2","name":"A Better Tomorrow","day":1,"time":"10:00","end_time":"11:00","types":["DR","O","EN"],"state":"RI","postal_code":"02914","city":"East Providence","address":"200 Taunton Ave","latitude":41.8199887,"longitude":-71.3743813,"location":"Haven Methodist Church","region":"East Providence","url":"https://rhodeisland-aa.org/archives/meetings/aa-in-the-am-3-2/","timezone":"America/New_York"},{"feed":"ct-aa.org","slug":"alive-again","name":"Alive Again","day":1,"time":"10:00","end_time":"11:00","state":"RI","postal_code":"02891","city":"Westerly","address":"20 Elm St","latitude":41.3747202,"longitude":-71.8285501,"location":"Masonic Lodge","region":"Westerly","url":"https://ct-aa.org/meetings/alive-again","timezone":"America/New_York"},{"feed":"rhodeisland-aa.org","slug":"alive-again","name":"Alive Again","day":1,"time":"10:00","end_time":"11:00","types":["B","D","EN","O"],"state":"RI","postal_code":"02891","city":"Westerly","address":"20 Elm St","latitude":41.3746666,"longitude":-71.8284042,"location":"Franklin Lodge","region":"Westerly","url":"https://rhodeisland-aa.org/archives/meetings/alive-again/","timezone":"America/New_York"},{"feed":"rhodeisland-aa.org","slug":"just-for-today","name":"Just For Today","day":1,"time":"10:00","end_time":"11:00","types":["D","EN","O"],"state":"RI","postal_code":"02840","city":"Newport","address":"12 Marlborough St","latitude":41.4913012,"longitude":-71.3145692,"location":"St. Paul's Church","region":"Newport","url":"https://rhodeisland-aa.org/archives/meetings/just-for-today/","timezone":"America/New_York"},{"feed":"rhodeisland-aa.org","slug":"keep-it-simple-3","name":"Keep It Simple","day":1,"time":"10:00","end_time":"11:00","types":["DR","EN","O","ONL"],"state":"RI","city":"Warwick","latitude":41.7001009,"longitude":-71.4161671,"location":"Rhode Island","region":"Warwick","notes":"Zoom Meeting ID: 87009525940 Password: 408755","conference_url":"https://us04web.zoom.us/j/87009525940","url":"https://rhodeisland-aa.org/archives/meetings/keep-it-simple-3/","timezone":"America/New_York"},{"feed":"rhodeisland-aa.org","slug":"keep-it-simple-live","name":"Keep It Simple Live","day":1,"time":"10:00","end_time":"11:00","types":["D","EN","O"],"state":"RI","postal_code":"02886","city":"Warwick","address":"2845 Post Rd","latitude":41.7074796,"longitude":-71.4522534,"location":"Southern Rhode Island Intergroup (Craik Bldg.)","region":"Warwick","url":"https://rhodeisland-aa.org/archives/meetings/keep-it-simple-live/","timezone":"America/New_York"},{"feed":"rhodeisland-aa.org","slug":"monday-morning-meditation","name":"Monday Morning Meditation","day":1,"time":"10:00","end_time":"11:00","types":["11","O","EN","ONL"],"state":"RI","postal_code":"02818","city":"East Greenwich","latitude":41.6342619,"longitude":-71.5130445,"location":"Rhode Island","region":"East Greenwich","notes":"Zoom Meeting ID: 874 9899 4084 Password: 192819\n\n11 Step Meditation","conference_url":"https://zoom.us/j/87498994084%20","url":"https://rhodeisland-aa.org/archives/meetings/monday-morning-meditation/","timezone":"America/New_York"},{"feed":"rhodeisland-aa.org","slug":"path-to-happiness","name":"Path To Happiness","day":1,"time":"10:00","end_time":"11:00","types":["D","EN","LIT","O","X","XB"],"state":"RI","postal_code":"02916","city":"Rumford","address":"1336 Pawtucket Ave","latitude":41.8377316,"longitude":-71.3484096,"location":"Church Of The Epiphany","region":"East Providence","notes":"Meeting will be held outside when weather permits.","url":"https://rhodeisland-aa.org/archives/meetings/path-to-happiness/","timezone":"America/New_York"},{"feed":"rhodeisland-aa.org","slug":"early-bird","name":"Early Bird","day":1,"time":"10:30","end_time":"11:30","types":["D","EN","O"],"state":"RI","postal_code":"02895","city":"Woonsocket","address":"414 S Main St","latitude":41.995245,"longitude":-71.5231997,"location":"Holy Family Church","region":"Woonsocket","url":"https://rhodeisland-aa.org/archives/meetings/early-bird/","timezone":"America/New_York"},{"feed":"rhodeisland-aa.org","slug":"teddys-beach-2","name":"Teddys Beach","day":1,"time":"10:30","end_time":"11:30","types":["D","EN","O"],"state":"RI","postal_code":"02871","city":"Portsmouth","address":"710 Park Ave","latitude":41.6248302,"longitude":-71.2206304,"location":"Teddy's Beach Island Park","region":"Portsmouth","url":"https://rhodeisland-aa.org/archives/meetings/teddys-beach-2/","timezone":"America/New_York"},{"feed":"rhodeisland-aa.org","slug":"grupo-un-nuevo-despertar","name":"Grupo Un Nuevo Despertar","day":1,"time":"11:00","end_time":"13:00","types":["D","O","S"],"state":"RI","postal_code":"02909","city":"Providence","address":"233 Manton Ave","latitude":41.8213071,"longitude":-71.4481008,"location":"233 Manton Ave., Providence, RI , 02909,USA","region":"Providence","url":"https://rhodeisland-aa.org/archives/meetings/grupo-un-nuevo-despertar/","timezone":"America/New_York"},{"feed":"rhodeisland-aa.org","slug":"12-golden-steps","name":"12 Golden Steps","day":1,"time":"12:00","end_time":"13:00","types":["EN","O","ST"],"state":"RI","postal_code":"02895","city":"Woonsocket","address":"414 S Main St","latitude":41.995245,"longitude":-71.5231997,"location":"Holy Family Church","region":"Woonsocket","url":"https://rhodeisland-aa.org/archives/meetings/12-golden-steps/","timezone":"America/New_York"},{"feed":"rhodeisland-aa.org","slug":"aa-meeting-8","name":"Lunchtime AA","day":1,"time":"12:00","end_time":"13:00","types":["D","EN","O"],"state":"RI","postal_code":"02886","city":"Warwick","address":"389 Greenwich Ave","latitude":41.7234026,"longitude":-71.4697769,"location":"St. Pauls Lutheran Church","region":"Warwick","url":"https://rhodeisland-aa.org/archives/meetings/aa-meeting-8/","timezone":"America/New_York"},{"feed":"rhodeisland-aa.org","slug":"happy-joyous-free-3","name":"Happy Joyous & Free","day":1,"time":"12:00","end_time":"13:00","types":["D","O","SP"],"state":"RI","postal_code":"02840","city":"Newport","address":"525 Broadway","latitude":41.5049029,"longitude":-71.3014901,"location":"St. Peters Lutheran Church","region":"Newport","url":"https://rhodeisland-aa.org/archives/meetings/happy-joyous-free-3/","timezone":"America/New_York"},{"feed":"rhodeisland-aa.org","slug":"lunch-bunch-nooners","name":"Lunch Bunch Nooners","day":1,"time":"12:00","end_time":"13:00","types":["D","EN","LIT","O","X","XB","ONL"],"state":"RI","postal_code":"02842","city":"Middletown","address":"770 Aquidneck Ave","latitude":41.5088414,"longitude":-71.2830128,"location":"Y.A.N.A Club","region":"Middletown","notes":"Zoom Meeting ID: 780768178","conference_url":"https://us04web.zoom.us/j/780768178","url":"https://rhodeisland-aa.org/archives/meetings/lunch-bunch-nooners/","timezone":"America/New_York"},{"feed":"rhodeisland-aa.org","slug":"rule-62","name":"Rule 62","day":1,"time":"12:00","end_time":"13:00","types":["D","O","ONL"],"state":"RI","city":"East Providence","latitude":41.8137116,"longitude":-71.3700545,"location":"Rhode Island","region":"East Providence","notes":"Zoom meeting ID :7562188223\u00a0 Password: aahorse","conference_url":"https://us04web.zoom.us/j/7562188223","url":"https://rhodeisland-aa.org/archives/meetings/rule-62/","timezone":"America/New_York"},{"feed":"rhodeisland-aa.org","slug":"seeds-of-hope","name":"Seeds Of Hope","day":1,"time":"12:00","end_time":"13:00","types":["B","D","EN","O","X","XB"],"state":"RI","postal_code":"02914","city":"East Providence","address":"145 Taunton Ave","latitude":41.819404,"longitude":-71.3762621,"location":"East Providence City Hall","region":"East Providence","url":"https://rhodeisland-aa.org/archives/meetings/seeds-of-hope/","timezone":"America/New_York"},{"feed":"rhodeisland-aa.org","slug":"united-in-sobriety","name":"United In Sobriety","day":1,"time":"12:00","end_time":"13:00","types":["B","O","X","XB","EN"],"state":"RI","postal_code":"02906","city":"Providence","address":"50 Orchard Ave","latitude":41.8323211,"longitude":-71.3858112,"location":"St Martin's Church","region":"Providence","notes":"3rd Flooor(Elevator)","url":"https://rhodeisland-aa.org/archives/meetings/united-in-sobriety/","timezone":"America/New_York"},{"feed":"rhodeisland-aa.org","slug":"friends-of-bill-w","name":"Friends of Bill W","day":1,"time":"12:30","end_time":"13:30","types":["C","D","EN"],"state":"RI","postal_code":"02852","city":"North Kingstown","address":"44 Main St","latitude":41.5718019,"longitude":-71.4508312,"location":"First Baptist Church","region":"North Kingstown","url":"https://rhodeisland-aa.org/archives/meetings/friends-of-bill-w/","timezone":"America/New_York"},{"feed":"rhodeisland-aa.org","slug":"just-for-today-5","name":"Just For Today","day":1,"time":"12:30","end_time":"13:30","types":["D","EN","O","X","XB"],"state":"RI","postal_code":"02882","city":"Narragansett","address":"32 Avice St","latitude":41.4321739,"longitude":-71.4783798,"location":"Anchor Christian Fellowship","region":"Narragansett","url":"https://rhodeisland-aa.org/archives/meetings/just-for-today-5/","timezone":"America/New_York"},{"feed":"rhodeisland-aa.org","slug":"tuckertown-park","name":"Tuckertown Park","day":1,"time":"13:00","end_time":"14:00","types":["DR","O","OUT","EN"],"state":"RI","postal_code":"02879","city":"South Kingstown","address":"1268 Tuckertown Rd","latitude":41.427074,"longitude":-71.554556,"location":"Tuckertown Park","region":"South Kingstown","url":"https://rhodeisland-aa.org/archives/meetings/tuckertown-park/","timezone":"America/New_York"},{"feed":"rhodeisland-aa.org","slug":"aa-open-discussion","name":"AA Open Discussion","day":1,"time":"14:00","end_time":"15:00","types":["D","O","EN"],"state":"RI","postal_code":"02840","city":"Newport","address":"40 Dr Marcus Wheatland Blvd","latitude":41.4931001,"longitude":-71.3119661,"location":"Community Housing Resource Center","region":"Newport","url":"https://rhodeisland-aa.org/archives/meetings/aa-open-discussion/","timezone":"America/New_York"},{"feed":"rhodeisland-aa.org","slug":"pause-a-while-via-phone-2","name":"Pause A While ( via Phone)","day":1,"time":"14:00","end_time":"15:00","types":["D","EN","ONL"],"state":"RI","city":"Warwick","latitude":41.7001009,"longitude":-71.4161671,"location":"Rhode Island","region":"Warwick","notes":"Call 1-425-436-6360 Meeting # 422932","url":"https://rhodeisland-aa.org/archives/meetings/pause-a-while-via-phone-2/","timezone":"America/New_York"},{"feed":"rhodeisland-aa.org","slug":"off-shore-4","name":"Off Shore","day":1,"time":"16:30","end_time":"17:30","types":["D","EN","O"],"state":"RI","postal_code":"02807","city":"New Shoreham","address":"21 Water St","latitude":41.1714278,"longitude":-71.5571413,"location":"Harbor Baptist Church","region":"Block Island","url":"https://rhodeisland-aa.org/archives/meetings/off-shore-4/","timezone":"America/New_York"},{"feed":"rhodeisland-aa.org","slug":"expect-a-miracle","name":"Expect A Miracle","day":1,"time":"17:00","end_time":"18:00","types":["D","EN","O"],"state":"RI","postal_code":"02886","city":"Warwick","address":"389 Greenwich Ave","latitude":41.7234026,"longitude":-71.4697769,"location":"St. Pauls Lutheran Church","region":"Warwick","url":"https://rhodeisland-aa.org/archives/meetings/expect-a-miracle/","timezone":"America/New_York"},{"feed":"rhodeisland-aa.org","slug":"comuter-group","name":"Commuter Group","day":1,"time":"17:30","end_time":"18:30","types":["D","EN","O"],"state":"RI","postal_code":"02878","city":"Tiverton","address":"265 Stafford Rd","latitude":41.6554547,"longitude":-71.1525905,"location":"St. Theresa's Church","region":"Tiverton","url":"https://rhodeisland-aa.org/archives/meetings/comuter-group/","timezone":"America/New_York"},{"feed":"rhodeisland-aa.org","slug":"sought-through-prayer-meditation","name":"Sought through Prayer & Meditation","day":1,"time":"17:30","end_time":"18:30","types":["11","D","EN","O","X","XB"],"state":"RI","postal_code":"02891","city":"Westerly","address":"12 High St","latitude":41.3781318,"longitude":-71.8305198,"location":"Hope Recovery Center","region":"Westerly","url":"https://rhodeisland-aa.org/archives/meetings/sought-through-prayer-meditation/","timezone":"America/New_York"},{"feed":"rhodeisland-aa.org","slug":"women-and-the-1212","name":"Women and The 12 &12","day":1,"time":"17:45","end_time":"18:45","types":["12x12","C","W","EN"],"state":"RI","postal_code":"02885","city":"Warren","address":"221 Main St","latitude":41.7348395,"longitude":-71.2839336,"location":"St. Alexander's Church","region":"Warren","notes":"Tradition last Monday of the month","url":"https://rhodeisland-aa.org/archives/meetings/women-and-the-1212/","timezone":"America/New_York"},{"feed":"rhodeisland-aa.org","slug":"chariho-big-book-study","name":"Chariho Big Book Study","day":1,"time":"18:00","end_time":"19:00","types":["B","EN","O","ST"],"state":"RI","postal_code":"02808","city":"Bradford","address":"80 Alton Bradford Rd","latitude":41.4140084,"longitude":-71.7400749,"location":"Chariho Southern Baptist Church","region":"Bradford","url":"https://rhodeisland-aa.org/archives/meetings/chariho-big-book-study/","timezone":"America/New_York"},{"feed":"rhodeisland-aa.org","slug":"circle-of-sisters","name":"Circle Of Sisters","day":1,"time":"18:00","end_time":"19:00","types":["DR","EN","O","W","ONL"],"state":"RI","latitude":41.5800945,"longitude":-71.4774291,"location":"Rhode Island","region":"Rhode Island","notes":"Zoom ID: 264 658 3035 Password q6S9WG","conference_url":"https://us02web.zoom.us/j/2646583035","url":"https://rhodeisland-aa.org/archives/meetings/circle-of-sisters/","timezone":"America/New_York"},{"feed":"rhodeisland-aa.org","slug":"garden-city-beginners","name":"Garden City Beginners","day":1,"time":"18:00","end_time":"19:00","types":["D","EN","BE","O"],"state":"RI","postal_code":"02920","city":"Cranston","address":"30 Jackson Rd","latitude":41.7680304,"longitude":-71.4582751,"location":"Woodridge Congregational Church","region":"Cranston","url":"https://rhodeisland-aa.org/archives/meetings/garden-city-beginners/","timezone":"America/New_York"},{"feed":"rhodeisland-aa.org","slug":"heard-it-through-the-grapevine","name":"Heard It Through The Grapevine","day":1,"time":"18:00","end_time":"19:00","types":["D","EN","GR","LIT","O","X","XB","W"],"state":"RI","postal_code":"02882","city":"Narragansett","address":"32 Avice St","latitude":41.4321739,"longitude":-71.4783798,"location":"Anchor Christian Fellowship","region":"Narragansett","url":"https://rhodeisland-aa.org/archives/meetings/heard-it-through-the-grapevine/","timezone":"America/New_York"},{"feed":"rhodeisland-aa.org","slug":"pass-it-on","name":"Pass It On","day":1,"time":"18:00","end_time":"19:00","types":["C","D","EN"],"state":"RI","postal_code":"02816","city":"Coventry","address":"170 Fairview Ave","latitude":41.7132303,"longitude":-71.5348849,"location":"Church of The Apostles","region":"Coventry","url":"https://rhodeisland-aa.org/archives/meetings/pass-it-on/","timezone":"America/New_York"},{"feed":"rhodeisland-aa.org","slug":"the-big-book-does-matter","name":"The Big Book Does Matter","day":1,"time":"18:00","end_time":"19:00","types":["B","EN","LIT","O","X"],"state":"RI","postal_code":"02852","city":"North Kingstown","address":"450 Boston Neck Rd","latitude":41.5587366,"longitude":-71.4431552,"location":"United Methodist Church","region":"North Kingstown","url":"https://rhodeisland-aa.org/archives/meetings/the-big-book-does-matter/","timezone":"America/New_York"},{"feed":"rhodeisland-aa.org","slug":"warwick-mall-at-6pm-2-2","name":"Warwick Mall At 6PM","day":1,"time":"18:00","end_time":"19:00","types":["D","O","EN"],"state":"RI","postal_code":"02886","city":"Warwick","address":"400 Bald Hill Rd","latitude":41.7269929,"longitude":-71.4792706,"location":"Warwick Mall (Firestone Parkinglot)","region":"Warwick","url":"https://rhodeisland-aa.org/archives/meetings/warwick-mall-at-6pm-2-2/","timezone":"America/New_York"},{"feed":"rhodeisland-aa.org","slug":"judgment-free","name":"Judgment Free","day":1,"time":"18:30","end_time":"19:30","types":["D","EN","LIT","O","X","XB"],"state":"RI","postal_code":"02909","city":"Providence","address":"5 Bell St","latitude":41.8187969,"longitude":-71.4360916,"location":"Bell Street Chapel","region":"Providence","url":"https://rhodeisland-aa.org/archives/meetings/judgment-free/","timezone":"America/New_York"},{"feed":"rhodeisland-aa.org","slug":"kent-county-apponaug","name":"Kent County/Apponaug","day":1,"time":"18:30","end_time":"19:30","types":["C","D","EN"],"state":"RI","postal_code":"02886","city":"Warwick","address":"389 Greenwich Ave","latitude":41.7234026,"longitude":-71.4697769,"location":"St. Pauls Lutheran Church","region":"Warwick","url":"https://rhodeisland-aa.org/archives/meetings/kent-county-apponaug/","timezone":"America/New_York"},{"feed":"rhodeisland-aa.org","slug":"monday-nigth-mens","name":"Monday Night Mens","day":1,"time":"18:45","end_time":"19:45","types":["C","M","ST","X","XB"],"state":"RI","postal_code":"02879","city":"South Kingstown","address":"236 Main St","latitude":41.4403219,"longitude":-71.496664,"location":"Wakefield Baptist Church","region":"South Kingstown","url":"https://rhodeisland-aa.org/archives/meetings/monday-nigth-mens/","timezone":"America/New_York"},{"feed":"rhodeisland-aa.org","slug":"11th-step-meditation-2","name":"11th Step Meditation","day":1,"time":"19:00","end_time":"20:00","types":["11","O"],"state":"RI","postal_code":"02818","city":"East Greenwich","address":"99 Peirce St","latitude":41.6612865,"longitude":-71.451618,"location":"St. Luke's Church","region":"East Greenwich","url":"https://rhodeisland-aa.org/archives/meetings/11th-step-meditation-2/","timezone":"America/New_York"},{"feed":"rhodeisland-aa.org","slug":"acceptance","name":"Acceptance","day":1,"time":"19:00","end_time":"20:00","types":["O","SP","EN"],"state":"RI","postal_code":"02916","city":"Rumford","address":"125 N Broadway","latitude":41.8370308,"longitude":-71.3579897,"location":"Rumford Grange","region":"East Providence","url":"https://rhodeisland-aa.org/archives/meetings/acceptance/","timezone":"America/New_York"},{"feed":"rhodeisland-aa.org","slug":"bristol-monday-night","name":"Bristol Monday Night","day":1,"time":"19:00","end_time":"20:15","types":["D","EN","LIT","O"],"state":"RI","postal_code":"02809","city":"Bristol","address":"378 Hope St","latitude":41.6689858,"longitude":-71.2757858,"location":"St. Michael's Parish Hall","region":"Bristol","url":"https://rhodeisland-aa.org/archives/meetings/bristol-monday-night/","timezone":"America/New_York"},{"feed":"rhodeisland-aa.org","slug":"garden-city","name":"Garden City","day":1,"time":"19:00","end_time":"20:00","types":["EN","O","SP","ONL"],"state":"RI","postal_code":"02920","city":"Cranston","address":"30 Jackson Rd","latitude":41.7680304,"longitude":-71.4582751,"location":"Woodridge Congregational Church","region":"Cranston","notes":"Zoom Meeting ID: 9334827559 Password: GardenCity","conference_url":"https://us04web.zoom.us/j/9334827559","url":"https://rhodeisland-aa.org/archives/meetings/garden-city/","timezone":"America/New_York"},{"feed":"rhodeisland-aa.org","slug":"grupo-23-de-noviembre-2","name":"Grupo 23 de Noviembre","day":1,"time":"19:00","end_time":"21:00","types":["D","O","S"],"state":"RI","postal_code":"02909","city":"Providence","address":"658 Hartford Ave","latitude":41.8195162,"longitude":-71.4668783,"location":"658 Hartford Ave.,Providence,RI,02909,USA","region":"Providence","url":"https://rhodeisland-aa.org/archives/meetings/grupo-23-de-noviembre-2/","timezone":"America/New_York"},{"feed":"rhodeisland-aa.org","slug":"grupo-international-2","name":"Grupo International","day":1,"time":"19:00","end_time":"21:00","types":["D","O","S"],"state":"RI","postal_code":"02863","city":"Central Falls","address":"468 High St","latitude":41.8861422,"longitude":-71.3840265,"location":"468 High St.,Central Falls, RI, 02863,USA","region":"Central Falls","url":"https://rhodeisland-aa.org/archives/meetings/grupo-international-2/","timezone":"America/New_York"},{"feed":"rhodeisland-aa.org","slug":"grupo-la-derrota-2","name":"Grupo La Derrota","day":1,"time":"19:00","end_time":"21:00","types":["D","O","S"],"state":"RI","postal_code":"02907","city":"Providence","address":"310 Reservoir Ave","latitude":41.7883947,"longitude":-71.4308077,"location":"310 Reservoir Ave., Providence, RI, 02907, USA","region":"Providence","url":"https://rhodeisland-aa.org/archives/meetings/grupo-la-derrota-2/","timezone":"America/New_York"},{"feed":"rhodeisland-aa.org","slug":"homestead-big-book","name":"Homestead Big Book","day":1,"time":"19:00","end_time":"20:30","types":["B","EN","O","ST"],"state":"RI","postal_code":"02896","city":"North Smithfield","address":"25 Greene St","latitude":42.0014582,"longitude":-71.5771244,"location":"Slatersville Congregational Church","region":"North Smithfield","url":"https://rhodeisland-aa.org/archives/meetings/homestead-big-book/","timezone":"America/New_York"},{"feed":"rhodeisland-aa.org","slug":"i-cant-we-can","name":"I Can't We Can","day":1,"time":"19:00","end_time":"20:00","types":["D","EN","O","ONL"],"state":"RI","postal_code":"02879","city":"South Kingstown","address":"370 Main St","latitude":41.4376584,"longitude":-71.4997379,"location":"Church Of the Ascension","region":"South Kingstown","notes":"Zoom Meeting ID: 83349427084 Password :063285","conference_url":"https://zoom.us/j/83349427084","url":"https://rhodeisland-aa.org/archives/meetings/i-cant-we-can/","timezone":"America/New_York"},{"feed":"rhodeisland-aa.org","slug":"just-you-mens-step","name":"Just You Men's Step","day":1,"time":"19:00","end_time":"20:00","types":["C","EN","ST"],"state":"RI","postal_code":"02889","city":"Warwick","address":"1817 Warwick Ave","latitude":41.7264838,"longitude":-71.4060717,"location":"Pilgrim Lutheran Church","region":"Warwick","notes":"Mens","url":"https://rhodeisland-aa.org/archives/meetings/just-you-mens-step/","timezone":"America/New_York"},{"feed":"rhodeisland-aa.org","slug":"monday-night-mens-12-step-workshop","name":"Monday Night Men's 12 Step Workshop","day":1,"time":"19:00","end_time":"20:00","types":["C","EN","M","ST","X","XB"],"state":"RI","postal_code":"02806","city":"Barrington","address":"5 Chapel Rd","latitude":41.7430235,"longitude":-71.3428656,"location":"Sts. Matthew and Mark Church","region":"Barrington","notes":"Zoom Meeting ID: 7847338284\n\nClosed Step","url":"https://rhodeisland-aa.org/archives/meetings/monday-night-mens-12-step-workshop/","timezone":"America/New_York"},{"feed":"rhodeisland-aa.org","slug":"new-beginning-2","name":"New Beginnings","day":1,"time":"19:00","end_time":"20:00","types":["EN","O","SP"],"state":"RI","postal_code":"02860","city":"Pawtucket","address":"91 Cottage St.","latitude":41.8801336,"longitude":-71.3761748,"location":"First Baptist Church","region":"Pawtucket","url":"https://rhodeisland-aa.org/archives/meetings/new-beginning-2/","timezone":"America/New_York"},{"feed":"rhodeisland-aa.org","slug":"new-way-of-life","name":"New Way Of Life","day":1,"time":"19:00","end_time":"20:00","types":["O","SP","X","XB","EN"],"state":"RI","postal_code":"02886","city":"Warwick","address":"389 Greenwich Ave","latitude":41.7234026,"longitude":-71.4697769,"location":"St. Pauls Lutheran Church","region":"Warwick","url":"https://rhodeisland-aa.org/archives/meetings/new-way-of-life/","timezone":"America/New_York"},{"feed":"rhodeisland-aa.org","slug":"sailing-through-sobriety-2","name":"Sailing Through Sobriety","day":1,"time":"19:00","end_time":"20:00","types":["D","EN","BE","O","ONL"],"state":"RI","latitude":41.5800945,"longitude":-71.4774291,"location":"Rhode Island","region":"Rhode Island","notes":"Zoom ID: 852 918 63983 Password: Hope","conference_url":"https://us04web.zoom.us/j/85291863983","url":"https://rhodeisland-aa.org/archives/meetings/sailing-through-sobriety-2/","timezone":"America/New_York"},{"feed":"rhodeisland-aa.org","slug":"saturday-night-live","name":"Magnificent Reality","day":1,"time":"19:00","end_time":"20:00","types":["12x12","D","EN","O"],"state":"RI","postal_code":"02906","city":"Providence","address":"500 Hope St","latitude":41.8401352,"longitude":-71.3998327,"location":"Providence Presbyterian Church","region":"Providence","url":"https://rhodeisland-aa.org/archives/meetings/saturday-night-live/","timezone":"America/New_York"},{"feed":"rhodeisland-aa.org","slug":"westerly-first-step","name":"Westerly First Step","day":1,"time":"19:00","end_time":"20:00","types":["EN","BE","O","ST","X","XB"],"state":"RI","postal_code":"02891","city":"Westerly","address":"39 State St","latitude":41.3651868,"longitude":-71.8253998,"location":"Westerly Senior Center","region":"Westerly","url":"https://rhodeisland-aa.org/archives/meetings/westerly-first-step/","timezone":"America/New_York"},{"feed":"rhodeisland-aa.org","slug":"westerly-pawcatuck-2","name":"Westerly/Pawcatuck","day":1,"time":"19:00","end_time":"20:00","types":["D","EN","O","ONL"],"state":"RI","city":"Westerly","latitude":41.3775987,"longitude":-71.8272871,"location":"Rhode Island","region":"Westerly","notes":"Zoom Meeting ID: 5188102959\u00a0Password: 392958","conference_url":"https://us04web.zoom.us/j/5188102959","url":"https://rhodeisland-aa.org/archives/meetings/westerly-pawcatuck-2/","timezone":"America/New_York"},{"feed":"rhodeisland-aa.org","slug":"monday-night-big-book","name":"Monday Night Big Book","day":1,"time":"19:15","end_time":"20:15","types":["B","EN","O"],"state":"RI","postal_code":"02906","city":"Providence","address":"201 Pitman St","latitude":41.8263345,"longitude":-71.3853094,"location":"Salvation Army","region":"Providence","url":"https://rhodeisland-aa.org/archives/meetings/monday-night-big-book/","timezone":"America/New_York"},{"feed":"rhodeisland-aa.org","slug":"country-pines","name":"Country Pines","day":1,"time":"19:30","end_time":"20:30","types":["C","D","EN"],"state":"RI","postal_code":"02857","city":"Scituate","address":"249 Danielson Pike","latitude":41.8329503,"longitude":-71.5980567,"location":"Trinity Church","region":"North Scituate","url":"https://rhodeisland-aa.org/archives/meetings/country-pines/","timezone":"America/New_York"},{"feed":"rhodeisland-aa.org","slug":"drunk-squad","name":"Drunk Squad","day":1,"time":"19:30","end_time":"20:30","types":["D","EN","O","X"],"state":"RI","postal_code":"02852","city":"North Kingstown","address":"450 Boston Neck Rd","latitude":41.5587366,"longitude":-71.4431552,"location":"United Methodist Church","region":"North Kingstown","url":"https://rhodeisland-aa.org/archives/meetings/drunk-squad/","timezone":"America/New_York"},{"feed":"rhodeisland-aa.org","slug":"into-action","name":"Into Action","day":1,"time":"19:30","end_time":"20:30","types":["D","EN","O"],"state":"RI","postal_code":"02842","city":"Middletown","address":"524 Valley Rd","latitude":41.5050231,"longitude":-71.2885809,"location":"United Congregational Church","region":"Middletown","url":"https://rhodeisland-aa.org/archives/meetings/into-action/","timezone":"America/New_York"},{"feed":"rhodeisland-aa.org","slug":"its-never-too-early","name":"It's Never too Early","day":1,"time":"19:30","end_time":"20:30","types":["C","D","EN","X","Y"],"state":"RI","postal_code":"02886","city":"Warwick","address":"765 Commonwealth Ave","latitude":41.6985389,"longitude":-71.4797192,"location":"First Baptist Church","region":"Warwick","url":"https://rhodeisland-aa.org/archives/meetings/its-never-too-early/","timezone":"America/New_York"},{"feed":"rhodeisland-aa.org","slug":"monday-night-step","name":"Monday Night Step","day":1,"time":"19:30","end_time":"20:30","types":["C","EN","ST"],"state":"RI","postal_code":"02852","city":"North Kingstown","address":"76 Main St","latitude":41.5721361,"longitude":-71.4495325,"location":"St. Paul's Church","region":"North Kingstown","url":"https://rhodeisland-aa.org/archives/meetings/monday-night-step/","timezone":"America/New_York"},{"feed":"rhodeisland-aa.org","slug":"reflections-in-sobriety","name":"Reflections in Sobriety","day":1,"time":"19:30","end_time":"20:30","types":["D","EN","O"],"state":"RI","postal_code":"02911","city":"North Providence","address":"545 Woonasquatucket Ave","latitude":41.8527391,"longitude":-71.4806522,"location":"Allendale Baptist Church","region":"North Providence","url":"https://rhodeisland-aa.org/archives/meetings/reflections-in-sobriety/","timezone":"America/New_York"},{"feed":"rhodeisland-aa.org","slug":"responsible","name":"Responsible","day":1,"time":"19:30","end_time":"20:30","types":["D","EN","O","SP"],"state":"RI","postal_code":"02905","city":"Cranston","address":"139 Ocean Ave","latitude":41.7676716,"longitude":-71.3899296,"location":"Trinity Episcopal Church","region":"Cranston","url":"https://rhodeisland-aa.org/archives/meetings/responsible/","timezone":"America/New_York"},{"feed":"rhodeisland-aa.org","slug":"saylesville-monday-night","name":"Saylesville Monday Night","day":1,"time":"19:30","end_time":"20:30","types":["C","EN","LIT"],"state":"RI","postal_code":"02865","city":"Lincoln","address":"185 Chapel St","latitude":41.8980782,"longitude":-71.4121714,"location":"Chapel St. Congregational Ch.","region":"Lincoln","url":"https://rhodeisland-aa.org/archives/meetings/saylesville-monday-night/","timezone":"America/New_York"},{"feed":"rhodeisland-aa.org","slug":"st-pius","name":"St. Pius","day":1,"time":"19:30","end_time":"20:30","types":["EN","LIT","O"],"state":"RI","postal_code":"02908","city":"Providence","address":"67 Roslyn Ave","latitude":41.840979,"longitude":-71.4357974,"location":"St. Pius Church","region":"Providence","url":"https://rhodeisland-aa.org/archives/meetings/st-pius/","timezone":"America/New_York"},{"feed":"rhodeisland-aa.org","slug":"steps-to-the-summit","name":"Steps to the Summit","day":1,"time":"19:30","end_time":"20:30","types":["EN","O","ST"],"state":"RI","postal_code":"02827","city":"Coventry","address":"1176 Victory Hwy","latitude":41.6958489,"longitude":-71.6928504,"location":"Summit Baptist Church","region":"Coventry","url":"https://rhodeisland-aa.org/archives/meetings/steps-to-the-summit/","timezone":"America/New_York"},{"feed":"rhodeisland-aa.org","slug":"unity","name":"Unity","day":1,"time":"19:30","end_time":"20:30","types":["EN","O","SP"],"state":"RI","postal_code":"02895","city":"Woonsocket","address":"94 Carrington Ave","latitude":42.001638,"longitude":-71.5076189,"location":"Precious Blood Church Hall","region":"Woonsocket","url":"https://rhodeisland-aa.org/archives/meetings/unity/","timezone":"America/New_York"},{"feed":"rhodeisland-aa.org","slug":"aa8-2","name":"AA@8","day":1,"time":"20:00","end_time":"21:00","types":["D","EN","O","ST","ONL"],"state":"RI","city":"Providence","latitude":41.8239891,"longitude":-71.4128343,"location":"Rhode Island","region":"Providence","notes":"Zoom ID: 94163128231 Password: AAat8","conference_url":"https://zoom.us/j/94163128231","url":"https://rhodeisland-aa.org/archives/meetings/aa8-2/","timezone":"America/New_York"},{"feed":"rhodeisland-aa.org","slug":"basic-young-peoples","name":"Basic Young Peoples","day":1,"time":"20:00","end_time":"21:00","types":["D","EN","O","X","XB","Y"],"state":"RI","postal_code":"02906","city":"Providence","address":"1 Benevolent St","latitude":41.8244011,"longitude":-71.4049352,"location":"First Unitarian Church","region":"Providence","url":"https://rhodeisland-aa.org/archives/meetings/basic-young-peoples/","timezone":"America/New_York"},{"feed":"rhodeisland-aa.org","slug":"the-fifth-dimension-2","name":"The Fifth Dimension","day":1,"time":"21:30","end_time":"22:30","types":["D","EN","O","SP","Y","ONL"],"state":"RI","city":"Providence","latitude":41.8239891,"longitude":-71.4128343,"location":"Rhode Island","region":"Providence","notes":"Zoom Meeting ID :687118144\n\nYoung Peoples","conference_url":"https://us02web.zoom.us/j/687118144","url":"https://rhodeisland-aa.org/archives/meetings/the-fifth-dimension-2/","timezone":"America/New_York"},{"feed":"rhodeisland-aa.org","slug":"sobriety-fix-at-six-3","name":"Sobriety Fix at Six","day":2,"time":"06:00","end_time":"07:00","types":["C","D","EN","ONL"],"state":"RI","city":"Providence","latitude":41.8239891,"longitude":-71.4128343,"location":"Rhode Island","region":"Providence","notes":"Zoom Meeting ID: 826 7995 7479 Password: sixsix\n\nDaily Reflection","conference_url":"https://us04web.zoom.us/j/82679957479","url":"https://rhodeisland-aa.org/archives/meetings/sobriety-fix-at-six-3/","timezone":"America/New_York"},{"feed":"rhodeisland-aa.org","slug":"breakfast-with-bill-3","name":"Breakfast With Bill","day":2,"time":"07:00","end_time":"08:00","types":["LIT","O","EN","ONL"],"state":"RI","postal_code":"02903","city":"Providence","address":"71 Traverse St","latitude":41.818384,"longitude":-71.3990034,"location":"Our Lady of the Rosary Church","region":"Providence","notes":"Zoom Meeting ID :87035927804\n\"To get a link to BWB zoom send an email to breakfastwithbillpvd@gmail.com with 'zoom pw' in the subject line. The link to the meeting will be immediately emailed back to you.\"","conference_url":"https://us02web.zoom.us/j/87035927804","url":"https://rhodeisland-aa.org/archives/meetings/breakfast-with-bill-3/","timezone":"America/New_York"},{"feed":"rhodeisland-aa.org","slug":"clean-and-sober-2","name":"Clean and Sober","day":2,"time":"07:00","end_time":"08:00","types":["D","EN","O","X","XB"],"state":"RI","postal_code":"02842","city":"Middletown","address":"55 Vaucluse Ave","latitude":41.5070828,"longitude":-71.2421428,"location":"St. Columba's Parish Hall","region":"Middletown","url":"https://rhodeisland-aa.org/archives/meetings/clean-and-sober-2/","timezone":"America/New_York"},{"feed":"rhodeisland-aa.org","slug":"daily-reflections-2","name":"Daily Reflections","day":2,"time":"07:00","end_time":"08:00","types":["DR","D","O","X","XB","EN"],"state":"RI","postal_code":"02879","city":"South Kingstown","address":"27 North Road","latitude":41.4528171,"longitude":-71.4960256,"location":"Unitarian Universalist","region":"South Kingstown","url":"https://rhodeisland-aa.org/archives/meetings/daily-reflections-2/","timezone":"America/New_York"},{"feed":"rhodeisland-aa.org","slug":"daily-reflections-8-3","name":"Daily Reflections Virtual","day":2,"time":"07:00","end_time":"08:00","types":["D","EN","O","ONL"],"state":"RI","city":"South Kingstown","latitude":41.4475686,"longitude":-71.524667,"location":"Rhode Island","region":"South Kingstown","notes":"Zoom Meeting ID: 813 4355 8191","conference_url":"https://us04web.zoom.us/j/81343558191","url":"https://rhodeisland-aa.org/archives/meetings/daily-reflections-8-3/","timezone":"America/New_York"},{"feed":"rhodeisland-aa.org","slug":"early-risers-2","name":"Early Risers","day":2,"time":"07:00","end_time":"08:00","types":["DR","EN","O"],"state":"RI","postal_code":"02878","city":"Tiverton","address":"35 Lake Rd","latitude":41.5708531,"longitude":-71.1584286,"location":"St Madeline's Church","region":"Tiverton","url":"https://rhodeisland-aa.org/archives/meetings/early-risers-2/","timezone":"America/New_York"},{"feed":"rhodeisland-aa.org","slug":"east-bay-sunrise-2","name":"East Bay Sunrise","day":2,"time":"07:00","end_time":"08:00","types":["DR","EN","O","X","XB"],"state":"RI","postal_code":"02885","city":"Warren","address":"514 Main St","latitude":41.7290038,"longitude":-71.2818381,"location":"Warren Town Hall","region":"Warren","url":"https://rhodeisland-aa.org/archives/meetings/east-bay-sunrise-2/","timezone":"America/New_York"},{"feed":"rhodeisland-aa.org","slug":"footprint","name":"Footprints","day":2,"time":"07:00","end_time":"08:00","types":["D","O","OUT","EN"],"state":"RI","postal_code":"02865","city":"Lincoln","address":"2 Manchester Print Works Rd","latitude":41.9035758,"longitude":-71.4226839,"location":"Lincoln Woods State Park","region":"Lincoln","url":"https://rhodeisland-aa.org/archives/meetings/footprint/","timezone":"America/New_York"},{"feed":"rhodeisland-aa.org","slug":"hope-at-seven-2","name":"A New Hope at Seven","day":2,"time":"07:00","end_time":"08:00","types":["EN","LIT","O","X","XB"],"state":"RI","postal_code":"02840","city":"Newport","address":"18 Market Square","latitude":41.4868242,"longitude":-71.3158185,"location":"Seamen's Church Institute","region":"Newport","url":"https://rhodeisland-aa.org/archives/meetings/hope-at-seven-2/","timezone":"America/New_York"},{"feed":"rhodeisland-aa.org","slug":"hope-group-online-2","name":"Hope Group Online","day":2,"time":"07:00","end_time":"08:00","types":["D","EN","O","ONL"],"state":"RI","postal_code":"02885","city":"Warren","latitude":41.7303793,"longitude":-71.2825493,"location":"Rhode Island","region":"Warren","notes":"Zoom Meeting ID: 992 2571 8003 Password: 654321","conference_url":"https://us02web.zoom.us/j/99225718003","url":"https://rhodeisland-aa.org/archives/meetings/hope-group-online-2/","timezone":"America/New_York"},{"feed":"rhodeisland-aa.org","slug":"spritual-awakening-3","name":"Spiritual Awakening","day":2,"time":"07:00","end_time":"08:00","types":["D","EN","O","ONL"],"state":"RI","postal_code":"02882","city":"Narragansett","address":"39 Boston Neck Rd","latitude":41.435472,"longitude":-71.4557559,"location":"Narragansett Town Beach","region":"Narragansett","conference_url":"https://zoom.us/j/540262249","url":"https://rhodeisland-aa.org/archives/meetings/spritual-awakening-3/","timezone":"America/New_York"},{"feed":"rhodeisland-aa.org","slug":"westerly-pawcatuck-3","name":"Westerly/Pawcatuck","day":2,"time":"07:00","end_time":"08:00","types":["D","EN","O","ONL"],"state":"RI","city":"Westerly","latitude":41.3775987,"longitude":-71.8272871,"location":"Rhode Island","region":"Westerly","notes":"Zoom Meeting ID: 5188102959\u00a0Password: 392958","conference_url":"https://us04web.zoom.us/j/5188102959","url":"https://rhodeisland-aa.org/archives/meetings/westerly-pawcatuck-3/","timezone":"America/New_York"},{"feed":"rhodeisland-aa.org","slug":"24-hours-a-day-morning-meeting-2","name":"24 Hours A Day Morning Meeting","day":2,"time":"07:30","end_time":"08:30","types":["D","LIT","O","EN"],"state":"RI","postal_code":"02891","city":"Westerly","address":"20 Elm St","latitude":41.3746666,"longitude":-71.8284042,"location":"Franklin Lodge","region":"Westerly","url":"https://rhodeisland-aa.org/archives/meetings/24-hours-a-day-morning-meeting-2/","timezone":"America/New_York"},{"feed":"rhodeisland-aa.org","slug":"aa-in-the-am-4","name":"AA In The AM","day":2,"time":"07:30","end_time":"08:30","types":["DR","EN","O","X","XB"],"state":"RI","postal_code":"02891","city":"Westerly","address":"39 State St","latitude":41.3651868,"longitude":-71.8253998,"location":"Westerly Senior Center","region":"Westerly","url":"https://rhodeisland-aa.org/archives/meetings/aa-in-the-am-4/","timezone":"America/New_York"},{"feed":"ct-aa.org","slug":"aa-in-the-am-group-3","name":"A.A. in the A.M. Group","day":2,"time":"07:30","end_time":"08:30","types":["DR","D","O","X","XB"],"state":"RI","postal_code":"02891","city":"Westerly","address":"39 State St","latitude":41.3651868,"longitude":-71.8253998,"location":"Westerly Senior Citizens Center","region":"Westerly","notes":"Lot Door, Daily Reflections","url":"https://ct-aa.org/meetings/aa-in-the-am-group-3","group":"RI Group #","timezone":"America/New_York"},{"feed":"rhodeisland-aa.org","slug":"aa-meeting-10","name":"Early Bird","day":2,"time":"08:00","end_time":"09:00","types":["D","EN","O"],"state":"RI","postal_code":"02886","city":"Warwick","address":"389 Greenwich Ave","latitude":41.7234026,"longitude":-71.4697769,"location":"St. Pauls Lutheran Church","region":"Warwick","url":"https://rhodeisland-aa.org/archives/meetings/aa-meeting-10/","timezone":"America/New_York"},{"feed":"rhodeisland-aa.org","slug":"aa-today-2","name":"AA Today","day":2,"time":"08:00","end_time":"09:00","types":["DR","EN","O"],"state":"RI","postal_code":"02906","city":"Providence","address":"201 Pitman St","latitude":41.8263345,"longitude":-71.3853094,"location":"Salvation Army","region":"Providence","url":"https://rhodeisland-aa.org/archives/meetings/aa-today-2/","timezone":"America/New_York"},{"feed":"rhodeisland-aa.org","slug":"early-bird-ii-2","name":"Early Bird II","day":2,"time":"08:00","end_time":"09:00","types":["D","EN","O","ONL"],"state":"RI","city":"Warwick","latitude":41.7001009,"longitude":-71.4161671,"location":"Rhode Island","region":"Warwick","notes":"Zoom Meeting ID:89226046602 Password: 02886","conference_url":"https://us04web.zoom.us/j/89226046602","url":"https://rhodeisland-aa.org/archives/meetings/early-bird-ii-2/","timezone":"America/New_York"},{"feed":"rhodeisland-aa.org","slug":"early-bird-via-phone-2","name":"Early Bird (via Phone)","day":2,"time":"08:00","end_time":"09:00","types":["D","EN","O","ONL"],"state":"RI","city":"Warwick","latitude":41.7001009,"longitude":-71.4161671,"location":"Rhode Island","region":"Warwick","notes":"Call 347-817-2790 Meeting # 1465543","url":"https://rhodeisland-aa.org/archives/meetings/early-bird-via-phone-2/","timezone":"America/New_York"},{"feed":"rhodeisland-aa.org","slug":"fellowship-in-the-morning","name":"Fellowship In The Morning","day":2,"time":"08:00","end_time":"09:00","types":["D","EN","O"],"state":"RI","postal_code":"02852","city":"North Kingstown","address":"1135 Tower Hill Rd","latitude":41.5456887,"longitude":-71.4682232,"location":"First Baptist Church Of No. Kingstown","region":"North Kingstown","url":"https://rhodeisland-aa.org/archives/meetings/fellowship-in-the-morning/","timezone":"America/New_York"},{"feed":"rhodeisland-aa.org","slug":"little-compton-zoom-at-8am-3","name":"Little Compton Zoom at 8AM","day":2,"time":"08:00","end_time":"09:00","types":["EN","O","SP","ONL"],"state":"RI","city":"Little Compton","latitude":41.5101032,"longitude":-71.1711563,"location":"Rhode Island","region":"Little Compton","notes":"Zoom Meeting ID:902 841 9801","conference_url":"https://zoom.us/j/9028419801","url":"https://rhodeisland-aa.org/archives/meetings/little-compton-zoom-at-8am-3/","timezone":"America/New_York"},{"feed":"rhodeisland-aa.org","slug":"primary-purpose","name":"Primary Purpose","day":2,"time":"09:00","end_time":"10:00","types":["C","DR","D","ONL"],"state":"RI","city":"Hopkinton","latitude":41.4612719,"longitude":-71.7775501,"location":"Hopkington, RI","region":"Hopkinton","notes":"Zoom Meeting ID: 642 812 5775","conference_url":"https://zoom.us/j/6428125775","url":"https://rhodeisland-aa.org/archives/meetings/primary-purpose/","timezone":"America/New_York"},{"feed":"rhodeisland-aa.org","slug":"aa-in-the-am-5","name":"A Better Tomorrow","day":2,"time":"10:00","end_time":"11:00","types":["DR","O","EN"],"state":"RI","postal_code":"02914","city":"East Providence","address":"200 Taunton Ave","latitude":41.8199887,"longitude":-71.3743813,"location":"Haven Methodist Church","region":"East Providence","url":"https://rhodeisland-aa.org/archives/meetings/aa-in-the-am-5/","timezone":"America/New_York"},{"feed":"ct-aa.org","slug":"alive-again-2","name":"Alive Again","day":2,"time":"10:00","end_time":"11:00","state":"RI","postal_code":"02891","city":"Westerly","address":"20 Elm St","latitude":41.3747202,"longitude":-71.8285501,"location":"Masonic Lodge","region":"Westerly","url":"https://ct-aa.org/meetings/alive-again-2","timezone":"America/New_York"},{"feed":"rhodeisland-aa.org","slug":"just-for-today-3","name":"Just For Today","day":2,"time":"10:00","end_time":"11:00","types":["D","EN","O"],"state":"RI","postal_code":"02840","city":"Newport","address":"12 Marlborough St","latitude":41.4913012,"longitude":-71.3145692,"location":"St. Paul's Church","region":"Newport","url":"https://rhodeisland-aa.org/archives/meetings/just-for-today-3/","timezone":"America/New_York"},{"feed":"rhodeisland-aa.org","slug":"keep-it-simple-4","name":"Keep It Simple","day":2,"time":"10:00","end_time":"11:00","types":["DR","EN","O","ONL"],"state":"RI","city":"Warwick","latitude":41.7001009,"longitude":-71.4161671,"location":"Rhode Island","region":"Warwick","notes":"Zoom Meeting ID: 87009525940 Password: 408755","conference_url":"https://us04web.zoom.us/j/87009525940","url":"https://rhodeisland-aa.org/archives/meetings/keep-it-simple-4/","timezone":"America/New_York"},{"feed":"rhodeisland-aa.org","slug":"keep-it-simple-live-2","name":"Keep It Simple Live","day":2,"time":"10:00","end_time":"11:00","types":["D","EN","O"],"state":"RI","postal_code":"02886","city":"Warwick","address":"2845 Post Rd","latitude":41.7074796,"longitude":-71.4522534,"location":"Southern Rhode Island Intergroup (Craik Bldg.)","region":"Warwick","url":"https://rhodeisland-aa.org/archives/meetings/keep-it-simple-live-2/","timezone":"America/New_York"},{"feed":"rhodeisland-aa.org","slug":"lost-and-found-2","name":"Lost and Found","day":2,"time":"10:00","end_time":"11:00","types":["B","C","D","EN"],"state":"RI","postal_code":"02818","city":"East Greenwich","address":"119 Kenyon Ave","latitude":41.6605274,"longitude":-71.460834,"location":"Westminster Unitarian Church","region":"East Greenwich","url":"https://rhodeisland-aa.org/archives/meetings/lost-and-found-2/","timezone":"America/New_York"},{"feed":"rhodeisland-aa.org","slug":"new-day-at-a-time","name":"New Day At A Time","day":2,"time":"10:00","end_time":"11:00","types":["D","EN","O","SP","X","XB"],"state":"RI","postal_code":"02860","city":"Pawtucket","address":"301 Main St","latitude":41.8784695,"longitude":-71.3866123,"location":"Northern Plaza Bldg.","region":"Pawtucket","url":"https://rhodeisland-aa.org/archives/meetings/new-day-at-a-time/","timezone":"America/New_York"},{"feed":"rhodeisland-aa.org","slug":"path-to-happiness-2","name":"Path To Happiness","day":2,"time":"10:00","end_time":"11:00","types":["D","EN","LIT","O","X","XB"],"state":"RI","postal_code":"02916","city":"Rumford","address":"1336 Pawtucket Ave","latitude":41.8377316,"longitude":-71.3484096,"location":"Church Of The Epiphany","region":"East Providence","notes":"Meeting will be held outside when weather permits.","url":"https://rhodeisland-aa.org/archives/meetings/path-to-happiness-2/","timezone":"America/New_York"},{"feed":"rhodeisland-aa.org","slug":"the-big-red-group","name":"The Big Red Group","day":2,"time":"10:00","end_time":"11:00","types":["B","EN","O","X","XB"],"state":"RI","postal_code":"02879","city":"South Kingstown","address":"236 Main St","latitude":41.4403219,"longitude":-71.496664,"location":"Wakefield Baptist Church","region":"South Kingstown","url":"https://rhodeisland-aa.org/archives/meetings/the-big-red-group/","timezone":"America/New_York"},{"feed":"rhodeisland-aa.org","slug":"early-bird-2","name":"Early Bird","day":2,"time":"10:30","end_time":"11:30","types":["D","EN","O"],"state":"RI","postal_code":"02895","city":"Woonsocket","address":"414 S Main St","latitude":41.995245,"longitude":-71.5231997,"location":"Holy Family Church","region":"Woonsocket","url":"https://rhodeisland-aa.org/archives/meetings/early-bird-2/","timezone":"America/New_York"},{"feed":"rhodeisland-aa.org","slug":"teddys-beach-3","name":"Teddys Beach","day":2,"time":"10:30","end_time":"11:30","types":["D","EN","O"],"state":"RI","postal_code":"02871","city":"Portsmouth","address":"710 Park Ave","latitude":41.6248302,"longitude":-71.2206304,"location":"Teddy's Beach Island Park","region":"Portsmouth","url":"https://rhodeisland-aa.org/archives/meetings/teddys-beach-3/","timezone":"America/New_York"},{"feed":"rhodeisland-aa.org","slug":"12-golden-steps-2","name":"12 Golden Steps","day":2,"time":"12:00","end_time":"13:00","types":["EN","O","ST"],"state":"RI","postal_code":"02895","city":"Woonsocket","address":"414 S Main St","latitude":41.995245,"longitude":-71.5231997,"location":"Holy Family Church","region":"Woonsocket","url":"https://rhodeisland-aa.org/archives/meetings/12-golden-steps-2/","timezone":"America/New_York"},{"feed":"rhodeisland-aa.org","slug":"aa-meeting-11","name":"Lunchtime AA","day":2,"time":"12:00","end_time":"13:00","types":["D","EN","O"],"state":"RI","postal_code":"02886","city":"Warwick","address":"389 Greenwich Ave","latitude":41.7234026,"longitude":-71.4697769,"location":"St. Pauls Lutheran Church","region":"Warwick","url":"https://rhodeisland-aa.org/archives/meetings/aa-meeting-11/","timezone":"America/New_York"},{"feed":"rhodeisland-aa.org","slug":"happy-joyous-free-5","name":"Happy Joyous & Free","day":2,"time":"12:00","end_time":"13:00","types":["D","O","SP","EN"],"state":"RI","postal_code":"02840","city":"Newport","address":"525 Broadway","latitude":41.5049029,"longitude":-71.3014901,"location":"St. Peters Lutheran Church","region":"Newport","url":"https://rhodeisland-aa.org/archives/meetings/happy-joyous-free-5/","timezone":"America/New_York"},{"feed":"rhodeisland-aa.org","slug":"lunch-bunch-nooners-2","name":"Lunch Bunch Nooners","day":2,"time":"12:00","end_time":"13:00","types":["D","EN","LIT","O","X","XB","ONL"],"state":"RI","postal_code":"02842","city":"Middletown","address":"770 Aquidneck Ave","latitude":41.5088414,"longitude":-71.2830128,"location":"Y.A.N.A Club","region":"Middletown","notes":"Zoom Meeting ID: 780768178","conference_url":"https://us04web.zoom.us/j/780768178","url":"https://rhodeisland-aa.org/archives/meetings/lunch-bunch-nooners-2/","timezone":"America/New_York"},{"feed":"rhodeisland-aa.org","slug":"off-shore-2","name":"Off Shore","day":2,"time":"12:00","end_time":"13:00","types":["D","O","EN"],"state":"RI","postal_code":"02807","city":"New Shoreham","address":"21 Water St","latitude":41.1714278,"longitude":-71.5571413,"location":"Harbor Baptist Church","region":"Block Island","url":"https://rhodeisland-aa.org/archives/meetings/off-shore-2/","timezone":"America/New_York"},{"feed":"rhodeisland-aa.org","slug":"scituate-big-book","name":"The Big Book","day":2,"time":"12:00","end_time":"13:00","types":["B","EN","O"],"state":"RI","postal_code":"02828","city":"Greenville","address":"1 Church St","latitude":41.871501,"longitude":-71.5541059,"location":"Greenville Baptist Church House","region":"Smithfield/Greenville","notes":"BigBook","url":"https://rhodeisland-aa.org/archives/meetings/scituate-big-book/","timezone":"America/New_York"},{"feed":"rhodeisland-aa.org","slug":"seeds-of-hope-2","name":"Seeds Of Hope","day":2,"time":"12:00","end_time":"13:00","types":["D","EN","O","ST","X","XB"],"state":"RI","postal_code":"02914","city":"East Providence","address":"145 Taunton Ave","latitude":41.819404,"longitude":-71.3762621,"location":"East Providence City Hall","region":"East Providence","url":"https://rhodeisland-aa.org/archives/meetings/seeds-of-hope-2/","timezone":"America/New_York"},{"feed":"rhodeisland-aa.org","slug":"united-in-sobriety-2","name":"United In Sobriety","day":2,"time":"12:00","end_time":"13:00","types":["B","O","X","XB","EN"],"state":"RI","postal_code":"02906","city":"Providence","address":"50 Orchard Ave","latitude":41.8323211,"longitude":-71.3858112,"location":"St Martin's Church","region":"Providence","notes":"3rd Floor -Elevator","url":"https://rhodeisland-aa.org/archives/meetings/united-in-sobriety-2/","timezone":"America/New_York"},{"feed":"rhodeisland-aa.org","slug":"friends-of-bill-w-2","name":"Friends of Bill W","day":2,"time":"12:30","end_time":"13:30","types":["C","D","EN"],"state":"RI","postal_code":"02852","city":"North Kingstown","address":"44 Main St","latitude":41.5718019,"longitude":-71.4508312,"location":"First Baptist Church","region":"North Kingstown","url":"https://rhodeisland-aa.org/archives/meetings/friends-of-bill-w-2/","timezone":"America/New_York"},{"feed":"rhodeisland-aa.org","slug":"g-o-d","name":"G.O.D","day":2,"time":"12:30","end_time":"13:30","types":["DR","EN","O","X","XB"],"state":"RI","postal_code":"02882","city":"Narragansett","address":"32 Avice St","latitude":41.4321739,"longitude":-71.4783798,"location":"Anchor Christian Fellowship","region":"Narragansett","url":"https://rhodeisland-aa.org/archives/meetings/g-o-d/","timezone":"America/New_York"},{"feed":"rhodeisland-aa.org","slug":"pause-a-while-via-phone-3","name":"Pause A While ( via Phone)","day":2,"time":"14:00","end_time":"15:00","types":["D","EN","ONL"],"state":"RI","city":"Warwick","latitude":41.7001009,"longitude":-71.4161671,"location":"Rhode Island","region":"Warwick","notes":"Call 1-425-436-6360 Meeting # 422932","url":"https://rhodeisland-aa.org/archives/meetings/pause-a-while-via-phone-3/","timezone":"America/New_York"},{"feed":"rhodeisland-aa.org","slug":"end-of-day","name":"End Of Day","day":2,"time":"16:30","end_time":"17:30","types":["D","EN","O"],"state":"RI","postal_code":"02881","city":"Kingston","address":"2610 Kingstown Rd","latitude":41.4800827,"longitude":-71.5251705,"location":"Kingston Congregational Church","region":"Kingston","url":"https://rhodeisland-aa.org/archives/meetings/end-of-day/","timezone":"America/New_York"},{"feed":"rhodeisland-aa.org","slug":"happy-hour-ii","name":"Happy Hour II","day":2,"time":"17:15","end_time":"18:15","types":["D","EN","O","X","XB"],"state":"RI","postal_code":"02835","city":"Jamestown","address":"87 Narragansett Ave","latitude":41.4958139,"longitude":-71.3736698,"location":"St Matthews Episcopal Church","region":"Jamestown","url":"https://rhodeisland-aa.org/archives/meetings/happy-hour-ii/","timezone":"America/New_York"},{"feed":"rhodeisland-aa.org","slug":"tuesday-night-discussion","name":"Misfits","day":2,"time":"17:30","end_time":"18:30","types":["D","O","EN"],"state":"RI","postal_code":"02885","city":"Warren","address":"895 Main St","latitude":41.7188911,"longitude":-71.2821506,"location":"Radiant Christian Assembly","region":"Warren","url":"https://rhodeisland-aa.org/archives/meetings/tuesday-night-discussion/","timezone":"America/New_York"},{"feed":"ct-aa.org","slug":"day-at-a-time-group","name":"Day At A Time Group","day":2,"time":"18:00","end_time":"19:00","types":["D","O","X"],"state":"RI","postal_code":"02891","city":"Westerly","address":"39 State St","latitude":41.3651868,"longitude":-71.8253998,"location":"Westerly Senior Citizens Center","region":"Westerly","notes":"24-hour book\nMASKS REQUIRED","url":"https://ct-aa.org/meetings/day-at-a-time-group","timezone":"America/New_York"},{"feed":"rhodeisland-aa.org","slug":"living-the-big-book","name":"Living The Big Book","day":2,"time":"18:00","end_time":"19:30","types":["B","EN","O","ONL"],"state":"RI","city":"Warwick","latitude":41.7001009,"longitude":-71.4161671,"location":"Rhode Island","region":"Warwick","notes":"Zoom Meeting ID: 889 680 74866 Password: bigbook","conference_url":"http://us04web.zoom.us/j/88968074866","url":"https://rhodeisland-aa.org/archives/meetings/living-the-big-book/","timezone":"America/New_York"},{"feed":"rhodeisland-aa.org","slug":"tuesday-night-womens-step","name":"Tuesday Night Women's Step","day":2,"time":"18:00","end_time":"19:00","types":["12x12","C","W"],"state":"RI","postal_code":"02832","city":"Hope Valley","address":"1059 Main St","latitude":41.510838,"longitude":-71.712362,"location":"First Baptist Church","region":"Hopkinton","url":"https://rhodeisland-aa.org/archives/meetings/tuesday-night-womens-step/","timezone":"America/New_York"},{"feed":"rhodeisland-aa.org","slug":"warwick-mall-at-6pm-2-3","name":"Warwick Mall At 6PM","day":2,"time":"18:00","end_time":"19:00","types":["D","O","EN"],"state":"RI","postal_code":"02886","city":"Warwick","address":"400 Bald Hill Rd","latitude":41.7269929,"longitude":-71.4792706,"location":"Warwick Mall (Firestone Parkinglot)","region":"Warwick","url":"https://rhodeisland-aa.org/archives/meetings/warwick-mall-at-6pm-2-3/","timezone":"America/New_York"},{"feed":"rhodeisland-aa.org","slug":"a-way-out","name":"A Way Out","day":2,"time":"18:30","end_time":"19:30","types":["B","CF","EN","O","X"],"state":"RI","postal_code":"02879","city":"Peace Dale","address":"261 Columbia St","latitude":41.4478178,"longitude":-71.4954578,"location":"Peacedale Congregational Church","region":"South Kingstown","notes":"Step Meeting. Tradition Study","url":"https://rhodeisland-aa.org/archives/meetings/a-way-out/","timezone":"America/New_York"},{"feed":"rhodeisland-aa.org","slug":"hang-12","name":"Hang 12","day":2,"time":"18:30","end_time":"19:30","types":["B","EN","O","ST","X","XB","ONL"],"state":"RI","postal_code":"02842","city":"Middletown","address":"770 Aquidneck Ave","latitude":41.5088414,"longitude":-71.2830128,"location":"Y.A.N.A Club","region":"Middletown","notes":"(Meeting Format of Hyannis BBSS Group) Zoom meeting ID: 843 8908 8466 Password: 164 800","conference_url":"https://us04web.zoom.us/j/84389088466","url":"https://rhodeisland-aa.org/archives/meetings/hang-12/","timezone":"America/New_York"},{"feed":"rhodeisland-aa.org","slug":"apponaug-group","name":"Apponaug Group","day":2,"time":"19:00","end_time":"20:00","types":["EN","O","SP"],"state":"RI","postal_code":"02886","city":"Warwick","address":"3270 Post Rd","latitude":41.698635,"longitude":-71.4581989,"location":"Warwick Central Baptist Church","region":"Warwick","url":"https://rhodeisland-aa.org/archives/meetings/apponaug-group/","timezone":"America/New_York"},{"feed":"rhodeisland-aa.org","slug":"beginners","name":"Beginners","day":2,"time":"19:00","end_time":"20:00","types":["D","EN","BE","O","SP","ONL"],"state":"RI","city":"Warwick","latitude":41.7001009,"longitude":-71.4161671,"location":"Rhode Island","region":"Warwick","notes":"Zoom Meeting ID: 401187356 Password:091285","conference_url":"https://zoom.us/j/401187356","url":"https://rhodeisland-aa.org/archives/meetings/beginners/","timezone":"America/New_York"},{"feed":"ct-aa.org","slug":"big-book-at-dunns-corner-group","name":"Big Book At Dunn's Corner Group","day":2,"time":"19:00","end_time":"20:00","types":["B","O"],"state":"RI","postal_code":"02891","city":"Westerly","address":"221 Post Rd","latitude":41.3502964,"longitude":-71.7722105,"location":"Dunn's Corner Community Church, Presbyterian","region":"Westerly","url":"https://ct-aa.org/meetings/big-book-at-dunns-corner-group","group":"Rhode Island","timezone":"America/New_York"},{"feed":"rhodeisland-aa.org","slug":"cranston-tuesday-night","name":"Cranston Tuesday Night","day":2,"time":"19:00","end_time":"20:00","types":["D","O","EN"],"state":"RI","postal_code":"02910","city":"Cranston","address":"565 Pontiac Ave","latitude":41.7718379,"longitude":-71.4373592,"location":"Phillips Memorial Baptist Church","region":"Cranston","notes":"ASL","url":"https://rhodeisland-aa.org/archives/meetings/cranston-tuesday-night/","timezone":"America/New_York"},{"feed":"rhodeisland-aa.org","slug":"day-by-day","name":"Day By Day","day":2,"time":"19:00","end_time":"20:00","types":["D","EN","O"],"state":"RI","postal_code":"02839","city":"Mapleville","address":"1063 Victory Hwy","latitude":41.9548287,"longitude":-71.6495592,"location":"Our Lady Of Good Help","region":"Burrillville","url":"https://rhodeisland-aa.org/archives/meetings/day-by-day/","timezone":"America/New_York"},{"feed":"rhodeisland-aa.org","slug":"foglifters","name":"Foglifters","day":2,"time":"19:00","end_time":"20:00","types":["B","EN","O"],"state":"RI","postal_code":"02895","city":"Woonsocket","address":"414 S Main St","latitude":41.995245,"longitude":-71.5231997,"location":"Holy Family Church","region":"Woonsocket","url":"https://rhodeisland-aa.org/archives/meetings/foglifters/","timezone":"America/New_York"},{"feed":"rhodeisland-aa.org","slug":"grupo-divina-providencia-2","name":"Grupo Divina Providencia","day":2,"time":"19:00","end_time":"21:00","types":["D","O","S"],"state":"RI","postal_code":"02904","city":"North Providence","address":"847 Charles St","latitude":41.860299,"longitude":-71.421983,"location":"Charles 847","region":"North Providence","url":"https://rhodeisland-aa.org/archives/meetings/grupo-divina-providencia-2/","timezone":"America/New_York"},{"feed":"rhodeisland-aa.org","slug":"grupo-un-nuevo-despertar-2","name":"Grupo Un Nuevo Despertar","day":2,"time":"19:00","end_time":"21:00","types":["D","O","S"],"state":"RI","postal_code":"02909","city":"Providence","address":"233 Manton Ave","latitude":41.8213071,"longitude":-71.4481008,"location":"233 Manton Ave., Providence, RI , 02909,USA","region":"Providence","url":"https://rhodeisland-aa.org/archives/meetings/grupo-un-nuevo-despertar-2/","timezone":"America/New_York"},{"feed":"rhodeisland-aa.org","slug":"how-it-works-beginners","name":"How It Works- Beginners","day":2,"time":"19:00","end_time":"20:00","types":["EN","BE","O","ST"],"state":"RI","postal_code":"02813","city":"Charlestown","address":"15 E Beach Rd","latitude":41.3561121,"longitude":-71.7039967,"location":"St Andrews Lutheran Church","region":"Charlestown","url":"https://rhodeisland-aa.org/archives/meetings/how-it-works-beginners/","timezone":"America/New_York"},{"feed":"rhodeisland-aa.org","slug":"ri-lgbt","name":"RI Lesbian,Gay, Bisexual, & Transgendered","day":2,"time":"19:00","end_time":"20:00","types":["D","LGBTQ","O","X","XB","EN","ONL"],"state":"RI","postal_code":"02909","city":"Providence","address":"5 Bell St","latitude":41.8187969,"longitude":-71.4360916,"location":"Bell Street Chapel","region":"Providence","notes":"Zoom Meeting ID: 828 7362 6836 Password: Gratitude","conference_url":"https://zoom.us/j/82873626836","url":"https://rhodeisland-aa.org/archives/meetings/ri-lgbt/","timezone":"America/New_York"},{"feed":"rhodeisland-aa.org","slug":"the-miracle","name":"The Miracle","day":2,"time":"19:00","end_time":"20:00","types":["D","EN","O"],"state":"RI","postal_code":"02907","city":"Providence","address":"460 Pine St","latitude":41.8125437,"longitude":-71.4193085,"location":"Amos House","region":"Providence","url":"https://rhodeisland-aa.org/archives/meetings/the-miracle/","timezone":"America/New_York"},