[{"feed":"area63aa.org","slug":"d4-yankton-daily-reprieve-7","name":"Yankton AA","day":0,"time":"08:00","types":["X","O","EN"],"state":"SD","postal_code":"57078","city":"Yankton","address":"1019 W 9th St","latitude":42.8773056,"longitude":-97.4094707,"location":"12-24 Alano Club","region":"Yankton","url":"https://area63aa.org/meetings/d4-yankton-daily-reprieve-7/","group":"Yankton AA","timezone":"America/Denver"},{"feed":"area63aa.org","slug":"d5-sf-westside-7","name":"Westside AA","day":0,"time":"08:00","types":["EN","C","B","TR","X"],"state":"SD","postal_code":"57104","city":"Sioux Falls","address":"1509 W 1st St","latitude":43.5572112,"longitude":-96.7488556,"location":"Westside Alano Club","region":"Sioux Falls","notes":"Speaker Meeting 2nd Friday of the month Last Friday of the month is an Open Birthday Meeting Friday meetings are Open Sunday at 7:30PM is Open Saturday at 8:00PM is a Traditions Meeting","url":"https://area63aa.org/meetings/d5-sf-westside-7/","group":"Westside AA","timezone":"America/Denver"},{"feed":"area63aa.org","slug":"d2-as-bill-sees-it","name":"As Bill Sees It","day":0,"time":"08:05","types":["O","X","EN"],"state":"SD","postal_code":"57702","city":"Rapid City","address":"325 Deadwood Ave","latitude":44.0832826,"longitude":-103.2568074,"location":"Alano Club","region":"Rapid City","url":"https://area63aa.org/meetings/d2-as-bill-sees-it/","group":"As Bill Sees It","timezone":"America/Denver"},{"feed":"area63aa.org","slug":"d5-madison","name":"Madison AA","day":0,"time":"09:00","types":["EN","C","B","12x12","D","X"],"state":"SD","postal_code":"57042","city":"Madison","address":"453rd Ave","latitude":43.8771099,"longitude":-97.1489586,"location":"Hwy 34 and 453rd Ave, Madison, SD, 57042","region":"Madison","notes":"South side of highway, near vet clinic; 1 mi west of town Saturday meeting are Open","url":"https://area63aa.org/meetings/d5-madison/","group":"Madison AA","timezone":"America/Denver"},{"feed":"area63aa.org","slug":"brookings-original-7","name":"Brookings Original Group","day":0,"time":"09:30","types":["B","D","EN","O","X"],"state":"SD","postal_code":"57006","city":"Brookings","address":"135 1st Ave S","latitude":44.3057253,"longitude":-96.8026769,"location":"Brookings Club","region":"Brookings","url":"https://area63aa.org/meetings/brookings-original-7/","group":"Brookings Original Group","timezone":"America/Denver"},{"feed":"area63aa.org","slug":"d13-deadwood","name":"Deadwood AA Group","day":0,"time":"10:00","types":["C","D","EN"],"state":"SD","postal_code":"57732","city":"Deadwood","address":"750 Main St","latitude":44.3747966,"longitude":-103.7325423,"location":"St. Ambrose Catholic Church School","region":"Deadwood","url":"https://area63aa.org/meetings/d13-deadwood/","group":"Deadwood AA","timezone":"America/Denver"},{"feed":"area63aa.org","slug":"d5-sf-southside","name":"Southside AA","day":0,"time":"10:00","types":["EN","C","ST","D","X"],"state":"SD","postal_code":"57105","city":"Sioux Falls","address":"4112 S West Ave","latitude":43.506528,"longitude":-96.7456775,"location":"Southside Alano Club","region":"Sioux Falls","notes":"SE Corner, 51st and West Spouse-Welcome Meeting: Tuesday and Thursday @ 8:00PM Last Friday of the month is an Open Birthday Meeting at 10:00AM and 5:30PM","url":"https://area63aa.org/meetings/d5-sf-southside/","group":"Southside AA","timezone":"America/Denver"},{"feed":"area63aa.org","slug":"d6-6th-sense","name":"6th Sense Group","day":0,"time":"10:00","types":["C","EN"],"state":"SD","postal_code":"57401","city":"Aberdeen","address":"422 5th Ave SE","latitude":45.4598632,"longitude":-98.4811725,"location":"422 SE 5th Ave","region":"Aberdeen","url":"https://area63aa.org/meetings/d6-6th-sense/","group":"6th Sense Group","timezone":"America/Denver"},{"feed":"area63aa.org","slug":"womens-12-step-recovery","name":"Women's 12 Step Recovery","day":0,"time":"10:15","end_time":"11:15","types":["EN","O","ONL"],"state":"SD","postal_code":"57730","city":"Custer","address":"520 Crook St","latitude":43.7672211,"longitude":-103.6001181,"location":"Brown Building","region":"Custer","url":"https://area63aa.org/meetings/womens-12-step-recovery/","timezone":"America/Denver"},{"feed":"area63aa.org","slug":"d2-rapid-city-grp1","name":"Rapid City Group One","day":0,"time":"10:30","types":["C","EN"],"state":"SD","postal_code":"57702","city":"Rapid City","address":"325 Deadwood Ave","latitude":44.0832826,"longitude":-103.2568074,"location":"Alano Club","region":"Rapid City","url":"https://area63aa.org/meetings/d2-rapid-city-grp1/","group":"Rapid City Group One","timezone":"America/Denver"},{"feed":"area63aa.org","slug":"d2-sunday-morning-spritual","name":"Sunday Morning Spiritual","day":0,"time":"10:30","types":["O","D","X","EN"],"state":"SD","postal_code":"57702","city":"Rapid City","address":"325 Deadwood Ave","latitude":44.0832826,"longitude":-103.2568074,"location":"Alano Club","region":"Rapid City","url":"https://area63aa.org/meetings/d2-sunday-morning-spritual/","group":"Sunday Morning Spiritual","timezone":"America/Denver"},{"feed":"area63aa.org","slug":"d5-sf-westside-19","name":"Westside AA","day":0,"time":"11:00","types":["EN","C","B","TR","X"],"state":"SD","postal_code":"57104","city":"Sioux Falls","address":"1509 W 1st St","latitude":43.5572112,"longitude":-96.7488556,"location":"Westside Alano Club","region":"Sioux Falls","notes":"Speaker Meeting 2nd Friday of the month Last Friday of the month is an Open Birthday Meeting Friday meetings are Open Sunday at 7:30PM is Open Saturday at 8:00PM is a Traditions Meeting","url":"https://area63aa.org/meetings/d5-sf-westside-19/","group":"Westside AA","timezone":"America/Denver"},{"feed":"area63aa.org","slug":"d8-mitchell","name":"Mitchell A.A.","day":0,"time":"11:00","types":["EN"],"state":"SD","postal_code":"57301","city":"Mitchell","address":"424 E 9th Ave","latitude":43.7180296,"longitude":-98.0202909,"location":"Mitchell Alano Club","region":"Mitchell","notes":"Meeting is Open to friends and family Last Thursday of the month is an Open Birthday Meeting Saturday at 11AM is a split men's (front room) and women's (back room) meeting.","url":"https://area63aa.org/meetings/d8-mitchell/","group":"Mitchell A.A.","timezone":"America/Denver"},{"feed":"area63aa.org","slug":"aa-101-group-7","name":"AA 101 Group","day":0,"time":"12:00","end_time":"13:00","types":["B","O","X","ONL"],"state":"SD","postal_code":"57350","city":"Huron","address":"235 Kansas Ave SE","latitude":44.364106,"longitude":-98.2127937,"location":"Turning Point","region":"Huron","notes":"Birthday Night is every Wednesday of the Month!!!","url":"https://area63aa.org/meetings/aa-101-group-7/","timezone":"America/Denver"},{"feed":"area63aa.org","slug":"d2-rapid-city-noonzoom-2","name":"Noon Rapid City Zoom Room","day":0,"time":"12:00","types":["EN","O","B","12x12","D","ONL"],"state":"SD","postal_code":"57702","city":"Rapid City","address":"325 Deadwood Ave","latitude":44.0832826,"longitude":-103.2568074,"location":"Alano Club","region":"Rapid City","conference_url":"https://us02web.zoom.us/j/86160877370","url":"https://area63aa.org/meetings/d2-rapid-city-noonzoom-2/","group":"Noon Rapid City Zoom Group","timezone":"America/Denver"},{"feed":"area63aa.org","slug":"d9-gilbert-avenue","name":"Gilbert Avenue AA Group","day":0,"time":"12:15","types":["X"],"state":"SD","postal_code":"57201","city":"Watertown","address":"1021 Gilbert Ave NE","latitude":44.9004988,"longitude":-97.0972986,"location":"Gilbert House","region":"Watertown","url":"https://area63aa.org/meetings/d9-gilbert-avenue/","group":"Gilbert Avenue AA Group","timezone":"America/Denver"},{"feed":"area63aa.org","slug":"alano-club-sunday-100-pm","name":"Yellow House Group","day":0,"time":"13:00","end_time":"14:00","types":["O"],"state":"SD","postal_code":"57401","city":"Aberdeen","address":"519 S Arch St","latitude":45.4592635,"longitude":-98.4804592,"location":"Alano Club","region":"Aberdeen","url":"https://area63aa.org/meetings/alano-club-sunday-100-pm/","timezone":"America/Denver"},{"feed":"area63aa.org","slug":"d4-yankton-daily-reprieve-15","name":"Yankton AA","day":0,"time":"13:30","types":["X","O","EN"],"state":"SD","postal_code":"57078","city":"Yankton","address":"1019 W 9th St","latitude":42.8773056,"longitude":-97.4094707,"location":"12-24 Alano Club","region":"Yankton","url":"https://area63aa.org/meetings/d4-yankton-daily-reprieve-15/","group":"Yankton AA","timezone":"America/Denver"},{"feed":"area63aa.org","slug":"d9-umc-aa","name":"Clark Freedom Seekers","day":0,"time":"14:00","end_time":"15:00","types":["C"],"state":"SD","postal_code":"57225","city":"Clark","address":"606 N Commercial St","latitude":44.8842603,"longitude":-97.734073,"location":"606 N. Commerical St","region":"Clark","url":"https://area63aa.org/meetings/d9-umc-aa/","group":"UMC AA","timezone":"America/Denver"},{"feed":"area63aa.org","slug":"d5-threecs-alanon","name":"Three C's Al-Anon","day":0,"time":"16:00","types":["EN","AL-AN","ST"],"state":"SD","postal_code":"57108","city":"Sioux Falls","address":"27048 Tallgrass Ave","latitude":43.4681649,"longitude":-96.7870903,"location":"TLC Tallgrass","region":"Sioux Falls","url":"https://area63aa.org/meetings/d5-threecs-alanon/","group":"Three C's Al-Anon","timezone":"America/Denver"},{"feed":"area63aa.org","slug":"d13-happy-destiny-3","name":"Happy Destiny","day":0,"time":"16:30","end_time":"17:30","types":["D","ONL"],"state":"SD","postal_code":"57785","city":"Sturgis","address":"950 Main St","latitude":44.4140944,"longitude":-103.5078442,"location":"Serenity Club","region":"Sturgis","conference_url":"https://us02web.zoom.us/j/348404041","url":"https://area63aa.org/meetings/d13-happy-destiny-3/","group":"Happy Destiny AA","timezone":"America/Denver"},{"feed":"area63aa.org","slug":"d8-mitchell-8","name":"Mitchell A.A.","day":0,"time":"17:15","types":["EN"],"state":"SD","postal_code":"57301","city":"Mitchell","address":"424 E 9th Ave","latitude":43.7180296,"longitude":-98.0202909,"location":"Mitchell Alano Club","region":"Mitchell","notes":"Meeting is Open to friends and family Last Thursday of the month is an Open Birthday Meeting Saturday at 11AM is a split men's (front room) and women's (back room) meeting.","url":"https://area63aa.org/meetings/d8-mitchell-8/","group":"Mitchell A.A.","timezone":"America/Denver"},{"feed":"area63aa.org","slug":"d2-sunday-evening-step-study","name":"Sunday Evening Big Book Study","day":0,"time":"17:30","types":["EN"],"state":"SD","postal_code":"57702","city":"Rapid City","address":"325 Deadwood Ave","latitude":44.0832826,"longitude":-103.2568074,"location":"Alano Club","region":"Rapid City","url":"https://area63aa.org/meetings/d2-sunday-evening-step-study/","group":"Sunday Evening Step Study","timezone":"America/Denver"},{"feed":"area63aa.org","slug":"d5-madisonaagrace","name":"Madison AA","day":0,"time":"17:30","types":["EN","C","B"],"state":"SD","postal_code":"57042","city":"Madison","address":"3rd St NW","latitude":44.0082741,"longitude":-97.1213547,"location":"Grace Episcopal Church","region":"Madison","notes":"Behind Casey's","url":"https://area63aa.org/meetings/d5-madisonaagrace/","group":"Madison AA","timezone":"America/Denver"},{"feed":"area63aa.org","slug":"d5-sf-southside-9","name":"Southside AA","day":0,"time":"17:30","types":["EN","C","ST","D","X"],"state":"SD","postal_code":"57105","city":"Sioux Falls","address":"4112 S West Ave","latitude":43.506528,"longitude":-96.7456775,"location":"Southside Alano Club","region":"Sioux Falls","notes":"SE Corner, 51st and West Spouse-Welcome Meeting: Tuesday and Thursday @ 8:00PM Last Friday of the month is an Open Birthday Meeting at 10:00AM and 5:30PM","url":"https://area63aa.org/meetings/d5-sf-southside-9/","group":"Southside AA","timezone":"America/Denver"},{"feed":"area63aa.org","slug":"d5-serenityseekers","name":"Serenity Seekers Al-Anon","day":0,"time":"18:30","types":["EN","AL-AN","ST","X"],"state":"SD","postal_code":"57105","city":"Sioux Falls","address":"2109 S 5th Ave","latitude":43.52661,"longitude":-96.7198404,"location":"Saint Mary's Catholic Church","region":"Sioux Falls","notes":"NE Door","url":"https://area63aa.org/meetings/d5-serenityseekers/","group":"Serenity Seekers Al-Anon","timezone":"America/Denver"},{"feed":"area63aa.org","slug":"d6-dakota-plains-recovery","name":"Dakota Plains Recovery","day":0,"time":"18:30","end_time":"19:30","types":["B","C"],"state":"SD","postal_code":"57262","city":"Sisseton","address":"302 Maple St E","latitude":45.6637444,"longitude":-97.0470215,"location":"Dakota Plains Recovery","region":"Aberdeen","url":"https://area63aa.org/meetings/d6-dakota-plains-recovery/","group":"Dakota Plains Recovery","timezone":"America/Denver"},{"feed":"area63aa.org","slug":"d8-turning-point","name":"Turning Point","day":0,"time":"18:30","types":["X","O","EN"],"state":"SD","postal_code":"57350","city":"Huron","address":"235 Kansas Ave SE","latitude":44.364106,"longitude":-98.2127937,"location":"Turning Point","region":"Huron","url":"https://area63aa.org/meetings/d8-turning-point/","group":"Turning Point","timezone":"America/Denver"},{"feed":"area63aa.org","slug":"d9-glacial-lakes","name":"Glacial Lakes Sunday Night Speakers","day":0,"time":"18:30","types":["X"],"state":"SD","postal_code":"57201","city":"Watertown","address":"612 3rd St NE","latitude":44.9084341,"longitude":-97.1073118,"location":"Trinity Episcopal Church - Gymnasium","region":"Watertown","notes":"Main enterance on the west side. Handicap accessible enterance on the east side.","url":"https://area63aa.org/meetings/d9-glacial-lakes/","group":"Glacial Lakes Sunday Night Speakers","timezone":"America/Denver"},{"feed":"area63aa.org","slug":"d13-spearfish-sunday-literature-2","name":"Spearfish Sunday Literature Group","day":0,"time":"19:00","end_time":"20:00","types":["C","ONL"],"state":"SD","postal_code":"57783","city":"Spearfish","address":"845 N 5th St","latitude":44.4915526,"longitude":-103.8614448,"location":"United Methodist Church","region":"Spearfish","conference_url":"https://zoom.us/j/168179667","url":"https://area63aa.org/meetings/d13-spearfish-sunday-literature-2/","group":"Spearfish Sunday Literature Group","timezone":"America/Denver"},{"feed":"area63aa.org","slug":"d2-beginners-meeting","name":"Beginner's Meeting","day":0,"time":"19:00","types":["O","D","X","EN"],"state":"SD","postal_code":"57702","city":"Rapid City","address":"325 Deadwood Ave","latitude":44.0832826,"longitude":-103.2568074,"location":"Alano Club","region":"Rapid City","url":"https://area63aa.org/meetings/d2-beginners-meeting/","group":"Beginners Meeting","timezone":"America/Denver"},{"feed":"area63aa.org","slug":"d3-new-hope","name":"New Hope Group","day":0,"time":"19:00","types":["C","X","EN"],"state":"SD","postal_code":"57551","city":"Martin","address":"106 Main St","latitude":43.1753508,"longitude":-101.7330751,"location":"Living Word Community Church","region":"Martin","url":"https://area63aa.org/meetings/d3-new-hope/","group":"New Hope Group","timezone":"America/Denver"},{"feed":"area63aa.org","slug":"d4-yankton-daily-reprieve-14","name":"Yankton AA","day":0,"time":"19:00","types":["X","O","EN"],"state":"SD","postal_code":"57078","city":"Yankton","address":"1019 W 9th St","latitude":42.8773056,"longitude":-97.4094707,"location":"12-24 Alano Club","region":"Yankton","url":"https://area63aa.org/meetings/d4-yankton-daily-reprieve-14/","group":"Yankton AA","timezone":"America/Denver"},{"feed":"area63aa.org","slug":"d5-sf-westside-20","name":"Westside AA","day":0,"time":"19:00","end_time":"20:00","types":["EN"],"state":"SD","postal_code":"57104","city":"Sioux Falls","address":"1509 W 1st St","latitude":43.5572112,"longitude":-96.7488556,"location":"Westside Alano Club","region":"Sioux Falls","notes":"Speaker Meeting 2nd Friday of the month Last Friday of the month is an Open Birthday Meeting Friday meetings are Open Sunday at 7:30PM is Open Saturday at 8:00PM is a Traditions Meeting","url":"https://area63aa.org/meetings/d5-sf-westside-20/","group":"Westside AA","timezone":"America/Denver"},{"feed":"area63aa.org","slug":"d8-ethan","name":"Ethan AA","day":0,"time":"19:00","types":["C","B","EN"],"state":"SD","postal_code":"57334","city":"Ethan","address":"206 E Ash St","latitude":43.5467138,"longitude":-97.984844,"location":"Methodist Church","region":"Ethan","url":"https://area63aa.org/meetings/d8-ethan/","group":"Ethan AA","timezone":"America/Denver"},{"feed":"area63aa.org","slug":"brookings-original-8","name":"Brookings Original Group","day":0,"time":"19:30","types":["B","D","EN","O","X"],"state":"SD","postal_code":"57006","city":"Brookings","address":"135 1st Ave S","latitude":44.3057253,"longitude":-96.8026769,"location":"Brookings Club","region":"Brookings","url":"https://area63aa.org/meetings/brookings-original-8/","group":"Brookings Original Group","timezone":"America/Denver"},{"feed":"area63aa.org","slug":"d4-vermillion-unity-4","name":"Vermillion Unity AA 12 Steps/Traditions","day":0,"time":"19:30","types":["C","EN","B","X"],"state":"SD","postal_code":"57069","city":"Vermillion","address":"816 E Clark St","latitude":42.7827801,"longitude":-96.9193202,"location":"Trinity Lutheran Church","region":"Vermillion","url":"https://area63aa.org/meetings/d4-vermillion-unity-4/","group":"Vermillion Unity AA 12 Steps/Traditions","timezone":"America/Denver"},{"feed":"area63aa.org","slug":"d5-madison-2","name":"Madison AA","day":0,"time":"19:30","types":["EN","C","B","12x12","D","X"],"state":"SD","postal_code":"57042","city":"Madison","address":"453rd Ave","latitude":43.8771099,"longitude":-97.1489586,"location":"Hwy 34 and 453rd Ave, Madison, SD, 57042","region":"Madison","notes":"South side of highway, near vet clinic; 1 mi west of town Saturday meeting are Open","url":"https://area63aa.org/meetings/d5-madison-2/","group":"Madison AA","timezone":"America/Denver"},{"feed":"area63aa.org","slug":"d5-youngguns","name":"Young Guns AA","day":0,"time":"19:30","types":["EN","C","ST","X"],"state":"SD","postal_code":"57104","city":"Sioux Falls","address":"500 S Main Ave","latitude":43.541997,"longitude":-96.7278664,"region":"Sioux Falls","notes":"Use the north door on 13th St. Last Sunday of the month is an Open Speaker meeting.","url":"https://area63aa.org/meetings/d5-youngguns/","group":"Young Guns AA","timezone":"America/Denver"},{"feed":"area63aa.org","slug":"d3-unbroken-circle-2","name":"Unbroken Circle","day":0,"time":"20:00","types":["D","X","O","EN"],"state":"SD","postal_code":"57572","city":"St Francis","address":"502 Warrior Dr","latitude":43.140756,"longitude":-100.90038,"location":"Circle Clubhouse","region":"St Francis","url":"https://area63aa.org/meetings/d3-unbroken-circle-2/","group":"Unbroken Circle","timezone":"America/Denver"},{"feed":"area63aa.org","slug":"d5-sf-southside-16","name":"Southside AA","day":0,"time":"20:00","types":["EN","C","ST","D","X"],"state":"SD","postal_code":"57105","city":"Sioux Falls","address":"4112 S West Ave","latitude":43.506528,"longitude":-96.7456775,"location":"Southside Alano Club","region":"Sioux Falls","notes":"SE Corner, 51st and West Spouse-Welcome Meeting: Tuesday and Thursday @ 8:00PM Last Friday of the month is an Open Birthday Meeting at 10:00AM and 5:30PM","url":"https://area63aa.org/meetings/d5-sf-southside-16/","group":"Southside AA","timezone":"America/Denver"},{"feed":"area63aa.org","slug":"d6-sisseton-2","name":"Sisseton Group","day":0,"time":"20:00","types":["C","D","X","EN"],"state":"SD","postal_code":"57262","city":"Sisseton","address":"619 Main Ave","latitude":45.6661709,"longitude":-97.0506419,"location":"St. Kateri's","region":"Sisseton","url":"https://area63aa.org/meetings/d6-sisseton-2/","group":"Sisseton Group","timezone":"America/Denver"},{"feed":"area63aa.org","slug":"d7-pierre","name":"Pierre AA Group","day":0,"time":"20:00","types":["X","B","EN","D","O"],"state":"SD","postal_code":"57501","city":"Pierre","address":"325 S Garfield Ave","latitude":44.3612079,"longitude":-100.3170113,"location":"Alano Club","region":"Pierre","url":"https://area63aa.org/meetings/d7-pierre/","group":"Pierre AA Group","timezone":"America/Denver"},{"feed":"area63aa.org","slug":"d8-mitchell-15","name":"Mitchell A.A.","day":0,"time":"20:00","types":["EN"],"state":"SD","postal_code":"57301","city":"Mitchell","address":"424 E 9th Ave","latitude":43.7180296,"longitude":-98.0202909,"location":"Mitchell Alano Club","region":"Mitchell","notes":"Meeting is Open to friends and family Last Thursday of the month is an Open Birthday Meeting Saturday at 11AM is a split men's (front room) and women's (back room) meeting.","url":"https://area63aa.org/meetings/d8-mitchell-15/","group":"Mitchell A.A.","timezone":"America/Denver"},{"feed":"area63aa.org","slug":"d8-riverside-aa","name":"Riverside AA","day":0,"time":"20:00","types":["EN","O","B","D"],"state":"SD","postal_code":"57350","city":"Huron","address":"626 1st St SW","latitude":44.365418,"longitude":-98.2243953,"location":"Alano Club","region":"Huron","url":"https://area63aa.org/meetings/d8-riverside-aa/","group":"Riverside AA","timezone":"America/Denver"},{"feed":"area63aa.org","slug":"d9-gilbert-avenue-8","name":"Gilbert Avenue AA Group","day":0,"time":"20:15","types":["X"],"state":"SD","postal_code":"57201","city":"Watertown","address":"1021 Gilbert Ave NE","latitude":44.9004988,"longitude":-97.0972986,"location":"Gilbert House","region":"Watertown","url":"https://area63aa.org/meetings/d9-gilbert-avenue-8/","group":"Gilbert Avenue AA Group","timezone":"America/Denver"},{"feed":"area63aa.org","slug":"d6-yellow-house-women-3","name":"Yellow House Group","day":0,"time":"20:30","types":["D","X","O","EN"],"state":"SD","postal_code":"57401","city":"Aberdeen","address":"519 S Arch St","latitude":45.4592635,"longitude":-98.4804592,"location":"Alano Club","region":"Aberdeen","url":"https://area63aa.org/meetings/d6-yellow-house-women-3/","group":"Yellow House Group","timezone":"America/Denver"},{"feed":"area63aa.org","slug":"d2-breakfast-aa","name":"Breakfast AA Literature Study Meeting","day":1,"time":"06:30","types":["C","X","EN"],"state":"SD","postal_code":"57702","city":"Rapid City","address":"325 Deadwood Ave","latitude":44.0832826,"longitude":-103.2568074,"location":"Alano Club","region":"Rapid City","url":"https://area63aa.org/meetings/d2-breakfast-aa/","group":"Breakfast AA Literature Study Meeting","timezone":"America/Denver"},{"feed":"area63aa.org","slug":"d2-early-risers-group","name":"Early Risers Group","day":1,"time":"06:45","types":["O","X","EN"],"state":"SD","postal_code":"57702","city":"Rapid City","address":"325 Deadwood Ave","latitude":44.0832826,"longitude":-103.2568074,"location":"Alano Club","region":"Rapid City","url":"https://area63aa.org/meetings/d2-early-risers-group/","group":"Early Risers Group","timezone":"America/Denver"},{"feed":"area63aa.org","slug":"d2-sober-sunrise","name":"Sober Sunrise","day":1,"time":"06:45","end_time":"07:45","types":["ABSI","B","D","O","EN","ONL"],"state":"SD","city":"Rapid City","latitude":44.0805434,"longitude":-103.2310149,"location":"Rapid City, SD, USA","region":"Rapid City","conference_url":"https://us02web.zoom.us/j/867-939-2380","url":"https://area63aa.org/meetings/d2-sober-sunrise/","group":"Sober Sunrise","timezone":"America/Denver"},{"feed":"area63aa.org","slug":"early-risers","name":"Early Risers","day":1,"time":"06:45","end_time":"00:00","state":"SD","postal_code":"57702","city":"Rapid City","address":"325 Deadwood Ave","latitude":44.0832826,"longitude":-103.2568074,"location":"Alano Club","region":"Rapid City","notes":"Rapid City\n\nUSA+ACI-","url":"https://area63aa.org/meetings/early-risers/","timezone":"America/Denver"},{"feed":"area63aa.org","slug":"d5-sf-southside-22","name":"Southside AA","day":1,"time":"08:00","types":["EN","C","ST","D","X"],"state":"SD","postal_code":"57105","city":"Sioux Falls","address":"4112 S West Ave","latitude":43.506528,"longitude":-96.7456775,"location":"Southside Alano Club","region":"Sioux Falls","notes":"SE Corner, 51st and West Spouse-Welcome Meeting: Tuesday and Thursday @ 8:00PM Last Friday of the month is an Open Birthday Meeting at 10:00AM and 5:30PM","url":"https://area63aa.org/meetings/d5-sf-southside-22/","group":"Southside AA","timezone":"America/Denver"},{"feed":"area63aa.org","slug":"yellow-house-group-2","name":"Yellow House Group","day":1,"time":"08:30","end_time":"09:30","types":["C"],"state":"SD","postal_code":"57401","city":"Aberdeen","address":"519 S Arch St","latitude":45.4592635,"longitude":-98.4804592,"location":"Alano Club","region":"Aberdeen","url":"https://area63aa.org/meetings/yellow-house-group-2/","timezone":"America/Denver"},{"feed":"area63aa.org","slug":"d5-sf-southside-2","name":"Southside AA","day":1,"time":"10:00","types":["EN","C","ST","D","X"],"state":"SD","postal_code":"57105","city":"Sioux Falls","address":"4112 S West Ave","latitude":43.506528,"longitude":-96.7456775,"location":"Southside Alano Club","region":"Sioux Falls","notes":"SE Corner, 51st and West Spouse-Welcome Meeting: Tuesday and Thursday @ 8:00PM Last Friday of the month is an Open Birthday Meeting at 10:00AM and 5:30PM","url":"https://area63aa.org/meetings/d5-sf-southside-2/","group":"Southside AA","timezone":"America/Denver"},{"feed":"area63aa.org","slug":"d5-sf-westside","name":"Westside AA","day":1,"time":"10:00","types":["EN","C","B","TR","X"],"state":"SD","postal_code":"57104","city":"Sioux Falls","address":"1509 W 1st St","latitude":43.5572112,"longitude":-96.7488556,"location":"Westside Alano Club","region":"Sioux Falls","notes":"Speaker Meeting 2nd Friday of the month Last Friday of the month is an Open Birthday Meeting Friday meetings are Open Sunday at 7:30PM is Open Saturday at 8:00PM is a Traditions Meeting","url":"https://area63aa.org/meetings/d5-sf-westside/","group":"Westside AA","timezone":"America/Denver"},{"feed":"area63aa.org","slug":"aa-101-group","name":"AA 101 Group","day":1,"time":"12:00","end_time":"13:00","types":["O","X","ONL"],"state":"SD","postal_code":"57350","city":"Huron","address":"235 Kansas Ave SE","latitude":44.364106,"longitude":-98.2127937,"location":"Turning Point","region":"Huron","notes":"Birthday Night is the last Wednesday of every month!!!!!","url":"https://area63aa.org/meetings/aa-101-group/","timezone":"America/Denver"},{"feed":"area63aa.org","slug":"d13-happy-destiny-2","name":"Happy Destiny","day":1,"time":"12:00","types":["D","X","O","EN","ONL"],"state":"SD","postal_code":"57785","city":"Sturgis","address":"950 Main St","latitude":44.4140944,"longitude":-103.5078442,"location":"Serenity Club","region":"Sturgis","conference_url":"https://us02web.zoom.us/j/348404041","url":"https://area63aa.org/meetings/d13-happy-destiny-2/","group":"Happy Destiny AA","timezone":"America/Denver"},{"feed":"area63aa.org","slug":"d2-noon-luncheon-group","name":"Noon Luncheon Group","day":1,"time":"12:00","types":["O"],"state":"SD","postal_code":"57702","city":"Rapid City","address":"325 Deadwood Ave","latitude":44.0832826,"longitude":-103.2568074,"location":"Alano Club","region":"Rapid City","url":"https://area63aa.org/meetings/d2-noon-luncheon-group/","group":"Noon Luncheon Group","timezone":"America/Denver"},{"feed":"area63aa.org","slug":"d2-rapid-city-noonzoom","name":"Noon Rapid City Zoom Room","day":1,"time":"12:00","types":["EN","O","B","12x12","D","ONL"],"state":"SD","postal_code":"57702","city":"Rapid City","address":"325 Deadwood Ave","latitude":44.0832826,"longitude":-103.2568074,"location":"Alano Club","region":"Rapid City","conference_url":"https://us02web.zoom.us/j/86160877370","url":"https://area63aa.org/meetings/d2-rapid-city-noonzoom/","group":"Noon Rapid City Zoom Group","timezone":"America/Denver"},{"feed":"area63aa.org","slug":"d2-rule-62-noon-group","name":"Rule 62 Noon Group","day":1,"time":"12:00","types":["O"],"state":"SD","postal_code":"57702","city":"Rapid City","address":"325 Deadwood Ave","latitude":44.0832826,"longitude":-103.2568074,"location":"Alano Club","region":"Rapid City","url":"https://area63aa.org/meetings/d2-rule-62-noon-group/","group":"Rule 62 Noon Group","timezone":"America/Denver"},{"feed":"area63aa.org","slug":"d4-yankton-daily-reprieve","name":"Yankton AA","day":1,"time":"12:00","types":["X","O","EN"],"state":"SD","postal_code":"57078","city":"Yankton","address":"1019 W 9th St","latitude":42.8773056,"longitude":-97.4094707,"location":"12-24 Alano Club","region":"Yankton","url":"https://area63aa.org/meetings/d4-yankton-daily-reprieve/","group":"Yankton AA","timezone":"America/Denver"},{"feed":"area63aa.org","slug":"d6-dakota-plains-recovery-2","name":"Dakota Plains Recovery","day":1,"time":"12:00","types":["O","EN"],"state":"SD","postal_code":"57262","city":"Sisseton","address":"302 Maple St E","latitude":45.6637444,"longitude":-97.0470215,"location":"Dakota Plains Recovery","region":"Aberdeen","url":"https://area63aa.org/meetings/d6-dakota-plains-recovery-2/","group":"Dakota Plains Recovery","timezone":"America/Denver"},{"feed":"area63aa.org","slug":"d7-pierre-8","name":"Pierre AA Group","day":1,"time":"12:00","types":["X","B","EN","D","O"],"state":"SD","postal_code":"57501","city":"Pierre","address":"325 S Garfield Ave","latitude":44.3612079,"longitude":-100.3170113,"location":"Alano Club","region":"Pierre","url":"https://area63aa.org/meetings/d7-pierre-8/","group":"Pierre AA Group","timezone":"America/Denver"},{"feed":"area63aa.org","slug":"d8-mitchell-2","name":"Mitchell A.A.","day":1,"time":"12:00","types":["EN","C","B","ABSI","GR","12x12","D","X"],"state":"SD","postal_code":"57301","city":"Mitchell","address":"424 E 9th Ave","latitude":43.7180296,"longitude":-98.0202909,"location":"Mitchell Alano Club","region":"Mitchell","notes":"Meeting is Open to friends and family Last Monday of the month is an Open Birthday Meeting Saturday at 11AM is a split men's (front room) and women's (back room) meeting.","url":"https://area63aa.org/meetings/d8-mitchell-2/","group":"Mitchell A.A.","timezone":"America/Denver"},{"feed":"area63aa.org","slug":"d9-higher-powered-lunch-2","name":"Higher Powered Lunch Group","day":1,"time":"12:00","types":["C","D","EN"],"state":"SD","postal_code":"57201","city":"Watertown","address":"26 1st Ave SW","latitude":44.8994126,"longitude":-97.1164161,"location":"Watertown Senior Center","region":"Watertown","url":"https://area63aa.org/meetings/d9-higher-powered-lunch-2/","group":"Higher Powered Lunch Group","timezone":"America/Denver"},{"feed":"area63aa.org","slug":"brookings-original-3","name":"Brookings Original Group","day":1,"time":"12:15","types":["B","D","EN","O","X"],"state":"SD","postal_code":"57006","city":"Brookings","address":"135 1st Ave S","latitude":44.3057253,"longitude":-96.8026769,"location":"Brookings Club","region":"Brookings","url":"https://area63aa.org/meetings/brookings-original-3/","group":"Brookings Original Group","timezone":"America/Denver"},{"feed":"area63aa.org","slug":"d9-gilbert-avenue-2","name":"Gilbert Avenue AA Group","day":1,"time":"12:15","types":["X"],"state":"SD","postal_code":"57201","city":"Watertown","address":"1021 Gilbert Ave NE","latitude":44.9004988,"longitude":-97.0972986,"location":"Gilbert House","region":"Watertown","url":"https://area63aa.org/meetings/d9-gilbert-avenue-2/","group":"Gilbert Avenue AA Group","timezone":"America/Denver"},{"feed":"area63aa.org","slug":"d6-yellow-house-women-10","name":"Yellow House Group","day":1,"time":"13:00","types":["D","X","O","EN"],"state":"SD","postal_code":"57401","city":"Aberdeen","address":"519 S Arch St","latitude":45.4592635,"longitude":-98.4804592,"location":"Alano Club","region":"Aberdeen","url":"https://area63aa.org/meetings/d6-yellow-house-women-10/","group":"Yellow House Group","timezone":"America/Denver"},{"feed":"area63aa.org","slug":"aa-101-group-8","name":"AA 101 Group","day":1,"time":"17:15","end_time":"18:15","types":["O","X"],"state":"SD","postal_code":"57350","city":"Huron","address":"235 Kansas Ave SE","latitude":44.364106,"longitude":-98.2127937,"location":"Turning Point","region":"Huron","notes":"Birthday Night is every Wednesday of the Month!!!","url":"https://area63aa.org/meetings/aa-101-group-8/","timezone":"America/Denver"},{"feed":"area63aa.org","slug":"brookings-original-group","name":"Brookings Original Group","day":1,"time":"17:15","end_time":"18:15","types":["C","D","X"],"state":"SD","postal_code":"57006","city":"Brookings","address":"135 1st Ave S","latitude":44.3057253,"longitude":-96.8026769,"location":"Brookings Club","region":"Brookings","notes":"First Monday of the month: topic meeting on month's tradition. (January = 1st Step, 1st Tradition; etc.)\nSecond Monday of the month: topic meeting on month's step.\nAll other Mondays: topic discussion from approved AA literature.","url":"https://area63aa.org/meetings/brookings-original-group/","timezone":"America/Denver"},{"feed":"area63aa.org","slug":"d8-mitchell-9","name":"Mitchell A.A.","day":1,"time":"17:15","types":["EN"],"state":"SD","postal_code":"57301","city":"Mitchell","address":"424 E 9th Ave","latitude":43.7180296,"longitude":-98.0202909,"location":"Mitchell Alano Club","region":"Mitchell","notes":"Meeting is Open to friends and family Last Thursday of the month is an Open Birthday Meeting Saturday at 11AM is a split men's (front room) and women's (back room) meeting.","url":"https://area63aa.org/meetings/d8-mitchell-9/","group":"Mitchell A.A.","timezone":"America/Denver"},{"feed":"area63aa.org","slug":"d9-gilbert-avenue-15","name":"Gilbert Avenue AA Group","day":1,"time":"17:15","types":["X"],"state":"SD","postal_code":"57201","city":"Watertown","address":"1021 Gilbert Ave NE","latitude":44.9004988,"longitude":-97.0972986,"location":"Gilbert House","region":"Watertown","url":"https://area63aa.org/meetings/d9-gilbert-avenue-15/","group":"Gilbert Avenue AA Group","timezone":"America/Denver"},{"feed":"area63aa.org","slug":"d5-harrisburg","name":"Harrisburg AA","day":1,"time":"17:30","types":["EN","C","B","D","X"],"state":"SD","postal_code":"57032","city":"Harrisburg","address":"1000 E Maple St","latitude":43.4294382,"longitude":-96.6891253,"location":"Harrisburg Shalom Lutheran","region":"Harrisburg","notes":"Meeting is Open to friends and family Last Monday of the month is an Open Birthday Meeting","url":"https://area63aa.org/meetings/d5-harrisburg/","group":"Harrisburg AA","timezone":"America/Denver"},{"feed":"area63aa.org","slug":"d5-recoveryaa","name":"Recovery AA","day":1,"time":"17:30","types":["EN","C","B","ST","X"],"state":"SD","postal_code":"57105","city":"Sioux Falls","address":"909 W 33rd St","latitude":43.5217908,"longitude":-96.7375361,"location":"Our Savior's Lutheran Church","region":"Sioux Falls","notes":"Room 103 (upstairs) Zoom: https://zoom.us/j/709980611, Meeting: 709980611 Last Monday OPEN Birthday","url":"https://area63aa.org/meetings/d5-recoveryaa/","group":"Recovery AA","timezone":"America/Denver"},{"feed":"area63aa.org","slug":"d5-savinggracew","name":"Saving Grace (Women)","day":1,"time":"17:30","types":["EN","C","B","W"],"state":"SD","postal_code":"57106","city":"Sioux Falls","address":"1300 S Sertoma Ave","latitude":43.5341983,"longitude":-96.8147574,"location":"Holy Cross Lutheran Church","region":"Sioux Falls","notes":"First Monday of the month is an Open Birthday Meeting","url":"https://area63aa.org/meetings/d5-savinggracew/","group":"Saving Grace (Women)","timezone":"America/Denver"},{"feed":"area63aa.org","slug":"d5-sf-southside-10","name":"Southside AA","day":1,"time":"17:30","types":["EN","C","ST","D","X"],"state":"SD","postal_code":"57105","city":"Sioux Falls","address":"4112 S West Ave","latitude":43.506528,"longitude":-96.7456775,"location":"Southside Alano Club","region":"Sioux Falls","notes":"SE Corner, 51st and West Spouse-Welcome Meeting: Tuesday and Thursday @ 8:00PM Last Friday of the month is an Open Birthday Meeting at 10:00AM and 5:30PM","url":"https://area63aa.org/meetings/d5-sf-southside-10/","group":"Southside AA","timezone":"America/Denver"},{"feed":"area63aa.org","slug":"d7-we-are-not-saints","name":"Oahe, We are Not Saints Group","day":1,"time":"17:30","types":["C","D","B","EN"],"state":"SD","postal_code":"57501","city":"Pierre","address":"325 S Garfield Ave","latitude":44.3612079,"longitude":-100.3170113,"location":"Alano Club","region":"Pierre","url":"https://area63aa.org/meetings/d7-we-are-not-saints/","group":"Oahe, We are Not Saints Group","timezone":"America/Denver"},{"feed":"area63aa.org","slug":"aa-hope-group","name":"AA Hope Group","day":1,"time":"18:00","types":["EN","O","G"],"state":"SD","postal_code":"57770","city":"Pine Ridge","latitude":43.0255408,"longitude":-102.5562743,"location":"Pine Ridge Presbyterian Church","region":"Pine Ridge","url":"https://area63aa.org/meetings/aa-hope-group/","group":"AA hope Group","timezone":"America/Denver"},{"feed":"area63aa.org","slug":"d10-oelrichs","name":"Oelrichs AA Group","day":1,"time":"18:00","types":["EN"],"state":"SD","postal_code":"57763","city":"Oelrichs","address":"W 6th St","latitude":43.1809278,"longitude":-103.2345044,"location":"Oelrichs Community Center","region":"Oelrichs","notes":"X. O","url":"https://area63aa.org/meetings/d10-oelrichs/","group":"Oelrichs AA Group","timezone":"America/Denver"},{"feed":"area63aa.org","slug":"d6-6th-sense-2","name":"6th Sense Group","day":1,"time":"18:00","types":["O"],"state":"SD","postal_code":"57401","city":"Aberdeen","address":"422 5th Ave SE","latitude":45.4598632,"longitude":-98.4811725,"location":"422 SE 5th Ave","region":"Aberdeen","url":"https://area63aa.org/meetings/d6-6th-sense-2/","group":"6th Sense Group","timezone":"America/Denver"},{"feed":"area63aa.org","slug":"spearfish-aa-group-5","name":"Spearfish AA Group","day":1,"time":"18:00","end_time":"19:00","types":["D","W"],"state":"SD","postal_code":"57783","city":"Spearfish","address":"129 W Michigan St","latitude":44.4940427,"longitude":-103.8605382,"location":"All Angel's Episcopal Church","region":"Spearfish","notes":"Women's meeting.","url":"https://area63aa.org/meetings/spearfish-aa-group-5/","timezone":"America/Denver"},{"feed":"area63aa.org","slug":"d5-opendoor-alanon","name":"Open Door Al-Anon","day":1,"time":"18:30","types":["EN","AL-AN","ST"],"state":"SD","postal_code":"57105","city":"Sioux Falls","address":"2001 S Elmwood Ave","latitude":43.5271328,"longitude":-96.7566342,"location":"St. Mark's Lutheran Church","region":"Sioux Falls","url":"https://area63aa.org/meetings/d5-opendoor-alanon/","group":"Open Door Al-Anon","timezone":"America/Denver"},{"feed":"area63aa.org","slug":"d8-turning-point-2","name":"Turning Point","day":1,"time":"18:30","types":["X","O","EN"],"state":"SD","postal_code":"57350","city":"Huron","address":"235 Kansas Ave SE","latitude":44.364106,"longitude":-98.2127937,"location":"Turning Point","region":"Huron","url":"https://area63aa.org/meetings/d8-turning-point-2/","group":"Turning Point","timezone":"America/Denver"},{"feed":"area63aa.org","slug":"d2-a-way-out-for-women","name":"A Way Out for Women","day":1,"time":"18:45","types":["EN","ONL"],"state":"SD","postal_code":"57702","city":"Rapid City","address":"3500 Canyon Lake Dr","latitude":44.0725914,"longitude":-103.2779369,"location":"Canyon Lake United Methodist Church","region":"Rapid City","conference_url":"https://us02web.zoom.us/j/2020061035","url":"https://area63aa.org/meetings/d2-a-way-out-for-women/","group":"A Way Out for Women","timezone":"America/Denver"},{"feed":"area63aa.org","slug":"d10-hill-city-rushmore","name":"Hill City Rushmore AA Group","day":1,"time":"19:00","types":["O"],"state":"SD","postal_code":"57745","city":"Hill City","address":"256 Pine Ave","latitude":43.931444,"longitude":-103.5764728,"location":"Assembly of God Church","region":"Hill City","url":"https://area63aa.org/meetings/d10-hill-city-rushmore/","group":"Hill City Rushmore AA Group","timezone":"America/Denver"},{"feed":"area63aa.org","slug":"d12wagner-westside","name":"Westside Group","day":1,"time":"19:00","end_time":"20:00","types":["C"],"state":"SD","postal_code":"57380","city":"Wagner","address":"110 High Ave NW","latitude":43.0824352,"longitude":-98.295981,"location":"St Johns Lutheran Church","region":"Wagner","url":"https://area63aa.org/meetings/d12wagner-westside/","group":"Westside Group","timezone":"America/Denver"},{"feed":"area63aa.org","slug":"d2-hit-or-miss-meeting","name":"Hit or Miss Meeting","day":1,"time":"19:00","types":["C","B","X","EN"],"state":"SD","postal_code":"57702","city":"Rapid City","address":"325 Deadwood Ave","latitude":44.0832826,"longitude":-103.2568074,"location":"Alano Club","region":"Rapid City","url":"https://area63aa.org/meetings/d2-hit-or-miss-meeting/","group":"Hit or Miss Meeting","timezone":"America/Denver"},{"feed":"area63aa.org","slug":"d2-monday-night-men","name":"Monday Night Men's Group","day":1,"time":"19:00","types":["C","D","M","X","EN"],"state":"SD","postal_code":"57702","city":"Rapid City","address":"4500 Jackson Blvd","latitude":44.0617305,"longitude":-103.2941272,"location":"Blessed Sacrament Catholic Church","region":"Rapid City","url":"https://area63aa.org/meetings/d2-monday-night-men/","group":"Monday Night Men's Group","timezone":"America/Denver"},{"feed":"area63aa.org","slug":"d3-monday-madness","name":"Monday Madness","day":1,"time":"19:00","types":["C","EN"],"state":"SD","postal_code":"57572","city":"St Francis","address":"350 Oak St","latitude":43.1402457,"longitude":-100.9058838,"location":"Icimani Ya Waste' Recovery Center","region":"St Francis","url":"https://area63aa.org/meetings/d3-monday-madness/","group":"Monday Madness","timezone":"America/Denver"},{"feed":"area63aa.org","slug":"d4-yankton-daily-reprieve-8","name":"Yankton AA","day":1,"time":"19:00","types":["X","O","EN"],"state":"SD","postal_code":"57078","city":"Yankton","address":"1019 W 9th St","latitude":42.8773056,"longitude":-97.4094707,"location":"12-24 Alano Club","region":"Yankton","url":"https://area63aa.org/meetings/d4-yankton-daily-reprieve-8/","group":"Yankton AA","timezone":"America/Denver"},{"feed":"area63aa.org","slug":"d5-brandon12x12","name":"Brandon 12x12","day":1,"time":"19:00","types":["EN","C","12x12","ST","B","D"],"state":"SD","postal_code":"57005","city":"Brandon","address":"209 E Elm St","latitude":43.5913034,"longitude":-96.5888338,"location":"209 E Elm St, Brandon, SD, 57005","region":"Brandon","notes":"Located behind the VFW (Open Birthday Meetings) Zoom: https://zoom.us/j/777305352,\nMeeting: 777-305-352 Password: Br@ndon39\nLast Monday of the month is an Open Birthday Meeting\nLast Thursday of the month is an Open Speaker Meeting","url":"https://area63aa.org/meetings/d5-brandon12x12/","group":"Brandon 12x12","timezone":"America/Denver"},{"feed":"area63aa.org","slug":"d5-sf-westside-11","name":"Westside AA","day":1,"time":"19:00","end_time":"20:00","types":["EN"],"state":"SD","postal_code":"57104","city":"Sioux Falls","address":"1509 W 1st St","latitude":43.5572112,"longitude":-96.7488556,"location":"Westside Alano Club","region":"Sioux Falls","notes":"Speaker Meeting 2nd Friday of the month Last Friday of the month is an Open Birthday Meeting Friday meetings are Open Sunday at 7:30PM is Open Saturday at 8:00PM is a Traditions Meeting","url":"https://area63aa.org/meetings/d5-sf-westside-11/","group":"Westside AA","timezone":"America/Denver"},{"feed":"area63aa.org","slug":"d7-lower-brule","name":"Lower Brule AA","day":1,"time":"19:00","types":["C","X","EN"],"state":"SD","postal_code":"57548","city":"Lower Brule","address":"Gall St","latitude":44.0750146,"longitude":-99.5831757,"location":"Lower Brule Friendship House","region":"Lower Brule","url":"https://area63aa.org/meetings/d7-lower-brule/","group":"Lower Brule AA","timezone":"America/Denver"},{"feed":"area63aa.org","slug":"mile-high-recovery-group","name":"Mile High Recovery Group","day":1,"time":"19:00","end_time":"20:00","types":["C"],"state":"SD","postal_code":"57754","city":"Lead","address":"111 S Main St","latitude":44.3494304,"longitude":-103.774809,"location":"Trinity United Methodist","url":"https://area63aa.org/meetings/mile-high-recovery-group/","timezone":"America/Denver"},{"feed":"area63aa.org","slug":"yellow-house-group","name":"Yellow House Group","day":1,"time":"19:00","end_time":"20:00","types":["C"],"state":"SD","postal_code":"57401","city":"Aberdeen","address":"519 S Arch St","latitude":45.4592635,"longitude":-98.4804592,"location":"Alano Club","region":"Aberdeen","url":"https://area63aa.org/meetings/yellow-house-group/","timezone":"America/Denver"},{"feed":"area63aa.org","slug":"brookings-original-4","name":"Brookings Original Group","day":1,"time":"19:30","types":["B","D","EN","O","X"],"state":"SD","postal_code":"57006","city":"Brookings","address":"135 1st Ave S","latitude":44.3057253,"longitude":-96.8026769,"location":"Brookings Club","region":"Brookings","url":"https://area63aa.org/meetings/brookings-original-4/","group":"Brookings Original Group","timezone":"America/Denver"},{"feed":"area63aa.org","slug":"d2-keep-it-simple-group","name":"Keep It Simple Group","day":1,"time":"19:30","types":["O"],"state":"SD","postal_code":"57701","city":"Rapid City","address":"629 Kansas City St","latitude":44.0789996,"longitude":-103.2293143,"location":"First United Methodist Church","region":"Rapid City","url":"https://area63aa.org/meetings/d2-keep-it-simple-group/","group":"Keep It Simple Group","timezone":"America/Denver"},{"feed":"area63aa.org","slug":"d5-flandreau-alanon","name":"Flandreau Al-Anon","day":1,"time":"19:30","types":["EN","AL-AN","ST","X"],"state":"SD","postal_code":"57028","city":"Flandreau","address":"101 N Prairie St","latitude":44.0488756,"longitude":-96.5909772,"location":"2nd Presbyterian Chapel","region":"Flandreau","url":"https://area63aa.org/meetings/d5-flandreau-alanon/","group":"Flandreau Al-Anon","timezone":"America/Denver"},{"feed":"area63aa.org","slug":"spearfish-aa-group","name":"Spearfish AA Group","day":1,"time":"19:30","end_time":"20:30","types":["C","D","EN"],"state":"SD","postal_code":"57783","city":"Spearfish","address":"129 W Michigan St","latitude":44.4940427,"longitude":-103.8605382,"location":"All Angel's Episcopal Church","region":"Spearfish","url":"https://area63aa.org/meetings/spearfish-aa-group/","timezone":"America/Denver"},{"feed":"area63aa.org","slug":"viborg-aa","name":"Viborg AA","day":1,"time":"19:30","end_time":"20:30","types":["C","D","EN"],"state":"SD","postal_code":"57070","city":"Viborg","address":"226 N Main St","latitude":43.1737275,"longitude":-97.0812336,"location":"Church of Nazerene","url":"https://area63aa.org/meetings/viborg-aa/","timezone":"America/Denver"},{"feed":"area63aa.org","slug":"d5-blacksheep","name":"Black Sheep AA","day":1,"time":"20:00","types":["EN","C","ST","B"],"state":"SD","postal_code":"57105","city":"Sioux Falls","address":"2707 W 33rd St","latitude":43.5217403,"longitude":-96.7592195,"location":"Good Shepherd Episcopal Church","region":"Sioux Falls","notes":"Last Monday of the month is an Open Birthday Meeting","url":"https://area63aa.org/meetings/d5-blacksheep/","group":"Black Sheep AA","timezone":"America/Denver"},{"feed":"area63aa.org","slug":"d5-madison-3","name":"Madison AA","day":1,"time":"20:00","types":["EN","C","B","12x12","D","X"],"state":"SD","postal_code":"57042","city":"Madison","address":"453rd Ave","latitude":43.8771099,"longitude":-97.1489586,"location":"Hwy 34 and 453rd Ave, Madison, SD, 57042","region":"Madison","notes":"South side of highway, near vet clinic; 1 mi west of town Saturday meeting are Open","url":"https://area63aa.org/meetings/d5-madison-3/","group":"Madison AA","timezone":"America/Denver"},{"feed":"area63aa.org","slug":"d5-sf-southside-17","name":"Southside AA","day":1,"time":"20:00","types":["EN","C","ST","D","X"],"state":"SD","postal_code":"57105","city":"Sioux Falls","address":"4112 S West Ave","latitude":43.506528,"longitude":-96.7456775,"location":"Southside Alano Club","region":"Sioux Falls","notes":"SE Corner, 51st and West Spouse-Welcome Meeting: Tuesday and Thursday @ 8:00PM Last Friday of the month is an Open Birthday Meeting at 10:00AM and 5:30PM","url":"https://area63aa.org/meetings/d5-sf-southside-17/","group":"Southside AA","timezone":"America/Denver"},{"feed":"area63aa.org","slug":"d6-sisseton","name":"Sisseton Group","day":1,"time":"20:00","types":["C","D","X","EN"],"state":"SD","postal_code":"57262","city":"Sisseton","address":"619 Main Ave","latitude":45.6661709,"longitude":-97.0506419,"location":"St. Kateri's","region":"Sisseton","url":"https://area63aa.org/meetings/d6-sisseton/","group":"Sisseton Group","timezone":"America/Denver"},{"feed":"area63aa.org","slug":"d7-draper","name":"Draper AA Group","day":1,"time":"20:00","types":["X","O","EN"],"state":"SD","postal_code":"57531","city":"Draper","address":"200 Main St","latitude":43.926534,"longitude":-100.5399612,"location":"St Paul Lutheran Church","region":"Draper","url":"https://area63aa.org/meetings/d7-draper/","group":"Draper AA Group","timezone":"America/Denver"},{"feed":"area63aa.org","slug":"d7-gettysb","name":"Gettysburg Group","day":1,"time":"20:00","types":["X","O","EN"],"state":"SD","postal_code":"57442","city":"Gettysburg","address":"203 E Garfield Ave","latitude":45.0139508,"longitude":-99.9539242,"location":"Catholic Church","region":"Gettysburg","url":"https://area63aa.org/meetings/d7-gettysb/","group":"Gettysburg Group","timezone":"America/Denver"},{"feed":"area63aa.org","slug":"d7-pierre-2","name":"Pierre AA Group","day":1,"time":"20:00","types":["X","B","EN","D","O"],"state":"SD","postal_code":"57501","city":"Pierre","address":"325 S Garfield Ave","latitude":44.3612079,"longitude":-100.3170113,"location":"Alano Club","region":"Pierre","url":"https://area63aa.org/meetings/d7-pierre-2/","group":"Pierre AA Group","timezone":"America/Denver"},{"feed":"area63aa.org","slug":"d8-mitchell-16","name":"Mitchell A.A.","day":1,"time":"20:00","types":["EN"],"state":"SD","postal_code":"57301","city":"Mitchell","address":"424 E 9th Ave","latitude":43.7180296,"longitude":-98.0202909,"location":"Mitchell Alano Club","region":"Mitchell","notes":"Meeting is Open to friends and family Last Thursday of the month is an Open Birthday Meeting Saturday at 11AM is a split men's (front room) and women's (back room) meeting.","url":"https://area63aa.org/meetings/d8-mitchell-16/","group":"Mitchell A.A.","timezone":"America/Denver"},{"feed":"area63aa.org","slug":"d8-riverside-aa-2","name":"Riverside AA","day":1,"time":"20:00","types":["EN","O","B","D"],"state":"SD","postal_code":"57350","city":"Huron","address":"626 1st St SW","latitude":44.365418,"longitude":-98.2243953,"location":"Alano Club","region":"Huron","url":"https://area63aa.org/meetings/d8-riverside-aa-2/","group":"Riverside AA","timezone":"America/Denver"},{"feed":"area63aa.org","slug":"d9-gilbert-avenue-9","name":"Gilbert Avenue AA Group","day":1,"time":"20:15","types":["X"],"state":"SD","postal_code":"57201","city":"Watertown","address":"1021 Gilbert Ave NE","latitude":44.9004988,"longitude":-97.0972986,"location":"Gilbert House","region":"Watertown","url":"https://area63aa.org/meetings/d9-gilbert-avenue-9/","group":"Gilbert Avenue AA Group","timezone":"America/Denver"},{"feed":"area63aa.org","slug":"d6-yellow-house-women-4","name":"Yellow House Group","day":1,"time":"20:30","types":["D","X","O","EN"],"state":"SD","postal_code":"57401","city":"Aberdeen","address":"519 S Arch St","latitude":45.4592635,"longitude":-98.4804592,"location":"Alano Club","region":"Aberdeen","url":"https://area63aa.org/meetings/d6-yellow-house-women-4/","group":"Yellow House Group","timezone":"America/Denver"},{"feed":"area63aa.org","slug":"d2-early-risers-group-2","name":"Early Risers Group","day":2,"time":"06:45","end_time":"07:45","types":["O"],"state":"SD","postal_code":"57702","city":"Rapid City","address":"325 Deadwood Ave","latitude":44.0832826,"longitude":-103.2568074,"location":"Alano Club","region":"Rapid City","url":"https://area63aa.org/meetings/d2-early-risers-group-2/","group":"Early Risers Group","timezone":"America/Denver"},{"feed":"area63aa.org","slug":"d2-sober-sunrise-2","name":"Sober Sunrise","day":2,"time":"06:45","types":["EN","ONL"],"state":"SD","city":"Rapid City","latitude":44.0805434,"longitude":-103.2310149,"location":"Rapid City, SD, USA","region":"Rapid City","conference_url":"https://us02web.zoom.us/j/867-939-2380","url":"https://area63aa.org/meetings/d2-sober-sunrise-2/","group":"Sober Sunrise","timezone":"America/Denver"},{"feed":"area63aa.org","slug":"d5-sf-westside-8","name":"Westside AA","day":2,"time":"08:00","types":["EN","C","B","TR","X"],"state":"SD","postal_code":"57104","city":"Sioux Falls","address":"1509 W 1st St","latitude":43.5572112,"longitude":-96.7488556,"location":"Westside Alano Club","region":"Sioux Falls","notes":"Speaker Meeting 2nd Friday of the month Last Friday of the month is an Open Birthday Meeting Friday meetings are Open Sunday at 7:30PM is Open Saturday at 8:00PM is a Traditions Meeting","url":"https://area63aa.org/meetings/d5-sf-westside-8/","group":"Westside AA","timezone":"America/Denver"},{"feed":"area63aa.org","slug":"d5-sf-southside-3","name":"Southside AA","day":2,"time":"10:00","types":["EN","C","ST","D","X"],"state":"SD","postal_code":"57105","city":"Sioux Falls","address":"4112 S West Ave","latitude":43.506528,"longitude":-96.7456775,"location":"Southside Alano Club","region":"Sioux Falls","notes":"SE Corner, 51st and West Spouse-Welcome Meeting: Tuesday and Thursday @ 8:00PM Last Friday of the month is an Open Birthday Meeting at 10:00AM and 5:30PM","url":"https://area63aa.org/meetings/d5-sf-southside-3/","group":"Southside AA","timezone":"America/Denver"},{"feed":"area63aa.org","slug":"d5-sf-westside-2","name":"Westside AA","day":2,"time":"10:00","types":["EN","C","B","TR","X"],"state":"SD","postal_code":"57104","city":"Sioux Falls","address":"1509 W 1st St","latitude":43.5572112,"longitude":-96.7488556,"location":"Westside Alano Club","region":"Sioux Falls","notes":"Speaker Meeting 2nd Friday of the month Last Friday of the month is an Open Birthday Meeting Friday meetings are Open Sunday at 7:30PM is Open Saturday at 8:00PM is a Traditions Meeting","url":"https://area63aa.org/meetings/d5-sf-westside-2/","group":"Westside AA","timezone":"America/Denver"},{"feed":"area63aa.org","slug":"aa-101-group-2","name":"AA 101 Group","day":2,"time":"12:00","end_time":"13:00","types":["O","X","ONL"],"state":"SD","postal_code":"57350","city":"Huron","address":"235 Kansas Ave SE","latitude":44.364106,"longitude":-98.2127937,"location":"Turning Point","region":"Huron","notes":"Birthday night is the last Wednesday Of every month!!!","url":"https://area63aa.org/meetings/aa-101-group-2/","timezone":"America/Denver"},{"feed":"area63aa.org","slug":"d13-happy-destiny-5","name":"Happy Destiny","day":2,"time":"12:00","types":["D","X","O","EN","ONL"],"state":"SD","postal_code":"57785","city":"Sturgis","address":"950 Main St","latitude":44.4140944,"longitude":-103.5078442,"location":"Serenity Club","region":"Sturgis","conference_url":"https://us02web.zoom.us/j/348404041","url":"https://area63aa.org/meetings/d13-happy-destiny-5/","group":"Happy Destiny AA","timezone":"America/Denver"},{"feed":"area63aa.org","slug":"d13-noon-at-newmans-2","name":"Noon at Newman's AA Meeting","day":2,"time":"12:00","types":["C","D","EN"],"state":"SD","postal_code":"57783","city":"Spearfish","address":"814 W King St","latitude":44.4923876,"longitude":-103.8707815,"location":"Newman Center","region":"Spearfish","url":"https://area63aa.org/meetings/d13-noon-at-newmans-2/","group":"Noon at Newman's AA","timezone":"America/Denver"},{"feed":"area63aa.org","slug":"d2-noon-luncheon-group-2","name":"Noon Luncheon Group","day":2,"time":"12:00","types":["O"],"state":"SD","postal_code":"57702","city":"Rapid City","address":"325 Deadwood Ave","latitude":44.0832826,"longitude":-103.2568074,"location":"Alano Club","region":"Rapid City","url":"https://area63aa.org/meetings/d2-noon-luncheon-group-2/","group":"Noon Luncheon Group","timezone":"America/Denver"},{"feed":"area63aa.org","slug":"d2-rule-62-noon-group-2","name":"Rule 62 Noon Group","day":2,"time":"12:00","types":["O"],"state":"SD","postal_code":"57702","city":"Rapid City","address":"325 Deadwood Ave","latitude":44.0832826,"longitude":-103.2568074,"location":"Alano Club","region":"Rapid City","url":"https://area63aa.org/meetings/d2-rule-62-noon-group-2/","group":"Rule 62 Noon Group","timezone":"America/Denver"},{"feed":"area63aa.org","slug":"d4-yankton-daily-reprieve-2","name":"Yankton AA","day":2,"time":"12:00","types":["X","O","EN"],"state":"SD","postal_code":"57078","city":"Yankton","address":"1019 W 9th St","latitude":42.8773056,"longitude":-97.4094707,"location":"12-24 Alano Club","region":"Yankton","url":"https://area63aa.org/meetings/d4-yankton-daily-reprieve-2/","group":"Yankton AA","timezone":"America/Denver"},{"feed":"area63aa.org","slug":"d5-madisonaagrace-2","name":"Madison AA","day":2,"time":"12:00","types":["EN","C","B"],"state":"SD","postal_code":"57042","city":"Madison","address":"3rd St NW","latitude":44.0082741,"longitude":-97.1213547,"location":"Grace Episcopal Church","region":"Madison","notes":"Behind Casey's","url":"https://area63aa.org/meetings/d5-madisonaagrace-2/","group":"Madison AA","timezone":"America/Denver"},{"feed":"area63aa.org","slug":"d7-pierre-9","name":"Pierre AA Group","day":2,"time":"12:00","types":["X","B","EN","D","O"],"state":"SD","postal_code":"57501","city":"Pierre","address":"325 S Garfield Ave","latitude":44.3612079,"longitude":-100.3170113,"location":"Alano Club","region":"Pierre","url":"https://area63aa.org/meetings/d7-pierre-9/","group":"Pierre AA Group","timezone":"America/Denver"},{"feed":"area63aa.org","slug":"d8-mitchell-3","name":"Mitchell A.A.","day":2,"time":"12:00","types":["EN"],"state":"SD","postal_code":"57301","city":"Mitchell","address":"424 E 9th Ave","latitude":43.7180296,"longitude":-98.0202909,"location":"Mitchell Alano Club","region":"Mitchell","notes":"Meeting is Open to friends and family Last Thursday of the month is an Open Birthday Meeting Saturday at 11AM is a split men's (front room) and women's (back room) meeting.","url":"https://area63aa.org/meetings/d8-mitchell-3/","group":"Mitchell A.A.","timezone":"America/Denver"},{"feed":"area63aa.org","slug":"brookings-original-11","name":"Brookings Original Group","day":2,"time":"12:15","types":["B","D","EN","O","X"],"state":"SD","postal_code":"57006","city":"Brookings","address":"135 1st Ave S","latitude":44.3057253,"longitude":-96.8026769,"location":"Brookings Club","region":"Brookings","url":"https://area63aa.org/meetings/brookings-original-11/","group":"Brookings Original Group","timezone":"America/Denver"},{"feed":"area63aa.org","slug":"d9-gilbert-avenue-3","name":"Gilbert Avenue AA Group","day":2,"time":"12:15","types":["X"],"state":"SD","postal_code":"57201","city":"Watertown","address":"1021 Gilbert Ave NE","latitude":44.9004988,"longitude":-97.0972986,"location":"Gilbert House","region":"Watertown","url":"https://area63aa.org/meetings/d9-gilbert-avenue-3/","group":"Gilbert Avenue AA Group","timezone":"America/Denver"},{"feed":"area63aa.org","slug":"d6-yellow-house-women-11","name":"Yellow House Group","day":2,"time":"13:00","types":["D","X","O","EN"],"state":"SD","postal_code":"57401","city":"Aberdeen","address":"519 S Arch St","latitude":45.4592635,"longitude":-98.4804592,"location":"Alano Club","region":"Aberdeen","url":"https://area63aa.org/meetings/d6-yellow-house-women-11/","group":"Yellow House Group","timezone":"America/Denver"},{"feed":"area63aa.org","slug":"d7-mobridge","name":"Mobridge AA Group","day":2,"time":"17:00","types":["X","O","EN"],"state":"SD","postal_code":"57601","city":"Mobridge","address":"323 4th Ave E","latitude":45.5362471,"longitude":-100.4285161,"location":"412 Club","region":"Mobridge","url":"https://area63aa.org/meetings/d7-mobridge/","group":"Mobridge AA Group","timezone":"America/Denver"},{"feed":"area63aa.org","slug":"the-tire-barn-meeting","name":"The Tire Barn meeting","day":2,"time":"17:00","end_time":"18:00","types":["EN"],"state":"SD","postal_code":"57301","city":"Mitchell","address":"1017 W 8th Ave","latitude":43.7161166,"longitude":-98.0397849,"location":"1017 W. 8th Av. Mitchell, SD 57301","region":"Mitchell","notes":"Entrance is on the South East side of the North building","url":"https://area63aa.org/meetings/the-tire-barn-meeting/","group":"The Tire Barn Meeting","timezone":"America/Denver"},{"feed":"area63aa.org","slug":"d5-sf-westside-women","name":"Westside AA (Women)","day":2,"time":"17:15","types":["EN","C","B","TR","X","W"],"state":"SD","postal_code":"57104","city":"Sioux Falls","address":"1509 W 1st St","latitude":43.5572112,"longitude":-96.7488556,"location":"Westside Alano Club","region":"Sioux Falls","url":"https://area63aa.org/meetings/d5-sf-westside-women/","group":"Westside AA (Women)","timezone":"America/Denver"},{"feed":"area63aa.org","slug":"d8-mitchell-10","name":"Mitchell A.A.","day":2,"time":"17:15","types":["EN"],"state":"SD","postal_code":"57301","city":"Mitchell","address":"424 E 9th Ave","latitude":43.7180296,"longitude":-98.0202909,"location":"Mitchell Alano Club","region":"Mitchell","notes":"Meeting is Open to friends and family Last Thursday of the month is an Open Birthday Meeting Saturday at 11AM is a split men's (front room) and women's (back room) meeting.","url":"https://area63aa.org/meetings/d8-mitchell-10/","group":"Mitchell A.A.","timezone":"America/Denver"},{"feed":"area63aa.org","slug":"d9-gilbert-avenue-16","name":"Gilbert Avenue AA Group","day":2,"time":"17:15","types":["X"],"state":"SD","postal_code":"57201","city":"Watertown","address":"1021 Gilbert Ave NE","latitude":44.9004988,"longitude":-97.0972986,"location":"Gilbert House","region":"Watertown","url":"https://area63aa.org/meetings/d9-gilbert-avenue-16/","group":"Gilbert Avenue AA Group","timezone":"America/Denver"},{"feed":"area63aa.org","slug":"d2ya-gotta-want-it","name":"Ya Gotta Want It (Big Book 101)","day":2,"time":"17:30","types":["O","B","X","EN"],"state":"SD","postal_code":"57702","city":"Rapid City","address":"329 Deadwood Ave","latitude":44.0872239,"longitude":-103.2609488,"location":"329 Deadwood Ave, Rapid City, SD, 57702","region":"Rapid City","url":"https://area63aa.org/meetings/d2ya-gotta-want-it/","group":"Ya Gotta Want It (Big Book 101)","timezone":"America/Denver"},{"feed":"area63aa.org","slug":"d4-yankton-women","name":"Each Day A New Beginning  (Women)","day":2,"time":"17:30","types":["O","X"],"state":"SD","postal_code":"57078","city":"Yankton","address":"1019 W 9th St","latitude":42.8773056,"longitude":-97.4094707,"location":"12-24 Alano Club","region":"Yankton","notes":"Zoom ID - 619 213 0510\nPassword - w1m05h","url":"https://area63aa.org/meetings/d4-yankton-women/","group":"Yankton AA (Women)","timezone":"America/Denver"},{"feed":"area63aa.org","slug":"d5-freespiritwomen","name":"Free Spirit (Women)","day":2,"time":"17:30","types":["EN","C","B","W","X"],"state":"SD","postal_code":"57105","city":"Sioux Falls","address":"2425 S Western Ave","latitude":43.5232548,"longitude":-96.7519921,"location":"Asbury United Methodist Church","region":"Sioux Falls","url":"https://area63aa.org/meetings/d5-freespiritwomen/","group":"Free Spirit (Women)","timezone":"America/Denver"},{"feed":"area63aa.org","slug":"d5-madisonaagrace-3","name":"Madison AA","day":2,"time":"17:30","types":["EN","C","B"],"state":"SD","postal_code":"57042","city":"Madison","address":"3rd St NW","latitude":44.0082741,"longitude":-97.1213547,"location":"Grace Episcopal Church","region":"Madison","notes":"Behind Casey's","url":"https://area63aa.org/meetings/d5-madisonaagrace-3/","group":"Madison AA","timezone":"America/Denver"},{"feed":"area63aa.org","slug":"d5-rainbow-wildbunch","name":"Rainbow Wildbunch AA","day":2,"time":"17:30","types":["EN"],"state":"SD","postal_code":"57105","city":"Sioux Falls","address":"909 W 33rd St","latitude":43.5217908,"longitude":-96.7375361,"location":"Our Savior's Lutheran Church","region":"Sioux Falls","notes":"Friendship Room. First Saturday of the month is an Open Birthday Meeting","url":"https://area63aa.org/meetings/d5-rainbow-wildbunch/","group":"Rainbow Wildbunch AA","timezone":"America/Denver"},{"feed":"area63aa.org","slug":"d5-sf-southside-11","name":"Southside AA","day":2,"time":"17:30","types":["EN","C","ST","D","X"],"state":"SD","postal_code":"57105","city":"Sioux Falls","address":"4112 S West Ave","latitude":43.506528,"longitude":-96.7456775,"location":"Southside Alano Club","region":"Sioux Falls","notes":"SE Corner, 51st and West Spouse-Welcome Meeting: Tuesday and Thursday @ 8:00PM Last Friday of the month is an Open Birthday Meeting at 10:00AM and 5:30PM","url":"https://area63aa.org/meetings/d5-sf-southside-11/","group":"Southside AA","timezone":"America/Denver"},{"feed":"area63aa.org","slug":"tuesday-night-step-meeting","name":"Tuesday Night Step Meeting","day":2,"time":"17:30","end_time":"18:30","types":["C","EN","X"],"state":"SD","postal_code":"57401","city":"Aberdeen","address":"502 S Lincoln St","latitude":45.4596385,"longitude":-98.4870309,"location":"Aldersgate Church","region":"Aberdeen","url":"https://area63aa.org/meetings/tuesday-night-step-meeting/","timezone":"America/Denver"},{"feed":"area63aa.org","slug":"yankton-mens","name":"Yankton Men's","day":2,"time":"17:30","end_time":"18:30","types":["B","EN","M","O","X"],"state":"SD","postal_code":"57078","city":"Yankton","address":"1019 W 9th St","latitude":42.8773056,"longitude":-97.4094707,"location":"12-24 Alano Club","region":"Yankton","notes":"Potluck and speaker the last Saturday of every two months. (January, March, May, July, September, and November. We meet downstairs while the women meet upstairs.","url":"https://area63aa.org/meetings/yankton-mens/","group":"Yankton AA (Men)","timezone":"America/Denver"},{"feed":"area63aa.org","slug":"d5-progressnotperfection-2","name":"Progress Not Perfection","day":2,"time":"17:45","types":["EN","O","B","ST","D","X"],"state":"SD","postal_code":"57110","city":"Sioux Falls","address":"811 S Gordon Dr","latitude":43.5400784,"longitude":-96.6672799,"location":"Resurrection Christian Church","region":"Sioux Falls","notes":"East on 10th Street; Gordon Dr is 1 blk east of Sycamore","url":"https://area63aa.org/meetings/d5-progressnotperfection-2/","group":"Progress Not Perfection","timezone":"America/Denver"},{"feed":"area63aa.org","slug":"yellow-house-group-3","name":"Yellow House Group","day":2,"time":"17:45","end_time":"18:45","types":["C"],"state":"SD","postal_code":"57401","city":"Aberdeen","address":"519 S Arch St","latitude":45.4592635,"longitude":-98.4804592,"location":"Alano Club","region":"Aberdeen","url":"https://area63aa.org/meetings/yellow-house-group-3/","timezone":"America/Denver"},{"feed":"area63aa.org","slug":"d10-friends-of-bill-w","name":"Friends of Bill W","day":2,"time":"18:00","types":["O","D","X","EN","B"],"state":"SD","postal_code":"57747","city":"Hot Springs","address":"1537 Baltimore Ave","latitude":43.4272735,"longitude":-103.4794482,"location":"Bethesda Lutheran Church","region":"Hot Springs","notes":"Enter door to left of Main Entrance downstairs; lift provided\n\n12x12. TR","url":"https://area63aa.org/meetings/d10-friends-of-bill-w/","group":"Friends of Bill W","timezone":"America/Denver"},{"feed":"area63aa.org","slug":"eagle-nest","name":"Eagle Nest Butte Group","day":2,"time":"18:00","types":["X","O","EN"],"state":"SD","postal_code":"57577","city":"Wanblee","address":"2nd Ave","latitude":43.5645051,"longitude":-101.6588843,"location":"Anpetu Oyate Wanblee","region":"Wanblee","url":"https://area63aa.org/meetings/eagle-nest/","group":"Eagle Nest Butte Group","timezone":"America/Denver"},{"feed":"area63aa.org","slug":"d6-dakota-plains-recovery-3","name":"Dakota Plains Recovery","day":2,"time":"18:30","end_time":"19:30","types":["C","D"],"state":"SD","postal_code":"57262","city":"Sisseton","address":"302 Maple St E","latitude":45.6637444,"longitude":-97.0470215,"location":"Dakota Plains Recovery","region":"Aberdeen","url":"https://area63aa.org/meetings/d6-dakota-plains-recovery-3/","group":"Dakota Plains Recovery","timezone":"America/Denver"},{"feed":"area63aa.org","slug":"d8-turning-point-3","name":"Turning Point","day":2,"time":"18:30","types":["X","O","EN"],"state":"SD","postal_code":"57350","city":"Huron","address":"235 Kansas Ave SE","latitude":44.364106,"longitude":-98.2127937,"location":"Turning Point","region":"Huron","url":"https://area63aa.org/meetings/d8-turning-point-3/","group":"Turning Point","timezone":"America/Denver"},{"feed":"area63aa.org","slug":"d9-grapevine","name":"Grapevine Group","day":2,"time":"18:30","types":["C","D","EN"],"state":"SD","postal_code":"57201","city":"Watertown","address":"309 2nd Ave SE","latitude":44.8973664,"longitude":-97.1099495,"location":"IC Parish Center","region":"Watertown","url":"https://area63aa.org/meetings/d9-grapevine/","group":"Grapevine Group","timezone":"America/Denver"},{"feed":"area63aa.org","slug":"d10-custer-2","name":"Custer AA","day":2,"time":"19:00","end_time":"20:00","types":["O"],"state":"SD","postal_code":"57730","city":"Custer","address":"520 Crook St","latitude":43.7672211,"longitude":-103.6001181,"location":"Brown Building","region":"Custer","notes":"12x12. TR","url":"https://area63aa.org/meetings/d10-custer-2/","group":"Custer AA","timezone":"America/Denver"},{"feed":"area63aa.org","slug":"d11-lennox-recovery","name":"Lennox Recovery Group","day":2,"time":"19:00","types":["C","B","EN","M"],"state":"SD","postal_code":"57039","city":"Lennox","address":"217 S Pine St","latitude":43.3536402,"longitude":-96.8862686,"location":"Sunrise Manor Office","region":"Lennox","url":"https://area63aa.org/meetings/d11-lennox-recovery/","group":"Lennox Recovery Group","timezone":"America/Denver"},{"feed":"area63aa.org","slug":"d13-belle-fourche-3","name":"Belle Fourche AA Group","day":2,"time":"19:00","end_time":"20:00","types":["D","O"],"state":"SD","postal_code":"57717","city":"Belle Fourche","address":"806 6th Ave","latitude":44.6696515,"longitude":-103.8527145,"location":"St. James Episcopal Church (Guild Hall)","region":"Belle Fourche","url":"https://area63aa.org/meetings/d13-belle-fourche-3/","group":"Belle Fourche AA","timezone":"America/Denver"},{"feed":"area63aa.org","slug":"d2-rapid-city-grp1-2","name":"Rapid City Group One","day":2,"time":"19:00","types":["C","EN"],"state":"SD","postal_code":"57702","city":"Rapid City","address":"325 Deadwood Ave","latitude":44.0832826,"longitude":-103.2568074,"location":"Alano Club","region":"Rapid City","url":"https://area63aa.org/meetings/d2-rapid-city-grp1-2/","group":"Rapid City Group One","timezone":"America/Denver"},{"feed":"area63aa.org","slug":"d4-yankton-daily-reprieve-9","name":"Yankton AA","day":2,"time":"19:00","types":["X","O","EN"],"state":"SD","postal_code":"57078","city":"Yankton","address":"1019 W 9th St","latitude":42.8773056,"longitude":-97.4094707,"location":"12-24 Alano Club","region":"Yankton","url":"https://area63aa.org/meetings/d4-yankton-daily-reprieve-9/","group":"Yankton AA","timezone":"America/Denver"},{"feed":"area63aa.org","slug":"d5-hilltop","name":"Hilltop AA","day":2,"time":"19:00","types":["EN","C","B","D","X"],"state":"SD","postal_code":"57103","city":"Sioux Falls","address":"1000 S Bahnson Ave","latitude":43.528692,"longitude":-96.690307,"location":"St Lambert's Catholic Church","region":"Sioux Falls","notes":"Enter from east door, near playground Last Monday of the month is an Open Birthday Meeting","url":"https://area63aa.org/meetings/d5-hilltop/","group":"Hilltop AA","timezone":"America/Denver"},{"feed":"area63aa.org","slug":"d5-hilltop-alanon","name":"Hilltop Al-Anon","day":2,"time":"19:00","types":["EN","AL-AN","ST","X"],"state":"SD","postal_code":"57103","city":"Sioux Falls","address":"3300 E 18th St","latitude":43.5375588,"longitude":-96.6844513,"location":"Grace Lutheran Church","region":"Sioux Falls","notes":"Eastside on Edwards St.","url":"https://area63aa.org/meetings/d5-hilltop-alanon/","group":"Hilltop Al-Anon","timezone":"America/Denver"},{"feed":"area63aa.org","slug":"d5-progressnotperfection-3","name":"Progress Not Perfection","day":2,"time":"19:00","types":["EN","O","B","ST","D","X"],"state":"SD","postal_code":"57110","city":"Sioux Falls","address":"811 S Gordon Dr","latitude":43.5400784,"longitude":-96.6672799,"location":"Resurrection Christian Church","region":"Sioux Falls","notes":"East on 10th Street; Gordon Dr is 1 blk east of Sycamore","url":"https://area63aa.org/meetings/d5-progressnotperfection-3/","group":"Progress Not Perfection","timezone":"America/Denver"},{"feed":"area63aa.org","slug":"d5-sf-westside-12","name":"Westside AA","day":2,"time":"19:00","end_time":"20:00","types":["EN"],"state":"SD","postal_code":"57104","city":"Sioux Falls","address":"1509 W 1st St","latitude":43.5572112,"longitude":-96.7488556,"location":"Westside Alano Club","region":"Sioux Falls","notes":"Speaker Meeting 2nd Friday of the month Last Friday of the month is an Open Birthday Meeting Friday meetings are Open Sunday at 7:30PM is Open Saturday at 8:00PM is a Traditions Meeting","url":"https://area63aa.org/meetings/d5-sf-westside-12/","group":"Westside AA","timezone":"America/Denver"},{"feed":"area63aa.org","slug":"eagle-butte-2","name":"Eagle Butte AA","day":2,"time":"19:00","types":["D","O"],"state":"SD","postal_code":"57625","city":"Eagle Butte","address":"Cedar Ave & Heritage Ave","latitude":44.9990004,"longitude":-101.2333193,"location":"Catholic Church","region":"Eagle Butte","url":"https://area63aa.org/meetings/eagle-butte-2/","group":"Eagle Butte AA","timezone":"America/Denver"},{"feed":"area63aa.org","slug":"foxhall-workshop","name":"Foxhall II Workshop","day":2,"time":"19:00","types":["O","EN"],"state":"SD","postal_code":"57006","city":"Brookings","address":"1104 22nd Ave S","latitude":44.2930111,"longitude":-96.7703955,"location":"1104 22nd Ave S, Brookings, SD, 57006","region":"Brookings","url":"https://area63aa.org/meetings/foxhall-workshop/","group":"Foxhall II Workshop","timezone":"America/Denver"},{"feed":"area63aa.org","slug":"pass-it-on","name":"Pass It On Group","day":2,"time":"19:00","types":["X","O","EN"],"state":"SD","postal_code":"57212","city":"Arlington","address":"321 Main St S","latitude":44.3600613,"longitude":-97.1380409,"location":"Trinity Lutheran Church","region":"Arlington","url":"https://area63aa.org/meetings/pass-it-on/","group":"Pass It On Group","timezone":"America/Denver"},{"feed":"area63aa.org","slug":"piedmont-aa","name":"Piedmont AA","day":2,"time":"19:00","end_time":"20:00","types":["D","O"],"state":"SD","postal_code":"57769","city":"Piedmont","address":"16373 N 2nd St","latitude":44.2363826,"longitude":-103.3926037,"location":"Piedmont Community Center","url":"https://area63aa.org/meetings/piedmont-aa/","timezone":"America/Denver"},{"feed":"area63aa.org","slug":"tornado-recovery","name":"Tornado of Recovery","day":2,"time":"19:00","types":["O"],"state":"SD","postal_code":"57014","city":"Centerville","address":"251 Broadway St","latitude":43.1206324,"longitude":-96.9616369,"location":"Scandia Lutheran Church (basement)","region":"Centerville","url":"https://area63aa.org/meetings/tornado-recovery/","group":"Tornado of Recovery","timezone":"America/Denver"},{"feed":"area63aa.org","slug":"brookings-original-12","name":"Brookings Original Group","day":2,"time":"19:30","types":["B","D","EN","O","X"],"state":"SD","postal_code":"57006","city":"Brookings","address":"135 1st Ave S","latitude":44.3057253,"longitude":-96.8026769,"location":"Brookings Club","region":"Brookings","url":"https://area63aa.org/meetings/brookings-original-12/","group":"Brookings Original Group","timezone":"America/Denver"},{"feed":"area63aa.org","slug":"d13-spearfish-sunday-literature","name":"Northern Hills Recovery Group","day":2,"time":"19:30","types":["C","X","ONL"],"state":"SD","postal_code":"57783","city":"Spearfish","address":"845 N 5th St","latitude":44.4915526,"longitude":-103.8614448,"location":"United Methodist Church","region":"Spearfish","conference_url":"https://zoom.us/j/168179667","url":"https://area63aa.org/meetings/d13-spearfish-sunday-literature/","group":"Spearfish Sunday Literature Group","timezone":"America/Denver"},{"feed":"area63aa.org","slug":"d4-vermillion-unity","name":"Vermillion Unity AA 12 Steps/Traditions","day":2,"time":"19:30","types":["C","EN","B","X"],"state":"SD","postal_code":"57069","city":"Vermillion","address":"816 E Clark St","latitude":42.7827801,"longitude":-96.9193202,"location":"Trinity Lutheran Church","region":"Vermillion","url":"https://area63aa.org/meetings/d4-vermillion-unity/","group":"Vermillion Unity AA 12 Steps/Traditions","timezone":"America/Denver"},{"feed":"area63aa.org","slug":"eureka-aa","name":"Eureka AA","day":2,"time":"19:30","end_time":"20:30","types":["O"],"state":"SD","postal_code":"57437","city":"Eureka","address":"909 G Ave","latitude":45.769189,"longitude":-99.6239315,"location":"Zion American Lutheran Church","url":"https://area63aa.org/meetings/eureka-aa/","timezone":"America/Denver"},{"feed":"area63aa.org","slug":"d12-winner-westside-2","name":"Winner Westside Group","day":2,"time":"20:00","types":["C","D","X","EN"],"state":"SD","postal_code":"57580","city":"Winner","address":"602 W 9th St","latitude":43.3704879,"longitude":-99.8659083,"location":"Trinity Episcopal Church","region":"Winner","url":"https://area63aa.org/meetings/d12-winner-westside-2/","group":"Winner Westside Group","timezone":"America/Denver"},{"feed":"area63aa.org","slug":"d2-wall","name":"Wall Group","day":2,"time":"20:00","types":["O","D","X","EN"],"state":"SD","postal_code":"57790","city":"Wall","address":"602 Norris St","latitude":43.9919398,"longitude":-102.2399058,"location":"Methodist Church","region":"Wall","url":"https://area63aa.org/meetings/d2-wall/","group":"Wall Group","timezone":"America/Denver"},{"feed":"area63aa.org","slug":"d3-unbroken-circle-3","name":"Unbroken Circle","day":2,"time":"20:00","types":["D","X","O","EN"],"state":"SD","postal_code":"57572","city":"St Francis","address":"502 Warrior Dr","latitude":43.140756,"longitude":-100.90038,"location":"Circle Clubhouse","region":"St Francis","url":"https://area63aa.org/meetings/d3-unbroken-circle-3/","group":"Unbroken Circle","timezone":"America/Denver"},{"feed":"area63aa.org","slug":"d5-garretson","name":"Garretson","day":2,"time":"20:00","types":["D","O","EN"],"state":"SD","postal_code":"57030","city":"Garretson","address":"501 Essex St","latitude":43.7116258,"longitude":-96.5042682,"location":"SD, AA Group","region":"Garretson","url":"https://area63aa.org/meetings/d5-garretson/","group":"Garretson","timezone":"America/Denver"},{"feed":"area63aa.org","slug":"d5-madison-4","name":"Madison AA","day":2,"time":"20:00","types":["EN","C","B","12x12","D","X"],"state":"SD","postal_code":"57042","city":"Madison","address":"453rd Ave","latitude":43.8771099,"longitude":-97.1489586,"location":"Hwy 34 and 453rd Ave, Madison, SD, 57042","region":"Madison","notes":"South side of highway, near vet clinic; 1 mi west of town Saturday meeting are Open","url":"https://area63aa.org/meetings/d5-madison-4/","group":"Madison AA","timezone":"America/Denver"},{"feed":"area63aa.org","slug":"d5-north-end","name":"North End AA Group","day":2,"time":"20:00","types":["C","X","EN"],"state":"SD","postal_code":"57104","city":"Sioux Falls","address":"3328 N Cliff Ave","latitude":43.5820638,"longitude":-96.7102244,"location":"Rehoboth International Ministries Church","region":"Sioux Falls","url":"https://area63aa.org/meetings/d5-north-end/","group":"North End AA Group","timezone":"America/Denver"},{"feed":"area63aa.org","slug":"d5-sf-southside-18","name":"Southside AA","day":2,"time":"20:00","types":["EN","C","ST","D","X"],"state":"SD","postal_code":"57105","city":"Sioux Falls","address":"4112 S West Ave","latitude":43.506528,"longitude":-96.7456775,"location":"Southside Alano Club","region":"Sioux Falls","notes":"SE Corner, 51st and West Spouse-Welcome Meeting: Tuesday and Thursday @ 8:00PM Last Friday of the month is an Open Birthday Meeting at 10:00AM and 5:30PM","url":"https://area63aa.org/meetings/d5-sf-southside-18/","group":"Southside AA","timezone":"America/Denver"},{"feed":"area63aa.org","slug":"d6-6th-sense-3","name":"6th Sense Group","day":2,"time":"20:00","types":["C","EN"],"state":"SD","postal_code":"57401","city":"Aberdeen","address":"422 5th Ave SE","latitude":45.4598632,"longitude":-98.4811725,"location":"422 SE 5th Ave","region":"Aberdeen","url":"https://area63aa.org/meetings/d6-6th-sense-3/","group":"6th Sense Group","timezone":"America/Denver"},{"feed":"area63aa.org","slug":"d6-sisseton-4","name":"Sisseton Group","day":2,"time":"20:00","types":["C","D","X","EN"],"state":"SD","postal_code":"57262","city":"Sisseton","address":"619 Main Ave","latitude":45.6661709,"longitude":-97.0506419,"location":"St. Kateri's","region":"Sisseton","url":"https://area63aa.org/meetings/d6-sisseton-4/","group":"Sisseton Group","timezone":"America/Denver"},{"feed":"area63aa.org","slug":"d7-mobridge-2","name":"Mobridge AA Group","day":2,"time":"20:00","types":["X","O","EN"],"state":"SD","postal_code":"57601","city":"Mobridge","address":"323 4th Ave E","latitude":45.5362471,"longitude":-100.4285161,"location":"412 Club","region":"Mobridge","url":"https://area63aa.org/meetings/d7-mobridge-2/","group":"Mobridge AA Group","timezone":"America/Denver"},{"feed":"area63aa.org","slug":"d7-pierre-3","name":"Pierre AA Group","day":2,"time":"20:00","types":["X","B","EN","D","O"],"state":"SD","postal_code":"57501","city":"Pierre","address":"325 S Garfield Ave","latitude":44.3612079,"longitude":-100.3170113,"location":"Alano Club","region":"Pierre","url":"https://area63aa.org/meetings/d7-pierre-3/","group":"Pierre AA Group","timezone":"America/Denver"},{"feed":"area63aa.org","slug":"d8-chamberlain","name":"Chamberlain AA Group","day":2,"time":"20:00","types":["D","O","EN"],"state":"SD","postal_code":"57325","city":"Chamberlain","address":"400 S Main St","latitude":43.8077325,"longitude":-99.3331056,"location":"St. James Catholic Church","region":"Chamberlain","url":"https://area63aa.org/meetings/d8-chamberlain/","group":"Chamberlain AA Group","timezone":"America/Denver"},{"feed":"area63aa.org","slug":"d8-mitchell-17","name":"Mitchell A.A.","day":2,"time":"20:00","types":["EN"],"state":"SD","postal_code":"57301","city":"Mitchell","address":"424 E 9th Ave","latitude":43.7180296,"longitude":-98.0202909,"location":"Mitchell Alano Club","region":"Mitchell","notes":"Meeting Saturday at 11AM is a split men's (front room) and women's (back room) meeting.","url":"https://area63aa.org/meetings/d8-mitchell-17/","group":"Mitchell A.A.","timezone":"America/Denver"},{"feed":"area63aa.org","slug":"d8-riverside-aa-3","name":"Riverside AA","day":2,"time":"20:00","types":["EN","O","B","D"],"state":"SD","postal_code":"57350","city":"Huron","address":"626 1st St SW","latitude":44.365418,"longitude":-98.2243953,"location":"Alano Club","region":"Huron","url":"https://area63aa.org/meetings/d8-riverside-aa-3/","group":"Riverside AA","timezone":"America/Denver"},{"feed":"area63aa.org","slug":"d8-woonsocket","name":"Woonsocket AA","day":2,"time":"20:00","end_time":"21:00","types":["D","O","X","EN"],"state":"SD","postal_code":"57385","city":"Woonsocket","address":"300 W 6th St","latitude":44.0529498,"longitude":-98.2744046,"location":"American Legion","region":"Woonsocket","url":"https://area63aa.org/meetings/d8-woonsocket/","group":"Woonsocket AA","timezone":"America/Denver"},{"feed":"area63aa.org","slug":"d9-redfield-2","name":"Redfield AA","day":2,"time":"20:00","types":["C","D","EN"],"state":"SD","postal_code":"57469","city":"Redfield","address":"715 E 9th St","latitude":44.8756062,"longitude":-98.5028965,"location":"Alano Club","region":"Redfield","url":"https://area63aa.org/meetings/d9-redfield-2/","group":"Redfield AA","timezone":"America/Denver"},{"feed":"area63aa.org","slug":"d9-gilbert-avenue-10","name":"Gilbert Avenue AA Group","day":2,"time":"20:15","types":["X"],"state":"SD","postal_code":"57201","city":"Watertown","address":"1021 Gilbert Ave NE","latitude":44.9004988,"longitude":-97.0972986,"location":"Gilbert House","region":"Watertown","url":"https://area63aa.org/meetings/d9-gilbert-avenue-10/","group":"Gilbert Avenue AA Group","timezone":"America/Denver"},{"feed":"area63aa.org","slug":"d6-yellow-house-women-5","name":"Yellow House Group","day":2,"time":"20:30","types":["D","X","O","EN"],"state":"SD","postal_code":"57401","city":"Aberdeen","address":"519 S Arch St","latitude":45.4592635,"longitude":-98.4804592,"location":"Alano Club","region":"Aberdeen","url":"https://area63aa.org/meetings/d6-yellow-house-women-5/","group":"Yellow House Group","timezone":"America/Denver"},{"feed":"area63aa.org","slug":"d2-early-risers-group-3","name":"Early Risers Group","day":3,"time":"06:45","types":["O","X","EN"],"state":"SD","postal_code":"57702","city":"Rapid City","address":"325 Deadwood Ave","latitude":44.0832826,"longitude":-103.2568074,"location":"Alano Club","region":"Rapid City","url":"https://area63aa.org/meetings/d2-early-risers-group-3/","group":"Early Risers Group","timezone":"America/Denver"},{"feed":"area63aa.org","slug":"d2-sober-sunrise-3","name":"Sober Sunrise","day":3,"time":"06:45","types":["EN","ONL"],"state":"SD","city":"Rapid City","latitude":44.0805434,"longitude":-103.2310149,"location":"Rapid City, SD, USA","region":"Rapid City","conference_url":"https://us02web.zoom.us/j/867-939-2380","url":"https://area63aa.org/meetings/d2-sober-sunrise-3/","group":"Sober Sunrise","timezone":"America/Denver"},{"feed":"area63aa.org","slug":"spearfish-aa-group-2","name":"Spearfish AA Group","day":3,"time":"07:30","end_time":"08:30","types":["C","LIT","EN"],"state":"SD","postal_code":"57783","city":"Spearfish","address":"129 W Michigan St","latitude":44.4940427,"longitude":-103.8605382,"location":"All Angel's Episcopal Church","region":"Spearfish","url":"https://area63aa.org/meetings/spearfish-aa-group-2/","timezone":"America/Denver"},{"feed":"area63aa.org","slug":"d5-sf-southside-23","name":"Southside AA","day":3,"time":"08:00","types":["EN","C","ST","D","X"],"state":"SD","postal_code":"57105","city":"Sioux Falls","address":"4112 S West Ave","latitude":43.506528,"longitude":-96.7456775,"location":"Southside Alano Club","region":"Sioux Falls","notes":"SE Corner, 51st and West Spouse-Welcome Meeting: Tuesday and Thursday @ 8:00PM Last Friday of the month is an Open Birthday Meeting at 10:00AM and 5:30PM","url":"https://area63aa.org/meetings/d5-sf-southside-23/","group":"Southside AA","timezone":"America/Denver"},{"feed":"area63aa.org","slug":"yellow-house-group-4","name":"Yellow House Group","day":3,"time":"08:30","end_time":"09:30","types":["C"],"state":"SD","postal_code":"57401","city":"Aberdeen","address":"519 S Arch St","latitude":45.4592635,"longitude":-98.4804592,"location":"Alano Club","region":"Aberdeen","url":"https://area63aa.org/meetings/yellow-house-group-4/","timezone":"America/Denver"},{"feed":"area63aa.org","slug":"d5-sf-southside-4","name":"Southside AA","day":3,"time":"10:00","types":["EN","C","ST","D","X"],"state":"SD","postal_code":"57105","city":"Sioux Falls","address":"4112 S West Ave","latitude":43.506528,"longitude":-96.7456775,"location":"Southside Alano Club","region":"Sioux Falls","notes":"SE Corner, 51st and West Spouse-Welcome Meeting: Tuesday and Thursday @ 8:00PM Last Friday of the month is an Open Birthday Meeting at 10:00AM and 5:30PM","url":"https://area63aa.org/meetings/d5-sf-southside-4/","group":"Southside AA","timezone":"America/Denver"},{"feed":"area63aa.org","slug":"d5-sf-westside-3","name":"Westside AA","day":3,"time":"10:00","types":["EN","C","B","TR","X"],"state":"SD","postal_code":"57104","city":"Sioux Falls","address":"1509 W 1st St","latitude":43.5572112,"longitude":-96.7488556,"location":"Westside Alano Club","region":"Sioux Falls","notes":"Speaker Meeting 2nd Friday of the month Last Friday of the month is an Open Birthday Meeting Friday meetings are Open Sunday at 7:30PM is Open Saturday at 8:00PM is a Traditions Meeting","url":"https://area63aa.org/meetings/d5-sf-westside-3/","group":"Westside AA","timezone":"America/Denver"},{"feed":"area63aa.org","slug":"d5-bagladies","name":"Bag Ladies","day":3,"time":"11:00","end_time":"12:00","types":["ABSI","EN"],"state":"SD","postal_code":"57104","city":"Sioux Falls","address":"401 S Spring Ave","latitude":43.5432026,"longitude":-96.7334266,"location":"First United Methodist Curch","region":"Sioux Falls","notes":"Follow the Pink Bag Lady sign.","url":"https://area63aa.org/meetings/d5-bagladies/","group":"Bag Ladies","timezone":"America/Denver"},{"feed":"area63aa.org","slug":"aa-101-group-3","name":"AA 101 Group","day":3,"time":"12:00","end_time":"13:00","types":["O","X","ONL"],"state":"SD","postal_code":"57350","city":"Huron","address":"235 Kansas Ave SE","latitude":44.364106,"longitude":-98.2127937,"location":"Turning Point","region":"Huron","notes":"Birthday night is the last Wednesday of every month !!!!","url":"https://area63aa.org/meetings/aa-101-group-3/","timezone":"America/Denver"},{"feed":"area63aa.org","slug":"d13-happy-destiny-6","name":"Happy Destiny","day":3,"time":"12:00","types":["D","X","O","EN","ONL"],"state":"SD","postal_code":"57785","city":"Sturgis","address":"950 Main St","latitude":44.4140944,"longitude":-103.5078442,"location":"Serenity Club","region":"Sturgis","conference_url":"https://us02web.zoom.us/j/348404041","url":"https://area63aa.org/meetings/d13-happy-destiny-6/","group":"Happy Destiny AA","timezone":"America/Denver"},{"feed":"area63aa.org","slug":"d2-noon-luncheon-group-3","name":"Noon Luncheon Group","day":3,"time":"12:00","types":["O"],"state":"SD","postal_code":"57702","city":"Rapid City","address":"325 Deadwood Ave","latitude":44.0832826,"longitude":-103.2568074,"location":"Alano Club","region":"Rapid City","url":"https://area63aa.org/meetings/d2-noon-luncheon-group-3/","group":"Noon Luncheon Group","timezone":"America/Denver"},{"feed":"area63aa.org","slug":"d2-rule-62-noon-group-3","name":"Rule 62 Noon Group","day":3,"time":"12:00","types":["O"],"state":"SD","postal_code":"57702","city":"Rapid City","address":"325 Deadwood Ave","latitude":44.0832826,"longitude":-103.2568074,"location":"Alano Club","region":"Rapid City","url":"https://area63aa.org/meetings/d2-rule-62-noon-group-3/","group":"Rule 62 Noon Group","timezone":"America/Denver"},{"feed":"area63aa.org","slug":"d4-yankton-daily-reprieve-3","name":"Yankton AA","day":3,"time":"12:00","types":["X","O","EN"],"state":"SD","postal_code":"57078","city":"Yankton","address":"1019 W 9th St","latitude":42.8773056,"longitude":-97.4094707,"location":"12-24 Alano Club","region":"Yankton","url":"https://area63aa.org/meetings/d4-yankton-daily-reprieve-3/","group":"Yankton AA","timezone":"America/Denver"},{"feed":"area63aa.org","slug":"d5-madisonaagrace-4","name":"Madison AA","day":3,"time":"12:00","types":["EN","C","B"],"state":"SD","postal_code":"57042","city":"Madison","address":"3rd St NW","latitude":44.0082741,"longitude":-97.1213547,"location":"Grace Episcopal Church","region":"Madison","notes":"Behind Casey's","url":"https://area63aa.org/meetings/d5-madisonaagrace-4/","group":"Madison AA","timezone":"America/Denver"},{"feed":"area63aa.org","slug":"d5-sf-southside-8","name":"Southside AA","day":3,"time":"12:00","types":["EN","C","ST","D","X"],"state":"SD","postal_code":"57105","city":"Sioux Falls","address":"4112 S West Ave","latitude":43.506528,"longitude":-96.7456775,"location":"Southside Alano Club","region":"Sioux Falls","notes":"Sioux Falls","url":"https://area63aa.org/meetings/d5-sf-southside-8/","group":"Southside AA","timezone":"America/Denver"},{"feed":"area63aa.org","slug":"d6-dakota-plains-recovery-8","name":"Dakota Plains Recovery","day":3,"time":"12:00","types":["O","EN"],"state":"SD","postal_code":"57262","city":"Sisseton","address":"302 Maple St E","latitude":45.6637444,"longitude":-97.0470215,"location":"Dakota Plains Recovery","region":"Aberdeen","url":"https://area63aa.org/meetings/d6-dakota-plains-recovery-8/","group":"Dakota Plains Recovery","timezone":"America/Denver"},{"feed":"area63aa.org","slug":"d7-pierre-10","name":"Pierre AA Group","day":3,"time":"12:00","types":["X","B","EN","D","O"],"state":"SD","postal_code":"57501","city":"Pierre","address":"325 S Garfield Ave","latitude":44.3612079,"longitude":-100.3170113,"location":"Alano Club","region":"Pierre","url":"https://area63aa.org/meetings/d7-pierre-10/","group":"Pierre AA Group","timezone":"America/Denver"},{"feed":"area63aa.org","slug":"d8-mitchell-4","name":"Mitchell A.A.","day":3,"time":"12:00","types":["EN"],"state":"SD","postal_code":"57301","city":"Mitchell","address":"424 E 9th Ave","latitude":43.7180296,"longitude":-98.0202909,"location":"Mitchell Alano Club","region":"Mitchell","notes":"Meeting is Open to friends and family Last Thursday of the month is an Open Birthday Meeting Saturday at 11AM is a split men's (front room) and women's (back room) meeting.","url":"https://area63aa.org/meetings/d8-mitchell-4/","group":"Mitchell A.A.","timezone":"America/Denver"},{"feed":"area63aa.org","slug":"brookings-original-13","name":"Brookings Original Group","day":3,"time":"12:15","types":["B","D","EN","O","X"],"state":"SD","postal_code":"57006","city":"Brookings","address":"135 1st Ave S","latitude":44.3057253,"longitude":-96.8026769,"location":"Brookings Club","region":"Brookings","url":"https://area63aa.org/meetings/brookings-original-13/","group":"Brookings Original Group","timezone":"America/Denver"},{"feed":"area63aa.org","slug":"d9-gilbert-avenue-4","name":"Gilbert Avenue AA Group","day":3,"time":"12:15","types":["X"],"state":"SD","postal_code":"57201","city":"Watertown","address":"1021 Gilbert Ave NE","latitude":44.9004988,"longitude":-97.0972986,"location":"Gilbert House","region":"Watertown","url":"https://area63aa.org/meetings/d9-gilbert-avenue-4/","group":"Gilbert Avenue AA Group","timezone":"America/Denver"},{"feed":"area63aa.org","slug":"d6-yellow-house-women-12","name":"Yellow House Group","day":3,"time":"13:00","types":["D","X","O","EN"],"state":"SD","postal_code":"57401","city":"Aberdeen","address":"519 S Arch St","latitude":45.4592635,"longitude":-98.4804592,"location":"Alano Club","region":"Aberdeen","url":"https://area63aa.org/meetings/d6-yellow-house-women-12/","group":"Yellow House Group","timezone":"America/Denver"},{"feed":"area63aa.org","slug":"aa-101-group-9","name":"AA 101 Group","day":3,"time":"17:15","end_time":"18:15","types":["O","X"],"state":"SD","postal_code":"57350","city":"Huron","address":"235 Kansas Ave SE","latitude":44.364106,"longitude":-98.2127937,"location":"Turning Point","region":"Huron","notes":"Birthday Night is every Wednesday of the Month!!!","url":"https://area63aa.org/meetings/aa-101-group-9/","timezone":"America/Denver"},{"feed":"area63aa.org","slug":"d8-mitchell-11","name":"Mitchell A.A.","day":3,"time":"17:15","types":["EN"],"state":"SD","postal_code":"57301","city":"Mitchell","address":"424 E 9th Ave","latitude":43.7180296,"longitude":-98.0202909,"location":"Mitchell Alano Club","region":"Mitchell","notes":"Meeting is Open to friends and family Last Thursday of the month is an Open Birthday Meeting Saturday at 11AM is a split men's (front room) and women's (back room) meeting.","url":"https://area63aa.org/meetings/d8-mitchell-11/","group":"Mitchell A.A.","timezone":"America/Denver"},{"feed":"area63aa.org","slug":"d9-gilbert-avenue-17","name":"Gilbert Avenue AA Group","day":3,"time":"17:15","types":["X"],"state":"SD","postal_code":"57201","city":"Watertown","address":"1021 Gilbert Ave NE","latitude":44.9004988,"longitude":-97.0972986,"location":"Gilbert House","region":"Watertown","url":"https://area63aa.org/meetings/d9-gilbert-avenue-17/","group":"Gilbert Avenue AA Group","timezone":"America/Denver"},{"feed":"area63aa.org","slug":"d2-happy-hour-group-topic","name":"Happy Hour Group (topic)","day":3,"time":"17:30","types":["O"],"state":"SD","postal_code":"57702","city":"Rapid City","address":"325 Deadwood Ave","latitude":44.0832826,"longitude":-103.2568074,"location":"Alano Club","region":"Rapid City","url":"https://area63aa.org/meetings/d2-happy-hour-group-topic/","group":"Happy Hour Group (topic)","timezone":"America/Denver"},{"feed":"area63aa.org","slug":"d5-gratefulalcs","name":"Grateful Alcoholics","day":3,"time":"17:30","types":["EN","C","ST","X"],"state":"SD","postal_code":"57104","city":"Sioux Falls","address":"1912 W 13th St","latitude":43.5425452,"longitude":-96.751966,"location":"St. John American Lutheran Church","region":"Sioux Falls","url":"https://area63aa.org/meetings/d5-gratefulalcs/","group":"Grateful Alcoholics","timezone":"America/Denver"},{"feed":"area63aa.org","slug":"d5-madison-5","name":"Madison AA","day":3,"time":"17:30","types":["EN","C","B","12x12","D","X"],"state":"SD","postal_code":"57042","city":"Madison","address":"453rd Ave","latitude":43.8771099,"longitude":-97.1489586,"location":"Hwy 34 and 453rd Ave, Madison, SD, 57042","region":"Madison","notes":"South side of highway, near vet clinic; 1 mi west of town Saturday meeting are Open","url":"https://area63aa.org/meetings/d5-madison-5/","group":"Madison AA","timezone":"America/Denver"},{"feed":"area63aa.org","slug":"d5-madisonaagrace-5","name":"Madison AA","day":3,"time":"17:30","types":["EN","C","B"],"state":"SD","postal_code":"57042","city":"Madison","address":"3rd St NW","latitude":44.0082741,"longitude":-97.1213547,"location":"Grace Episcopal Church","region":"Madison","notes":"Behind Casey's","url":"https://area63aa.org/meetings/d5-madisonaagrace-5/","group":"Madison AA","timezone":"America/Denver"},{"feed":"area63aa.org","slug":"d5-sf-downtow","name":"Downtown AA Meeting","day":3,"time":"17:30","types":["C","B","EN"],"state":"SD","postal_code":"57104","city":"Sioux Falls","address":"200 N Dakota Ave","latitude":43.5491994,"longitude":-96.7289278,"location":"Siouxland Downtown Library","region":"Sioux Falls","url":"https://area63aa.org/meetings/d5-sf-downtow/","group":"Downtown AA Meeting","timezone":"America/Denver"},{"feed":"area63aa.org","slug":"d5-sf-southside-12","name":"Southside AA","day":3,"time":"17:30","types":["EN","C","ST","D","X"],"state":"SD","postal_code":"57105","city":"Sioux Falls","address":"4112 S West Ave","latitude":43.506528,"longitude":-96.7456775,"location":"Southside Alano Club","region":"Sioux Falls","notes":"SE Corner, 51st and West Spouse-Welcome Meeting: Tuesday and Thursday @ 8:00PM Last Friday of the month is an Open Birthday Meeting at 10:00AM and 5:30PM","url":"https://area63aa.org/meetings/d5-sf-southside-12/","group":"Southside AA","timezone":"America/Denver"},{"feed":"area63aa.org","slug":"northside-group","name":"Northside Group","day":3,"time":"17:30","end_time":"18:30","types":["D","EN"],"state":"SD","postal_code":"57401","city":"Aberdeen","address":"1410 N Kline St","latitude":45.4801401,"longitude":-98.4815717,"location":"St Mark's Episcopal Church","region":"Aberdeen","notes":"Please enter through the glass doors on Kline Street.","url":"https://area63aa.org/meetings/northside-group/","timezone":"America/Chicago"},{"feed":"area63aa.org","slug":"d4-give-it-to-get-it","name":"Give it to Get it","day":3,"time":"18:30","types":["O","D","EN"],"state":"SD","postal_code":"57078","city":"Yankton","address":"508 Cedar St","latitude":42.8731097,"longitude":-97.3948294,"location":"AME Church","region":"Yankton","url":"https://area63aa.org/meetings/d4-give-it-to-get-it/","group":"Give it to Get it","timezone":"America/Denver"},