[{"feed":"wyomingaa.org","slug":"eye-openers-group","name":"Eye Openers Group","day":0,"time":"07:15","types":["D","O","X"],"state":"WY","postal_code":"82001","city":"Cheyenne","address":"108 E 18th St","latitude":41.1353974,"longitude":-104.8147282,"location":"First United Methodist Church(North Entrance basement)","region":"Cheyenne","url":"https://wyomingaa.org/12step/index.php/meetings/eye-openers-group/","group":"Eye Openers Group","timezone":"America/Denver"},{"feed":"wyomingaa.org","slug":"st-stephens-group","name":"Red Path  Group","day":0,"time":"08:00","end_time":"09:00","types":["D","O"],"state":"WY","postal_code":"82501","city":"Riverton","address":"134 Mission Rd","latitude":42.9836384,"longitude":-108.4198672,"location":"St Stephens Mission located in St Stephens Wy","region":"St. Stephens","notes":"(Past Church, S. Building, Upstairs)","url":"https://wyomingaa.org/12step/index.php/meetings/st-stephens-group/","group":"St. Stephen's Group","timezone":"America/Denver"},{"feed":"wyomingaa.org","slug":"afton-aa","name":"Afton AA","day":0,"time":"09:00","types":["D","O"],"state":"WY","postal_code":"83110","city":"Afton","address":"253 Washington St","latitude":42.734257,"longitude":-110.9332412,"location":"VFW","region":"Afton","url":"https://wyomingaa.org/12step/index.php/meetings/afton-aa/","group":"Afton AA","timezone":"America/Denver"},{"feed":"wyomingaa.org","slug":"cody-aa-group","name":"Cody AA Group","day":0,"time":"09:00","types":["C","D"],"state":"WY","postal_code":"82414","city":"Cody","address":"1501 Stampede Ave #3000","latitude":44.5205447,"longitude":-109.0584826,"location":"Park County Complex","region":"Cody","url":"https://wyomingaa.org/12step/index.php/meetings/cody-aa-group/","group":"Cody AA Group","timezone":"America/Denver"},{"feed":"wyomingaa.org","slug":"300-club","name":"Group #1 at 300 Club","day":0,"time":"10:00","types":["D","O"],"state":"WY","postal_code":"82007","city":"Cheyenne","address":"300 Derr Ave","latitude":41.1139326,"longitude":-104.8115594,"location":"300 Club","region":"Cheyenne","url":"https://wyomingaa.org/12step/index.php/meetings/300-club/","group":"Group #1 at 300 Club","timezone":"America/Denver"},{"feed":"wyomingaa.org","slug":"a-sufficient-subsitute-group","name":"A Sufficient Subsitute Group","day":0,"time":"10:00","types":["D","O"],"state":"WY","postal_code":"82601","city":"Casper","address":"500 S Wolcott St","latitude":42.8453941,"longitude":-106.3242246,"location":"12-24 Club","region":"Casper","url":"https://wyomingaa.org/12step/index.php/meetings/a-sufficient-subsitute-group/","group":"A Sufficient Substitute Group","timezone":"America/Denver"},{"feed":"wyomingaa.org","slug":"riverton-aa","name":"Riverton AA","day":0,"time":"10:00","end_time":"11:00","types":["C","D"],"state":"WY","postal_code":"82501","city":"Riverton","address":"118 N 5th St E","latitude":43.025342,"longitude":-108.385483,"location":"Brown House","region":"Riverton","url":"https://wyomingaa.org/12step/index.php/meetings/riverton-aa/","group":"Riverton AA","timezone":"America/Denver"},{"feed":"wyomingaa.org","slug":"sunday-morning-spiritual","name":"Sunday Morning Spiritual","day":0,"time":"10:15","types":["O"],"state":"WY","postal_code":"82718","city":"Gillette","address":"2910 S Douglas Hwy","latitude":44.2673849,"longitude":-105.4942326,"location":"2910 South Douglas Hwy., Gillette, WY","region":"Gillette","url":"https://wyomingaa.org/12step/index.php/meetings/sunday-morning-spiritual/","group":"Sunday Morning Spiritual","timezone":"America/Denver"},{"feed":"wyomingaa.org","slug":"downtown-group-2","name":"Downtown Group","day":0,"time":"10:30","end_time":"11:30","types":["C","D"],"state":"WY","postal_code":"82070","city":"Laramie","address":"710 E Garfield St Room 278","latitude":41.3092699,"longitude":-105.5878341,"location":"Laramie Civic Center","region":"Laramie","url":"https://wyomingaa.org/12step/index.php/meetings/downtown-group-2/","group":"Downtown Group","timezone":"America/Denver"},{"feed":"wyomingaa.org","slug":"rock-springs-group","name":"Rock Springs Group","day":0,"time":"11:00","types":["C","D"],"state":"WY","postal_code":"82901","city":"Rock Springs","address":"402 S Main St","latitude":41.585957,"longitude":-109.220659,"location":"402 S. Main St.","region":"Rock Springs","url":"https://wyomingaa.org/12step/index.php/meetings/rock-springs-group/","group":"Rock Springs Group","timezone":"America/Denver"},{"feed":"wyomingaa.org","slug":"expect-a-miracle-group","name":"Expect a Miracle Group","day":0,"time":"12:00","types":["D","O"],"state":"WY","postal_code":"82601","city":"Casper","address":"500 S Wolcott St","latitude":42.8453941,"longitude":-106.3242246,"location":"12-24 Club","region":"Casper","url":"https://wyomingaa.org/12step/index.php/meetings/expect-a-miracle-group/","group":"Expect A Miracle Group","timezone":"America/Denver"},{"feed":"wyomingaa.org","slug":"jackson-group","name":"Jackson Group","day":0,"time":"12:00","types":["B","C"],"state":"WY","postal_code":"83001","city":"Jackson","address":"170 N Glenwood St","latitude":43.4813653,"longitude":-110.7630794,"location":"St John 's Episcopal Church","region":"Jackson","url":"https://wyomingaa.org/12step/index.php/meetings/jackson-group/","group":"Jackson Group","timezone":"America/Denver"},{"feed":"wyomingaa.org","slug":"keep-it-simple","name":"Keep It Simple","day":0,"time":"12:00","types":["D","O"],"state":"WY","postal_code":"82801","city":"Sheridan","address":"302 N Custer St","latitude":44.8010449,"longitude":-106.9504839,"location":"302 N Custer St, Sheridan, WY 82801","region":"Sheridan","url":"https://wyomingaa.org/12step/index.php/meetings/keep-it-simple/","group":"Keep It Simple","timezone":"America/Denver"},{"feed":"wyomingaa.org","slug":"lander-group","name":"Lander Group","day":0,"time":"12:00","end_time":"13:00","types":["D","O"],"state":"WY","postal_code":"82520","city":"Lander","address":"262 N 3rd St","latitude":42.834814,"longitude":-108.7300065,"location":"United Methodist Church","region":"Lander","url":"https://wyomingaa.org/12step/index.php/meetings/lander-group/","group":"Lander Group","timezone":"America/Denver"},{"feed":"wyomingaa.org","slug":"living-in-the-solutions-group","name":"Living in the Solutions Group","day":0,"time":"12:00","types":["D","O"],"state":"WY","postal_code":"82930","city":"Evanston","address":"96 Allegiance Cir","latitude":41.2601448,"longitude":-110.9986765,"location":"Alano Club","region":"Evanston","url":"https://wyomingaa.org/12step/index.php/meetings/living-in-the-solutions-group/","group":"Living in the Solutions Group","timezone":"America/Denver"},{"feed":"wyomingaa.org","slug":"midday-serenity","name":"Midday Serenity","day":0,"time":"12:00","types":["O"],"state":"WY","postal_code":"82718","city":"Gillette","address":"2910 S Douglas Hwy","latitude":44.2673849,"longitude":-105.4942326,"location":"2910 South Douglas Hwy., Gillette, WY","region":"Gillette","url":"https://wyomingaa.org/12step/index.php/meetings/midday-serenity/","group":"Midday Serenity","timezone":"America/Denver"},{"feed":"wyomingaa.org","slug":"tomahawk-group","name":"Tomahawk Group","day":0,"time":"12:00","types":["D","O"],"state":"WY","postal_code":"82935","city":"Green River","address":"520 Wilkes Dr #4b","latitude":41.5165336,"longitude":-109.4732277,"location":"520 Wilkes Dr. Unit 4B, Green River, WY 82935","region":"Green River","url":"https://wyomingaa.org/12step/index.php/meetings/tomahawk-group/","group":"Tomahawk Group","timezone":"America/Denver"},{"feed":"wyomingaa.org","slug":"surrender-group","name":"Last Chance Group","day":0,"time":"13:00","end_time":"14:00","types":["C","D","ONL"],"state":"WY","postal_code":"82633","city":"Douglas","address":"340 1st St W","latitude":42.7628252,"longitude":-105.391342,"location":"340 1st St W","region":"Douglas","url":"https://wyomingaa.org/12step/index.php/meetings/surrender-group/","group":"Last Chance Group","timezone":"America/Denver"},{"feed":"wyomingaa.org","slug":"300-club-2","name":"Group #1 at 300 Club","day":0,"time":"17:30","end_time":"18:30","types":["C","D","SM"],"state":"WY","postal_code":"82007","city":"Cheyenne","address":"300 Derr Ave","latitude":41.1139326,"longitude":-104.8115594,"location":"300 Club","region":"Cheyenne","url":"https://wyomingaa.org/12step/index.php/meetings/300-club-2/","group":"Group #1 at 300 Club","timezone":"America/Denver"},{"feed":"wyomingaa.org","slug":"happy-hour-3","name":"Happy Hour","day":0,"time":"17:30","types":["C"],"state":"WY","postal_code":"82718","city":"Gillette","address":"2910 S Douglas Hwy","latitude":44.2673849,"longitude":-105.4942326,"location":"2910 South Douglas Hwy., Gillette, WY","region":"Gillette","url":"https://wyomingaa.org/12step/index.php/meetings/happy-hour-3/","group":"Happy Hour","timezone":"America/Denver"},{"feed":"wyomingaa.org","slug":"new-beginnings-group","name":"New Beginnings Group","day":0,"time":"17:30","end_time":"18:30","types":["D","O"],"state":"WY","postal_code":"82501","city":"Riverton","address":"118 N 5th St E","latitude":43.025342,"longitude":-108.385483,"location":"Brown House","region":"Riverton","url":"https://wyomingaa.org/12step/index.php/meetings/new-beginnings-group/","group":"New Beginnings Group","timezone":"America/Denver"},{"feed":"wyomingaa.org","slug":"cody-aa-group-17","name":"Cody AA Group","day":0,"time":"18:00","end_time":"19:00","types":["D","O"],"state":"WY","postal_code":"82414","city":"Cody","address":"1501 Stampede Ave #3000","latitude":44.5205447,"longitude":-109.0584826,"location":"Park County Complex","region":"Cody","url":"https://wyomingaa.org/12step/index.php/meetings/cody-aa-group-17/","timezone":"America/Denver"},{"feed":"wyomingaa.org","slug":"fresh-air-group","name":"Fresh Acceptance","day":0,"time":"18:00","end_time":"19:00","types":["D","O"],"state":"WY","postal_code":"82501","city":"Riverton","address":"519 E Park Ave","latitude":43.0264562,"longitude":-108.3837928,"location":"St James Episcopal","region":"Riverton","url":"https://wyomingaa.org/12step/index.php/meetings/fresh-air-group/","group":"Fresh Acceptance","timezone":"America/Denver"},{"feed":"wyomingaa.org","slug":"string-lakemeeting-in-gtnp","name":"String Lake meeting in GTNP","day":0,"time":"18:00","end_time":"19:00","types":["D","O"],"state":"WY","postal_code":"83414","city":"String Lake Rd","latitude":43.7858073,"longitude":-110.7286235,"location":"String Lake Picnic Area, Grand Teton National Park","region":"Alta","notes":"2026 Seasonal meetings begin May 17th.","url":"https://wyomingaa.org/12step/index.php/meetings/string-lakemeeting-in-gtnp/","timezone":"America/Denver"},{"feed":"wyomingaa.org","slug":"see-why-serenity-group","name":"See Why Serenity Group","day":0,"time":"18:30","types":["B","O"],"state":"WY","postal_code":"82601","city":"Casper","address":"500 S Wolcott St","latitude":42.8453941,"longitude":-106.3242246,"location":"12-24 Club","region":"Casper","url":"https://wyomingaa.org/12step/index.php/meetings/see-why-serenity-group/","group":"See Why Serenity Group","timezone":"America/Denver"},{"feed":"wyomingaa.org","slug":"big-piney-3","name":"Big Piney","day":0,"time":"19:00","end_time":"20:00","types":["B","O","EN"],"state":"WY","postal_code":"83113","city":"Big Piney","address":"410 Black Ave","latitude":42.5372137,"longitude":-110.1138059,"location":"Community Congregational Church","region":"Big Piney","url":"https://wyomingaa.org/12step/index.php/meetings/big-piney-3/","group":"Big Piney","timezone":"America/Denver"},{"feed":"wyomingaa.org","slug":"bridger-valley-fun-group-4","name":"Bridger Valley Fun Group","day":0,"time":"19:00","types":["D","O"],"state":"WY","postal_code":"82937","city":"Lyman","address":"E Clark St","latitude":41.3310602,"longitude":-110.2905638,"location":"Bridger Valley Baptist Church","region":"Mountain View","url":"https://wyomingaa.org/12step/index.php/meetings/bridger-valley-fun-group-4/","group":"Bridger Valley Fun Group","timezone":"America/Denver"},{"feed":"wyomingaa.org","slug":"eye-openers-group-beginners-meeting","name":"Eye Openers Group Beginners Meeting","day":0,"time":"19:00","types":["O","X"],"state":"WY","postal_code":"82001","city":"Cheyenne","address":"108 E 18th St","latitude":41.1353974,"longitude":-104.8147282,"location":"First United Methodist Church(North Entrance basement)","region":"Cheyenne","notes":"Newcomers","url":"https://wyomingaa.org/12step/index.php/meetings/eye-openers-group-beginners-meeting/","group":"Eye Openers Group","timezone":"America/Denver"},{"feed":"wyomingaa.org","slug":"fellowship-group","name":"Fellowship Group","day":0,"time":"19:00","end_time":"20:00","types":["CAN","C","D"],"state":"WY","postal_code":"82070","city":"Laramie","address":"104 S 4th St","latitude":41.3123299,"longitude":-105.593102,"location":"St. Matthew's Cathedral","region":"Laramie","url":"https://wyomingaa.org/12step/index.php/meetings/fellowship-group/","group":"Fellowship Group","timezone":"America/Denver"},{"feed":"wyomingaa.org","slug":"loft-aa-group","name":"Loft AA Group","day":0,"time":"19:00","end_time":"20:00","types":["O","SM"],"state":"WY","postal_code":"82633","city":"Douglas","address":"628 E Richards St","latitude":42.7489005,"longitude":-105.3792416,"location":"Plains Trading Post","region":"Douglas","url":"https://wyomingaa.org/12step/index.php/meetings/loft-aa-group/","group":"Loft AA Group","timezone":"America/Denver"},{"feed":"wyomingaa.org","slug":"pinedale-aa","name":"Pinedale AA","day":0,"time":"19:00","end_time":"20:00","types":["D","O"],"state":"WY","postal_code":"82941","city":"Pinedale","address":"512 N Tyler Ave","latitude":42.8714846,"longitude":-109.8617454,"location":"Our Savior Lutheran Church","region":"Pinedale","url":"https://wyomingaa.org/12step/index.php/meetings/pinedale-aa/","group":"Pinedale AA","timezone":"America/Denver"},{"feed":"wyomingaa.org","slug":"uinta-county-group-3","name":"Uinta County Group","day":0,"time":"19:00","end_time":"20:00","types":["D","O"],"state":"WY","postal_code":"82930","city":"Evanston","address":"96 Allegiance Cir","latitude":41.2601448,"longitude":-110.9986765,"location":"Alano Club","region":"Evanston","url":"https://wyomingaa.org/12step/index.php/meetings/uinta-county-group-3/","timezone":"America/Denver"},{"feed":"wyomingaa.org","slug":"the-unity-meeting","name":"The Unity Meeting","day":0,"time":"19:30","types":["O","SP","X"],"state":"WY","postal_code":"82801","city":"Sheridan","address":"443 E College Ave","latitude":44.7919923,"longitude":-106.948705,"location":"Labor Temple","region":"Sheridan","url":"https://wyomingaa.org/12step/index.php/meetings/the-unity-meeting/","group":"Sheridan Group","timezone":"America/Denver"},{"feed":"wyomingaa.org","slug":"917-beech-group-2","name":"917 Beech Group","day":0,"time":"20:00","types":["D","O"],"state":"WY","postal_code":"82601","city":"Casper","address":"917 N Beech St","latitude":42.8595217,"longitude":-106.320799,"location":"917 N Beech","region":"Casper","url":"https://wyomingaa.org/12step/index.php/meetings/917-beech-group-2/","group":"917 Beech Group","timezone":"America/Denver"},{"feed":"wyomingaa.org","slug":"gilette-hopefuls","name":"Gilette Hopefuls","day":0,"time":"20:00","types":["C"],"state":"WY","postal_code":"82718","city":"Gillette","address":"2910 S Douglas Hwy","latitude":44.2673849,"longitude":-105.4942326,"location":"2910 South Douglas Hwy., Gillette, WY","region":"Gillette","url":"https://wyomingaa.org/12step/index.php/meetings/gilette-hopefuls/","group":"Gillette Hopefuls","timezone":"America/Denver"},{"feed":"wyomingaa.org","slug":"jackson-group-16","name":"Jackson Group","day":0,"time":"20:00","end_time":"21:00","types":["D","O"],"state":"WY","postal_code":"83001","city":"Jackson","address":"170 N Glenwood St","latitude":43.4813653,"longitude":-110.7630794,"location":"St John 's Episcopal Church","region":"Jackson","url":"https://wyomingaa.org/12step/index.php/meetings/jackson-group-16/","group":"Jackson Group","timezone":"America/Denver"},{"feed":"wyomingaa.org","slug":"rock-springs-group-2","name":"Rock Springs Group","day":0,"time":"20:00","types":["C","D"],"state":"WY","postal_code":"82901","city":"Rock Springs","address":"402 S Main St","latitude":41.585957,"longitude":-109.220659,"location":"402 S. Main St.","region":"Rock Springs","url":"https://wyomingaa.org/12step/index.php/meetings/rock-springs-group-2/","group":"Rock Springs Group","timezone":"America/Denver"},{"feed":"wyomingaa.org","slug":"tomahawk-group-2","name":"Tomahawk Group","day":0,"time":"20:00","types":["B","C"],"state":"WY","postal_code":"82935","city":"Green River","address":"520 Wilkes Dr #4b","latitude":41.5165336,"longitude":-109.4732277,"location":"520 Wilkes Dr. Unit 4B, Green River, WY 82935","region":"Green River","url":"https://wyomingaa.org/12step/index.php/meetings/tomahawk-group-2/","group":"Tomahawk Group","timezone":"America/Denver"},{"feed":"wyomingaa.org","slug":"una-luz-en-mi-camino-3","name":"Una Luz En Mi Camino","day":0,"time":"21:00","end_time":"22:30","types":["D","O","S"],"state":"WY","postal_code":"82930","city":"Evanston","address":"96 Allegiance Cir","latitude":41.2601448,"longitude":-110.9986765,"location":"Alano Club","region":"Evanston","url":"https://wyomingaa.org/12step/index.php/meetings/una-luz-en-mi-camino-3/","timezone":"America/Denver"},{"feed":"wyomingaa.org","slug":"3-legacies-2","name":"3 Legacies","day":1,"time":"06:00","end_time":"07:00","types":["D","LIT","O"],"state":"WY","postal_code":"82801","city":"Sheridan","address":"215 W Works St","latitude":44.7966957,"longitude":-106.9588018,"location":"First United Methodist Church","region":"Sheridan","notes":"Conference Approved Literature","url":"https://wyomingaa.org/12step/index.php/meetings/3-legacies-2/","group":"3 Legacies Group","timezone":"America/Denver"},{"feed":"wyomingaa.org","slug":"attitude-adjustment-2","name":"Attitude Adjustment","day":1,"time":"06:00","end_time":"07:00","types":["D","O"],"state":"WY","postal_code":"82007","city":"Cheyenne","address":"300 Derr Ave","latitude":41.1139326,"longitude":-104.8115594,"location":"300 Club","region":"Cheyenne","url":"https://wyomingaa.org/12step/index.php/meetings/attitude-adjustment-2/","group":"Group #1 at 300 Club","timezone":"America/Denver"},{"feed":"wyomingaa.org","slug":"cody-group-aa","name":"Cody AA Group","day":1,"time":"07:00","end_time":"08:00","types":["O"],"state":"WY","postal_code":"82414","city":"Cody","address":"1501 Stampede Ave #3000","latitude":44.5205447,"longitude":-109.0584826,"location":"Park County Complex","region":"Cody","notes":"11th Step Meditation","url":"https://wyomingaa.org/12step/index.php/meetings/cody-group-aa/","group":"Cody AA Group","timezone":"America/Denver"},{"feed":"wyomingaa.org","slug":"fresh-acceptance-online","name":"Fresh Acceptance - Online","day":1,"time":"07:00","end_time":"08:00","types":["ONL"],"state":"WY","postal_code":"82501","city":"Riverton","latitude":43.024673,"longitude":-108.3806054,"location":"Fresh Acceptance - Online","region":"Riverton","conference_url":"https://zoom.us/j/3616388633?pwd=QWNDVngzV2tJNStKSXVtaXJBSHJFZz09","url":"https://wyomingaa.org/12step/index.php/meetings/fresh-acceptance-online/","group":"Fresh Acceptance","timezone":"America/Denver"},{"feed":"wyomingaa.org","slug":"jackson-group-10","name":"Jackson Group","day":1,"time":"07:00","end_time":"08:00","types":["O"],"state":"WY","postal_code":"83001","city":"Jackson","address":"170 N Glenwood St","latitude":43.4813653,"longitude":-110.7630794,"location":"St John 's Episcopal Church","region":"Jackson","url":"https://wyomingaa.org/12step/index.php/meetings/jackson-group-10/","group":"Jackson Group","timezone":"America/Denver"},{"feed":"wyomingaa.org","slug":"jackson-group-3","name":"Jackson Group - Online","day":1,"time":"07:00","end_time":"08:00","types":["DR","O","ONL","TC"],"state":"WY","postal_code":"83001","city":"Jackson","address":"N Cache St","latitude":43.4852015,"longitude":-110.7623804,"location":"St. John's Episcopal Church Grounds","region":"Jackson","notes":"8439035363\njackson","conference_url":"https://zoom.us/j/8439035363?pwd=eHp1MW0rMCtaSjRPMFhOWThwY1lwQT09","url":"https://wyomingaa.org/12step/index.php/meetings/jackson-group-3/","group":"Jackson Group","timezone":"America/Denver"},{"feed":"wyomingaa.org","slug":"riverton-aa-2","name":"Riverton AA","day":1,"time":"07:00","end_time":"08:00","types":["C","D"],"state":"WY","postal_code":"82501","city":"Riverton","address":"118 N 5th St E","latitude":43.025342,"longitude":-108.385483,"location":"Brown House","region":"Riverton","url":"https://wyomingaa.org/12step/index.php/meetings/riverton-aa-2/","group":"Riverton AA","timezone":"America/Denver"},{"feed":"wyomingaa.org","slug":"eye-openers-group-2","name":"Eye Openers Group","day":1,"time":"07:15","types":["D","O","X"],"state":"WY","postal_code":"82001","city":"Cheyenne","address":"108 E 18th St","latitude":41.1353974,"longitude":-104.8147282,"location":"First United Methodist Church(North Entrance basement)","region":"Cheyenne","url":"https://wyomingaa.org/12step/index.php/meetings/eye-openers-group-2/","group":"Eye Openers Group","timezone":"America/Denver"},{"feed":"wyomingaa.org","slug":"coffee-break-meeting","name":"Coffee Break Meeting","day":1,"time":"08:30","types":["D","O"],"state":"WY","postal_code":"82601","city":"Casper","address":"500 S Wolcott St","latitude":42.8453941,"longitude":-106.3242246,"location":"12-24 Club","region":"Casper","url":"https://wyomingaa.org/12step/index.php/meetings/coffee-break-meeting/","group":"Coffee Break","timezone":"America/Denver"},{"feed":"wyomingaa.org","slug":"brown-baggers-aa","name":"Brown Baggers AA","day":1,"time":"12:00","types":["C","D"],"state":"WY","postal_code":"82435","city":"Powell","address":"115 E 3rd St","latitude":44.7559982,"longitude":-108.7587816,"location":"St. Barbara's Catholic Church","region":"Powell","url":"https://wyomingaa.org/12step/index.php/meetings/brown-baggers-aa/","group":"Brown Baggers AA","timezone":"America/Denver"},{"feed":"wyomingaa.org","slug":"cody-aa-group-3","name":"Cody AA Group","day":1,"time":"12:00","types":["C","D"],"state":"WY","postal_code":"82414","city":"Cody","address":"1501 Stampede Ave #3000","latitude":44.5205447,"longitude":-109.0584826,"location":"Park County Complex","region":"Cody","url":"https://wyomingaa.org/12step/index.php/meetings/cody-aa-group-3/","group":"Cody AA Group","timezone":"America/Denver"},{"feed":"wyomingaa.org","slug":"downtown-group-16","name":"Downtown Group","day":1,"time":"12:00","end_time":"13:00","types":["D","O"],"state":"WY","postal_code":"82070","city":"Laramie","address":"710 E Garfield St Room 278","latitude":41.3092699,"longitude":-105.5878341,"location":"Laramie Civic Center","region":"Laramie","url":"https://wyomingaa.org/12step/index.php/meetings/downtown-group-16/","timezone":"America/Denver"},{"feed":"wyomingaa.org","slug":"expect-a-miracle-group-2","name":"Expect a Miracle Group","day":1,"time":"12:00","types":["D","O"],"state":"WY","postal_code":"82601","city":"Casper","address":"500 S Wolcott St","latitude":42.8453941,"longitude":-106.3242246,"location":"12-24 Club","region":"Casper","url":"https://wyomingaa.org/12step/index.php/meetings/expect-a-miracle-group-2/","group":"Expect A Miracle Group","timezone":"America/Denver"},{"feed":"wyomingaa.org","slug":"jackson-group-2","name":"Jackson Group","day":1,"time":"12:00","end_time":"13:00","types":["D","O"],"state":"WY","postal_code":"83001","city":"Jackson","address":"170 N Glenwood St","latitude":43.4813653,"longitude":-110.7630794,"location":"St John 's Episcopal Church","region":"Jackson","url":"https://wyomingaa.org/12step/index.php/meetings/jackson-group-2/","group":"Jackson Group","timezone":"America/Denver"},{"feed":"wyomingaa.org","slug":"keep-it-simple-2","name":"Keep It Simple","day":1,"time":"12:00","types":["D","O"],"state":"WY","postal_code":"82801","city":"Sheridan","address":"302 N Custer St","latitude":44.8010449,"longitude":-106.9504839,"location":"302 N Custer St, Sheridan, WY 82801","region":"Sheridan","url":"https://wyomingaa.org/12step/index.php/meetings/keep-it-simple-2/","group":"Keep It Simple","timezone":"America/Denver"},{"feed":"wyomingaa.org","slug":"lander-group-2","name":"Lander Group","day":1,"time":"12:00","end_time":"13:00","types":["D","O"],"state":"WY","postal_code":"82520","city":"Lander","address":"262 N 3rd St","latitude":42.834814,"longitude":-108.7300065,"location":"United Methodist Church","region":"Lander","url":"https://wyomingaa.org/12step/index.php/meetings/lander-group-2/","group":"Lander Group","timezone":"America/Denver"},{"feed":"wyomingaa.org","slug":"living-in-the-solutions-group-2","name":"Living in the Solutions Group","day":1,"time":"12:00","types":["D","O"],"state":"WY","postal_code":"82930","city":"Evanston","address":"96 Allegiance Cir","latitude":41.2601448,"longitude":-110.9986765,"location":"Alano Club","region":"Evanston","url":"https://wyomingaa.org/12step/index.php/meetings/living-in-the-solutions-group-2/","group":"Living in the Solutions Group","timezone":"America/Denver"},{"feed":"wyomingaa.org","slug":"loft-aa-group-4","name":"Loft AA Group","day":1,"time":"12:00","end_time":"13:00","types":["D","O"],"state":"WY","postal_code":"82633","city":"Douglas","address":"628 E Richards St","latitude":42.7489005,"longitude":-105.3792416,"location":"Plains Trading Post","region":"Douglas","notes":"Upstairs in Back","url":"https://wyomingaa.org/12step/index.php/meetings/loft-aa-group-4/","timezone":"America/Denver"},{"feed":"wyomingaa.org","slug":"midday-serenity-2","name":"Midday Serenity","day":1,"time":"12:00","types":["O"],"state":"WY","postal_code":"82718","city":"Gillette","address":"2910 S Douglas Hwy","latitude":44.2673849,"longitude":-105.4942326,"location":"2910 South Douglas Hwy., Gillette, WY","region":"Gillette","url":"https://wyomingaa.org/12step/index.php/meetings/midday-serenity-2/","group":"Midday Serenity","timezone":"America/Denver"},{"feed":"wyomingaa.org","slug":"no-smoking-group","name":"The Nooner","day":1,"time":"12:00","types":["D","O"],"state":"WY","postal_code":"82001","city":"Cheyenne","address":"219 W 27th St","latitude":41.1420032,"longitude":-104.8221603,"location":"First Christian Church Basement","region":"Cheyenne","url":"https://wyomingaa.org/12step/index.php/meetings/no-smoking-group/","group":"No Smoking Group","timezone":"America/Denver"},{"feed":"wyomingaa.org","slug":"noon-group","name":"Noon Group","day":1,"time":"12:00","types":["D","O","X"],"state":"WY","postal_code":"82801","city":"Sheridan","address":"443 E College Ave","latitude":44.7919923,"longitude":-106.948705,"location":"Labor Temple","region":"Sheridan","url":"https://wyomingaa.org/12step/index.php/meetings/noon-group/","group":"Noon Group","timezone":"America/Denver"},{"feed":"wyomingaa.org","slug":"riverton-aa-3","name":"Riverton AA","day":1,"time":"12:00","types":["D","O"],"state":"WY","postal_code":"82501","city":"Riverton","address":"118 N 5th St E","latitude":43.025342,"longitude":-108.385483,"location":"Brown House","region":"Riverton","url":"https://wyomingaa.org/12step/index.php/meetings/riverton-aa-3/","group":"Riverton AA","timezone":"America/Denver"},{"feed":"wyomingaa.org","slug":"rock-springs-group-3","name":"Rock Springs Group","day":1,"time":"12:00","types":["C","D"],"state":"WY","postal_code":"82901","city":"Rock Springs","address":"402 S Main St","latitude":41.585957,"longitude":-109.220659,"location":"402 S. Main St.","region":"Rock Springs","url":"https://wyomingaa.org/12step/index.php/meetings/rock-springs-group-3/","group":"Rock Springs Group","timezone":"America/Denver"},{"feed":"wyomingaa.org","slug":"solutions-group","name":"Solutions Group","day":1,"time":"12:00","types":["D","O"],"state":"WY","postal_code":"82834","city":"Buffalo","address":"122 E Bennett St","latitude":44.3450478,"longitude":-106.6963535,"location":"Union Congregational\u00a0Church","region":"Buffalo","url":"https://wyomingaa.org/12step/index.php/meetings/solutions-group/","group":"Solutions Group","timezone":"America/Denver"},{"feed":"wyomingaa.org","slug":"tomahawk-group-3","name":"Tomahawk Group","day":1,"time":"12:00","types":["D","O"],"state":"WY","postal_code":"82935","city":"Green River","address":"520 Wilkes Dr #4b","latitude":41.5165336,"longitude":-109.4732277,"location":"520 Wilkes Dr. Unit 4B, Green River, WY 82935","region":"Green River","url":"https://wyomingaa.org/12step/index.php/meetings/tomahawk-group-3/","group":"Tomahawk Group","timezone":"America/Denver"},{"feed":"wyomingaa.org","slug":"917-beech-group-4","name":"917 Beech Group","day":1,"time":"14:00","types":["D","O"],"state":"WY","postal_code":"82601","city":"Casper","address":"917 N Beech St","latitude":42.8595217,"longitude":-106.320799,"location":"917 N Beech","region":"Casper","url":"https://wyomingaa.org/12step/index.php/meetings/917-beech-group-4/","group":"917 Beech Group","timezone":"America/Denver"},{"feed":"wyomingaa.org","slug":"300-club-3","name":"Group #1 at 300 Club","day":1,"time":"17:30","types":["D","O"],"state":"WY","postal_code":"82007","city":"Cheyenne","address":"300 Derr Ave","latitude":41.1139326,"longitude":-104.8115594,"location":"300 Club","region":"Cheyenne","url":"https://wyomingaa.org/12step/index.php/meetings/300-club-3/","group":"Group #1 at 300 Club","timezone":"America/Denver"},{"feed":"wyomingaa.org","slug":"anchor-group","name":"Anchor Group","day":1,"time":"17:30","types":["D","O"],"state":"WY","postal_code":"82001","city":"Cheyenne","address":"2200 Pioneer Ave #3rd","latitude":41.1373895,"longitude":-104.8218411,"location":"Laramie County Library in Cheyenne","region":"Cheyenne","url":"https://wyomingaa.org/12step/index.php/meetings/anchor-group/","group":"Anchor Group","timezone":"America/Denver"},{"feed":"wyomingaa.org","slug":"first-things-first-group","name":"First Things First Group","day":1,"time":"17:30","types":["D","O"],"state":"WY","postal_code":"82901","city":"Rock Springs","address":"Main Building, 2500 College Dr","latitude":41.5919918,"longitude":-109.2376207,"location":"Western Wyoming Community College, Room 1348","region":"Rock Springs","url":"https://wyomingaa.org/12step/index.php/meetings/first-things-first-group/","group":"First Things First Group","timezone":"America/Denver"},{"feed":"wyomingaa.org","slug":"happy-hour","name":"Happy Hour","day":1,"time":"17:30","types":["D","O","X"],"state":"WY","postal_code":"82801","city":"Sheridan","address":"100 W Works St","latitude":44.7961184,"longitude":-106.9575019,"location":"Soup Kitchen at First Congregational Church","region":"Sheridan","url":"https://wyomingaa.org/12step/index.php/meetings/happy-hour/","timezone":"America/Denver"},{"feed":"wyomingaa.org","slug":"happy-hour-4","name":"Happy Hour","day":1,"time":"17:30","types":["12x12","C"],"state":"WY","postal_code":"82718","city":"Gillette","address":"2910 S Douglas Hwy","latitude":44.2673849,"longitude":-105.4942326,"location":"2910 South Douglas Hwy., Gillette, WY","region":"Gillette","url":"https://wyomingaa.org/12step/index.php/meetings/happy-hour-4/","group":"Happy Hour","timezone":"America/Denver"},{"feed":"wyomingaa.org","slug":"happy-hour-group","name":"Happy Hour Group","day":1,"time":"17:30","types":["D","O"],"state":"WY","postal_code":"82604","city":"Mills","address":"4733 W Yellowstone Hwy","latitude":42.8512073,"longitude":-106.3854871,"location":"Happy Hour Group","region":"Casper","url":"https://wyomingaa.org/12step/index.php/meetings/happy-hour-group/","group":"Happ Hour Group","timezone":"America/Denver"},{"feed":"wyomingaa.org","slug":"new-beginnings-group-2","name":"New Beginnings Group","day":1,"time":"17:30","end_time":"18:30","types":["D","O"],"state":"WY","postal_code":"82501","city":"Riverton","address":"118 N 5th St E","latitude":43.025342,"longitude":-108.385483,"location":"Brown House","region":"Riverton","url":"https://wyomingaa.org/12step/index.php/meetings/new-beginnings-group-2/","group":"New Beginnings Group","timezone":"America/Denver"},{"feed":"wyomingaa.org","slug":"4th-dimension-aa","name":"4th Dimension Group","day":1,"time":"18:00","end_time":"19:00","types":["C","D"],"state":"WY","postal_code":"82435","city":"Powell","address":"276 S Douglas St","latitude":44.7504112,"longitude":-108.7637937,"region":"Powell","notes":"Potluck and Speaker the last Monday of the Month (Open meeting),\nBirthday meeting the last Friday of the month.","url":"https://wyomingaa.org/12step/index.php/meetings/4th-dimension-aa/","group":"4th Dimension AA","timezone":"America/Denver"},{"feed":"wyomingaa.org","slug":"a-sufficient-subsitute-group-2","name":"A Sufficient Subsitute Group","day":1,"time":"18:00","types":["B","O"],"state":"WY","postal_code":"82601","city":"Casper","address":"500 S Wolcott St","latitude":42.8453941,"longitude":-106.3242246,"location":"12-24 Club","region":"Casper","url":"https://wyomingaa.org/12step/index.php/meetings/a-sufficient-subsitute-group-2/","group":"A Sufficient Substitute Group","timezone":"America/Denver"},{"feed":"wyomingaa.org","slug":"cody-aa-group-4","name":"Cody AA Group","day":1,"time":"18:00","types":["D","O"],"state":"WY","postal_code":"82414","city":"Cody","address":"1501 Stampede Ave #3000","latitude":44.5205447,"longitude":-109.0584826,"location":"Park County Complex","region":"Cody","url":"https://wyomingaa.org/12step/index.php/meetings/cody-aa-group-4/","group":"Cody AA Group","timezone":"America/Denver"},{"feed":"wyomingaa.org","slug":"our-savior-lutheran-church-monday-600-pm","name":"Pinedale AA","day":1,"time":"18:00","end_time":"19:00","types":["12x12","C"],"state":"WY","postal_code":"82941","city":"Pinedale","address":"512 N Tyler Ave","latitude":42.8714846,"longitude":-109.8617454,"location":"Our Savior Lutheran Church","region":"Pinedale","url":"https://wyomingaa.org/12step/index.php/meetings/our-savior-lutheran-church-monday-600-pm/","group":"Pinedale AA","timezone":"America/Denver"},{"feed":"wyomingaa.org","slug":"tomahawk-group-14","name":"Tomahawk Group","day":1,"time":"18:00","end_time":"19:00","types":["C","D"],"state":"WY","postal_code":"82935","city":"Green River","address":"520 Wilkes Dr #4b","latitude":41.5165336,"longitude":-109.4732277,"location":"520 Wilkes Dr. Unit 4B, Green River, WY 82935","region":"Green River","notes":"Concepts Meeting","url":"https://wyomingaa.org/12step/index.php/meetings/tomahawk-group-14/","timezone":"America/Denver"},{"feed":"wyomingaa.org","slug":"old-faithful-group-2","name":"Old Faithful Group","day":1,"time":"18:30","end_time":"19:30","types":["D","O"],"state":"WY","postal_code":"82190","city":"Yellowstone National Park","address":"2 Old Faithful Rd","latitude":44.4567167,"longitude":-110.8271763,"location":"Near Old Faithful, middle Yurt next to the geyser, across from the store","region":"Yellowstone National Park","notes":"Open meeting; all are welcome to attend","url":"https://wyomingaa.org/12step/index.php/meetings/old-faithful-group-2/","group":"Old Faithful","timezone":"America/Denver"},{"feed":"wyomingaa.org","slug":"sunny-and-sober","name":"Sunny and Sober","day":1,"time":"18:30","end_time":"19:30","types":["O"],"state":"WY","postal_code":"82331","city":"Saratoga","address":"100 S 1st St","latitude":41.454482,"longitude":-106.8080377,"location":"SunnyCup","region":"Saratoga","url":"https://wyomingaa.org/12step/index.php/meetings/sunny-and-sober/","timezone":"America/Denver"},{"feed":"wyomingaa.org","slug":"aa-hulett","name":"AA Hulett","day":1,"time":"19:00","types":["O"],"state":"WY","postal_code":"82720","city":"Hulett","address":"206 Hunter St","latitude":44.6853574,"longitude":-104.6018048,"location":"Basement of St. Matthews Catholic Church","region":"Hulett","url":"https://wyomingaa.org/12step/index.php/meetings/aa-hulett/","group":"AA Hulett","timezone":"America/Denver"},{"feed":"wyomingaa.org","slug":"aa-the-upton-loners","name":"AA The Upton Loner's","day":1,"time":"19:00","types":["O"],"state":"WY","postal_code":"82730","city":"Upton","address":"1028 Sherman St","latitude":44.1070249,"longitude":-104.6239189,"location":"1028 Sherman St., Upton, WY","region":"Upton","url":"https://wyomingaa.org/12step/index.php/meetings/aa-the-upton-loners/","group":"AA The Upton Loner's","timezone":"America/Denver"},{"feed":"wyomingaa.org","slug":"aa-the-upton-loners-2","name":"AA The Upton Loner's","day":1,"time":"19:00","types":["O"],"state":"WY","postal_code":"82730","city":"Upton","address":"1028 Sherman St","latitude":44.1070249,"longitude":-104.6239189,"location":"1028 Sherman St., Upton, WY","region":"Upton","url":"https://wyomingaa.org/12step/index.php/meetings/aa-the-upton-loners-2/","group":"AA The Upton Loner's","timezone":"America/Denver"},{"feed":"wyomingaa.org","slug":"aa-weston-county","name":"AA Weston County","day":1,"time":"19:00","types":["O"],"state":"WY","postal_code":"82701","city":"Newcastle","address":"627 Pine St","latitude":43.8552277,"longitude":-104.2121619,"location":"Weston County Senior Center","region":"Newcastle","url":"https://wyomingaa.org/12step/index.php/meetings/aa-weston-county/","group":"AA Weston County","timezone":"America/Denver"},{"feed":"wyomingaa.org","slug":"alpine-aa","name":"Alpine AA","day":1,"time":"19:00","end_time":"20:00","types":["B","C"],"state":"WY","postal_code":"83128","city":"Alpine","address":"156 Morning Star Dr","latitude":43.1637762,"longitude":-111.0224623,"location":"Morning Start Baptist Church","region":"Alpine","url":"https://wyomingaa.org/12step/index.php/meetings/alpine-aa/","group":"Alpine AA","timezone":"America/Denver"},{"feed":"wyomingaa.org","slug":"as-bill-sees-it","name":"As Bill Sees It - Hybrid","day":1,"time":"19:00","end_time":"20:00","types":["ABSI","C","D","ONL"],"state":"WY","postal_code":"82070","city":"Laramie","address":"215 S 11th St","latitude":41.3107311,"longitude":-105.5827143,"location":"United Presbyterian Church","region":"Laramie","notes":"meeting id 728 8958 9710 pw 202020","conference_url":"https://us02web.zoom.us/j/72889589710?pwd=YnZlTGZsZnpvaGFPSWd1YXdzWUhkZz09","url":"https://wyomingaa.org/12step/index.php/meetings/as-bill-sees-it/","group":"As Bill Sees It","timezone":"America/Denver"},{"feed":"wyomingaa.org","slug":"bridger-valley-fun-group","name":"Bridger Valley Fun Group","day":1,"time":"19:00","types":["B"],"state":"WY","postal_code":"82937","city":"Lyman","address":"E Clark St","latitude":41.3310602,"longitude":-110.2905638,"location":"Bridger Valley Baptist Church","region":"Mountain View","url":"https://wyomingaa.org/12step/index.php/meetings/bridger-valley-fun-group/","group":"Bridger Valley Fun Group","timezone":"America/Denver"},{"feed":"wyomingaa.org","slug":"buffalo-group","name":"Buffalo Group","day":1,"time":"19:00","end_time":"20:00","types":["D","O","X"],"state":"WY","postal_code":"82834","city":"Buffalo","address":"178 S Main St","latitude":44.3444245,"longitude":-106.6980743,"location":"St Luke's Episcopal Church","region":"Buffalo","url":"https://wyomingaa.org/12step/index.php/meetings/buffalo-group/","group":"Buffalo Group","timezone":"America/Denver"},{"feed":"wyomingaa.org","slug":"downtown-group-19","name":"Downtown Group","day":1,"time":"19:00","end_time":"20:00","types":["D","O"],"state":"WY","postal_code":"82070","city":"Laramie","address":"710 E Garfield St Room 278","latitude":41.3092699,"longitude":-105.5878341,"location":"Laramie Civic Center","region":"Laramie","url":"https://wyomingaa.org/12step/index.php/meetings/downtown-group-19/","timezone":"America/Denver"},{"feed":"wyomingaa.org","slug":"jackson-group-5","name":"Zoom Women's Mtg","day":1,"time":"19:00","end_time":"20:00","types":["O","ST","W","ONL"],"state":"WY","city":"Jackson","latitude":43.4799291,"longitude":-110.7624282,"location":"Online -Jackson","region":"Jackson","conference_url":"https://zoom.us/j/523789771","url":"https://wyomingaa.org/12step/index.php/meetings/jackson-group-5/","group":"Jackson Group","timezone":"America/Denver"},{"feed":"wyomingaa.org","slug":"last-chance-group","name":"Last Chance Group","day":1,"time":"19:00","end_time":"20:00","types":["CAN","D","O","X","XB","ONL"],"state":"WY","postal_code":"82601","city":"Casper","address":"956 N Poplar St","latitude":42.8607023,"longitude":-106.3332265,"location":"956 N Poplar St, Casper, WY 82604, USA","region":"Casper","url":"https://wyomingaa.org/12step/index.php/meetings/last-chance-group/","group":"Last Chance Group","timezone":"America/Denver"},{"feed":"wyomingaa.org","slug":"loft-group-2","name":"Loft AA Group","day":1,"time":"19:00","end_time":"20:00","types":["O"],"state":"WY","postal_code":"82633","city":"Douglas","address":"628 E Richards St","latitude":42.7489005,"longitude":-105.3792416,"location":"Plains Trading Post","region":"Douglas","notes":"Upstairs in Back","url":"https://wyomingaa.org/12step/index.php/meetings/loft-group-2/","group":"Loft AA Group","timezone":"America/Denver"},{"feed":"wyomingaa.org","slug":"m-street-group","name":"12th Gate Group","day":1,"time":"19:00","end_time":"20:00","types":["D","O"],"state":"WY","postal_code":"82240","city":"Torrington","address":"2702 Main St","latitude":42.0712664,"longitude":-104.1844607,"location":"United Methodist Church","region":"Torrington","url":"https://wyomingaa.org/12step/index.php/meetings/m-street-group/","group":"Torrington 12th Gate Group","timezone":"America/Denver"},{"feed":"wyomingaa.org","slug":"pavillion-aa","name":"Pavillion AA","day":1,"time":"19:00","end_time":"20:00","types":["12x12","C","D"],"state":"WY","postal_code":"82523","city":"Pavillion","address":"350 Ocean View Dr","latitude":43.243184,"longitude":-108.608099,"location":"350 Ocean View Dr, Pavillion, WY 82523","region":"Pavillion","notes":"12 Steps and 12 Traditions","url":"https://wyomingaa.org/12step/index.php/meetings/pavillion-aa/","group":"Pavillion AA","timezone":"America/Denver"},{"feed":"wyomingaa.org","slug":"saratoga-aa","name":"Saratoga AA","day":1,"time":"19:00","types":["D","O"],"state":"WY","postal_code":"82331","city":"Saratoga","address":"111 N 7th St","latitude":41.4553787,"longitude":-106.8171463,"location":"Platte Valley Christian Center","region":"Saratoga","notes":"Basement","url":"https://wyomingaa.org/12step/index.php/meetings/saratoga-aa/","group":"Saratoga AA","timezone":"America/Denver"},{"feed":"wyomingaa.org","slug":"st-stephens-group-2","name":"Red Path Group","day":1,"time":"19:00","end_time":"20:00","types":["C","D"],"state":"WY","postal_code":"82501","city":"Riverton","address":"134 Mission Rd","latitude":42.9836384,"longitude":-108.4198672,"location":"St Stephens Mission located in St Stephens Wy","region":"St. Stephens","notes":"(Past Church, S. Building, Upstairs)\n\n12 Steps and 12 Traditions","url":"https://wyomingaa.org/12step/index.php/meetings/st-stephens-group-2/","group":"St. Stephen's Group","timezone":"America/Denver"},{"feed":"wyomingaa.org","slug":"wilson-aa","name":"Wilson AA","day":1,"time":"19:00","end_time":"20:00","types":["C","D"],"state":"WY","postal_code":"83014","city":"Wilson","address":"5655 Main St","latitude":43.5009536,"longitude":-110.875146,"location":"Old Wilson School Community Center","region":"Wilson","url":"https://wyomingaa.org/12step/index.php/meetings/wilson-aa/","group":"Wilson AA","timezone":"America/Denver"},{"feed":"wyomingaa.org","slug":"12x12-group","name":"12x12 Group","day":1,"time":"20:00","end_time":"21:00","types":["B","O"],"state":"WY","postal_code":"82001","city":"Cheyenne","address":"2602 Deming Blvd","latitude":41.1453168,"longitude":-104.784821,"location":"Christopher Church Basement","region":"Cheyenne","url":"https://wyomingaa.org/12step/index.php/meetings/12x12-group/","group":"12x12","timezone":"America/Denver"},{"feed":"wyomingaa.org","slug":"aa-strugglers-group","name":"AA Strugglers Group","day":1,"time":"20:00","types":["C"],"state":"WY","postal_code":"82718","city":"Gillette","address":"2000 W Lakeway Rd","latitude":44.2717699,"longitude":-105.5301802,"location":"1st Methodist Church","region":"Gillette","url":"https://wyomingaa.org/12step/index.php/meetings/aa-strugglers-group/","group":"AA Strugglers Group","timezone":"America/Denver"},{"feed":"wyomingaa.org","slug":"gilette-hopefuls-2","name":"Gilette Hopefuls","day":1,"time":"20:00","types":["12x12","C"],"state":"WY","postal_code":"82718","city":"Gillette","address":"2910 S Douglas Hwy","latitude":44.2673849,"longitude":-105.4942326,"location":"2910 South Douglas Hwy., Gillette, WY","region":"Gillette","url":"https://wyomingaa.org/12step/index.php/meetings/gilette-hopefuls-2/","group":"Gillette Hopefuls","timezone":"America/Denver"},{"feed":"wyomingaa.org","slug":"jackson-group-6","name":"Jackson Group","day":1,"time":"20:00","end_time":"21:00","types":["C","D","LGBTQ"],"state":"WY","postal_code":"83001","city":"Jackson","address":"170 N Glenwood St","latitude":43.4813653,"longitude":-110.7630794,"location":"St John 's Episcopal Church","region":"Jackson","url":"https://wyomingaa.org/12step/index.php/meetings/jackson-group-6/","group":"Jackson Group","timezone":"America/Denver"},{"feed":"wyomingaa.org","slug":"lander-group-16","name":"Lander Group","day":1,"time":"20:00","types":["B","C","D"],"state":"WY","postal_code":"82520","city":"Lander","address":"262 N 3rd St","latitude":42.834814,"longitude":-108.7300065,"location":"United Methodist Church","region":"Lander","url":"https://wyomingaa.org/12step/index.php/meetings/lander-group-16/","group":"Lander Group","timezone":"America/Denver"},{"feed":"wyomingaa.org","slug":"rock-springs-group-5","name":"Rock Springs Group","day":1,"time":"20:00","types":["D","O"],"state":"WY","postal_code":"82901","city":"Rock Springs","address":"402 S Main St","latitude":41.585957,"longitude":-109.220659,"location":"402 S. Main St.","region":"Rock Springs","url":"https://wyomingaa.org/12step/index.php/meetings/rock-springs-group-5/","group":"Rock Springs Group","timezone":"America/Denver"},{"feed":"wyomingaa.org","slug":"3-legacies-steps-traditions-concepts","name":"3 Legacies-Steps, Traditions, Concepts","day":2,"time":"06:00","end_time":"07:00","types":["12x12","O","X"],"state":"WY","postal_code":"82801","city":"Sheridan","address":"215 W Works St","latitude":44.7966957,"longitude":-106.9588018,"location":"First United Methodist Church","region":"Sheridan","url":"https://wyomingaa.org/12step/index.php/meetings/3-legacies-steps-traditions-concepts/","group":"3 Legacies Group","timezone":"America/Denver"},{"feed":"wyomingaa.org","slug":"attitude-adjustment-3","name":"Attitude Adjustment","day":2,"time":"06:00","end_time":"07:00","types":["D","O"],"state":"WY","postal_code":"82007","city":"Cheyenne","address":"300 Derr Ave","latitude":41.1139326,"longitude":-104.8115594,"location":"300 Club","region":"Cheyenne","url":"https://wyomingaa.org/12step/index.php/meetings/attitude-adjustment-3/","group":"Group #1 at 300 Club","timezone":"America/Denver"},{"feed":"wyomingaa.org","slug":"sunrise-meeting","name":"Sunrise Meeting","day":2,"time":"06:45","types":["O"],"state":"WY","postal_code":"82718","city":"Gillette","address":"2910 S Douglas Hwy","latitude":44.2673849,"longitude":-105.4942326,"location":"2910 South Douglas Hwy., Gillette, WY","region":"Gillette","url":"https://wyomingaa.org/12step/index.php/meetings/sunrise-meeting/","group":"Sunrise Meeting","timezone":"America/Denver"},{"feed":"wyomingaa.org","slug":"fresh-acceptance-online-2","name":"Fresh Acceptance - Online","day":2,"time":"07:00","end_time":"08:00","types":["ONL"],"state":"WY","postal_code":"82501","city":"Riverton","latitude":43.024673,"longitude":-108.3806054,"location":"Fresh Acceptance - Online","region":"Riverton","conference_url":"https://zoom.us/j/3616388633?pwd=QWNDVngzV2tJNStKSXVtaXJBSHJFZz09","url":"https://wyomingaa.org/12step/index.php/meetings/fresh-acceptance-online-2/","group":"Fresh Acceptance","timezone":"America/Denver"},{"feed":"wyomingaa.org","slug":"jackson-group-22","name":"Jackson Group","day":2,"time":"07:00","end_time":"08:00","types":["O"],"state":"WY","postal_code":"83001","city":"Jackson","address":"170 N Glenwood St","latitude":43.4813653,"longitude":-110.7630794,"location":"St John 's Episcopal Church","region":"Jackson","url":"https://wyomingaa.org/12step/index.php/meetings/jackson-group-22/","group":"Jackson Group","timezone":"America/Denver"},{"feed":"wyomingaa.org","slug":"jackson-group-online-2","name":"Jackson Group - Online","day":2,"time":"07:00","end_time":"08:00","types":["O","ONL"],"state":"WY","city":"Jackson","latitude":43.4799291,"longitude":-110.7624282,"location":"Online -Jackson","region":"Jackson","conference_url":"https://zoom.us/j/8439035363?pwd=eHp1MW0rMCtaSjRPMFhOWThwY1lwQT09","url":"https://wyomingaa.org/12step/index.php/meetings/jackson-group-online-2/","group":"Jackson Group Online","timezone":"America/Denver"},{"feed":"wyomingaa.org","slug":"eye-openers-group-3","name":"Eye Openers Group","day":2,"time":"07:15","types":["D","O","X"],"state":"WY","postal_code":"82001","city":"Cheyenne","address":"108 E 18th St","latitude":41.1353974,"longitude":-104.8147282,"location":"First United Methodist Church(North Entrance basement)","region":"Cheyenne","url":"https://wyomingaa.org/12step/index.php/meetings/eye-openers-group-3/","group":"Eye Openers Group","timezone":"America/Denver"},{"feed":"wyomingaa.org","slug":"coffee-break-meeting-2","name":"Coffee Break Meeting","day":2,"time":"08:30","types":["D","O"],"state":"WY","postal_code":"82601","city":"Casper","address":"500 S Wolcott St","latitude":42.8453941,"longitude":-106.3242246,"location":"12-24 Club","region":"Casper","url":"https://wyomingaa.org/12step/index.php/meetings/coffee-break-meeting-2/","group":"Coffee Break","timezone":"America/Denver"},{"feed":"wyomingaa.org","slug":"cody-aa-group-5","name":"Cody AA Group","day":2,"time":"12:00","types":["C","D"],"state":"WY","postal_code":"82414","city":"Cody","address":"1501 Stampede Ave #3000","latitude":44.5205447,"longitude":-109.0584826,"location":"Park County Complex","region":"Cody","url":"https://wyomingaa.org/12step/index.php/meetings/cody-aa-group-5/","group":"Cody AA Group","timezone":"America/Denver"},{"feed":"wyomingaa.org","slug":"downtown-group-8","name":"Downtown Group","day":2,"time":"12:00","types":["C","D"],"state":"WY","postal_code":"82070","city":"Laramie","address":"710 E Garfield St Room 278","latitude":41.3092699,"longitude":-105.5878341,"location":"Laramie Civic Center","region":"Laramie","url":"https://wyomingaa.org/12step/index.php/meetings/downtown-group-8/","group":"Downtown Group","timezone":"America/Denver"},{"feed":"wyomingaa.org","slug":"fresh-acceptance","name":"Fresh Acceptance","day":2,"time":"12:00","end_time":"13:00","types":["D","O"],"state":"WY","postal_code":"82501","city":"Riverton","address":"1201 E Jackson Ave","latitude":43.0274857,"longitude":-108.3754725,"location":"The Soldier's House","region":"Riverton","url":"https://wyomingaa.org/12step/index.php/meetings/fresh-acceptance/","timezone":"America/Denver"},{"feed":"wyomingaa.org","slug":"jackson-group-8","name":"Jackson Group","day":2,"time":"12:00","types":["D","BE","O"],"state":"WY","postal_code":"83001","city":"Jackson","address":"170 N Glenwood St","latitude":43.4813653,"longitude":-110.7630794,"location":"St John 's Episcopal Church","region":"Jackson","url":"https://wyomingaa.org/12step/index.php/meetings/jackson-group-8/","group":"Jackson Group","timezone":"America/Denver"},{"feed":"wyomingaa.org","slug":"keep-it-simple-3","name":"Keep It Simple","day":2,"time":"12:00","types":["D","O"],"state":"WY","postal_code":"82801","city":"Sheridan","address":"302 N Custer St","latitude":44.8010449,"longitude":-106.9504839,"location":"302 N Custer St, Sheridan, WY 82801","region":"Sheridan","url":"https://wyomingaa.org/12step/index.php/meetings/keep-it-simple-3/","group":"Keep It Simple","timezone":"America/Denver"},{"feed":"wyomingaa.org","slug":"lander-group-3","name":"Lander Group","day":2,"time":"12:00","types":["C","D"],"state":"WY","postal_code":"82520","city":"Lander","address":"262 N 3rd St","latitude":42.834814,"longitude":-108.7300065,"location":"United Methodist Church","region":"Lander","url":"https://wyomingaa.org/12step/index.php/meetings/lander-group-3/","group":"Lander Group","timezone":"America/Denver"},{"feed":"wyomingaa.org","slug":"living-in-the-solutions-group-3","name":"Living in the Solutions Group","day":2,"time":"12:00","types":["B","C"],"state":"WY","postal_code":"82930","city":"Evanston","address":"96 Allegiance Cir","latitude":41.2601448,"longitude":-110.9986765,"location":"Alano Club","region":"Evanston","url":"https://wyomingaa.org/12step/index.php/meetings/living-in-the-solutions-group-3/","group":"Living in the Solutions Group","timezone":"America/Denver"},{"feed":"wyomingaa.org","slug":"midday-serenity-3","name":"Midday Serenity","day":2,"time":"12:00","types":["O"],"state":"WY","postal_code":"82718","city":"Gillette","address":"2910 S Douglas Hwy","latitude":44.2673849,"longitude":-105.4942326,"location":"2910 South Douglas Hwy., Gillette, WY","region":"Gillette","url":"https://wyomingaa.org/12step/index.php/meetings/midday-serenity-3/","group":"Midday Serenity","timezone":"America/Denver"},{"feed":"wyomingaa.org","slug":"no-smoking-group-2","name":"The Nooner","day":2,"time":"12:00","types":["D","O"],"state":"WY","postal_code":"82001","city":"Cheyenne","address":"219 W 27th St","latitude":41.1420032,"longitude":-104.8221603,"location":"First Christian Church Basement","region":"Cheyenne","url":"https://wyomingaa.org/12step/index.php/meetings/no-smoking-group-2/","group":"No Smoking Group","timezone":"America/Denver"},{"feed":"wyomingaa.org","slug":"riverton-aa-4","name":"Riverton AA","day":2,"time":"12:00","types":["D","O"],"state":"WY","postal_code":"82501","city":"Riverton","address":"118 N 5th St E","latitude":43.025342,"longitude":-108.385483,"location":"Brown House","region":"Riverton","url":"https://wyomingaa.org/12step/index.php/meetings/riverton-aa-4/","group":"Riverton AA","timezone":"America/Denver"},{"feed":"wyomingaa.org","slug":"rock-springs-group-6","name":"Rock Springs Group","day":2,"time":"12:00","types":["C","D"],"state":"WY","postal_code":"82901","city":"Rock Springs","address":"402 S Main St","latitude":41.585957,"longitude":-109.220659,"location":"402 S. Main St.","region":"Rock Springs","url":"https://wyomingaa.org/12step/index.php/meetings/rock-springs-group-6/","group":"Rock Springs Group","timezone":"America/Denver"},{"feed":"wyomingaa.org","slug":"see-why-serenity-group-4","name":"See Why Serenity Group","day":2,"time":"12:00","end_time":"13:00","types":["O"],"state":"WY","postal_code":"82601","city":"Casper","address":"500 S Wolcott St","latitude":42.8453941,"longitude":-106.3242246,"location":"12-24 Club","region":"Casper","url":"https://wyomingaa.org/12step/index.php/meetings/see-why-serenity-group-4/","group":"See Why Serenity Group","timezone":"America/Denver"},{"feed":"wyomingaa.org","slug":"tomahawk-group-13","name":"Tomahawk Group","day":2,"time":"12:00","end_time":"13:00","types":["D","O"],"state":"WY","postal_code":"82935","city":"Green River","address":"520 Wilkes Dr #4b","latitude":41.5165336,"longitude":-109.4732277,"location":"520 Wilkes Dr. Unit 4B, Green River, WY 82935","region":"Green River","url":"https://wyomingaa.org/12step/index.php/meetings/tomahawk-group-13/","timezone":"America/Denver"},{"feed":"wyomingaa.org","slug":"917-beech-group-6","name":"917 Beech Group","day":2,"time":"14:00","types":["D","O"],"state":"WY","postal_code":"82601","city":"Casper","address":"917 N Beech St","latitude":42.8595217,"longitude":-106.320799,"location":"917 N Beech","region":"Casper","url":"https://wyomingaa.org/12step/index.php/meetings/917-beech-group-6/","group":"917 Beech Group","timezone":"America/Denver"},{"feed":"wyomingaa.org","slug":"300-club-5","name":"Group #1 at 300 Club","day":2,"time":"17:30","types":["D","O"],"state":"WY","postal_code":"82007","city":"Cheyenne","address":"300 Derr Ave","latitude":41.1139326,"longitude":-104.8115594,"location":"300 Club","region":"Cheyenne","url":"https://wyomingaa.org/12step/index.php/meetings/300-club-5/","group":"Group #1 at 300 Club","timezone":"America/Denver"},{"feed":"wyomingaa.org","slug":"bad-wolf-group","name":"Bad Wolf Group","day":2,"time":"17:30","types":["D","O","X"],"state":"WY","postal_code":"82001","city":"Cheyenne","address":"2200 Pioneer Ave #3rd","latitude":41.1373895,"longitude":-104.8218411,"location":"Laramie County Library in Cheyenne","region":"Cheyenne","url":"https://wyomingaa.org/12step/index.php/meetings/bad-wolf-group/","group":"Bad Wolf Group","timezone":"America/Denver"},{"feed":"wyomingaa.org","slug":"happy-hour-5","name":"Happy Hour","day":2,"time":"17:30","types":["C"],"state":"WY","postal_code":"82718","city":"Gillette","address":"2910 S Douglas Hwy","latitude":44.2673849,"longitude":-105.4942326,"location":"2910 South Douglas Hwy., Gillette, WY","region":"Gillette","url":"https://wyomingaa.org/12step/index.php/meetings/happy-hour-5/","group":"Happy Hour","timezone":"America/Denver"},{"feed":"wyomingaa.org","slug":"happy-hour-group-2","name":"Happy Hour Group","day":2,"time":"17:30","types":["D","O"],"state":"WY","postal_code":"82604","city":"Mills","address":"4733 W Yellowstone Hwy","latitude":42.8512073,"longitude":-106.3854871,"location":"Happy Hour Group","region":"Casper","url":"https://wyomingaa.org/12step/index.php/meetings/happy-hour-group-2/","group":"Happ Hour Group","timezone":"America/Denver"},{"feed":"wyomingaa.org","slug":"into-action-group","name":"Into Action Group","day":2,"time":"17:30","types":["D","O"],"state":"WY","postal_code":"82601","city":"Casper","address":"1124 N Elma St","latitude":42.8615783,"longitude":-106.3095678,"location":"Church","region":"Casper","url":"https://wyomingaa.org/12step/index.php/meetings/into-action-group/","group":"Into Action Group","timezone":"America/Denver"},{"feed":"wyomingaa.org","slug":"jackson-group-spanish-2","name":"Jackson Group -Spanish","day":2,"time":"17:30","end_time":"19:00","types":["D","S"],"state":"WY","postal_code":"83001","city":"Jackson","address":"170 N Glenwood St","latitude":43.4813653,"longitude":-110.7630794,"location":"St John 's Episcopal Church","region":"Jackson","url":"https://wyomingaa.org/12step/index.php/meetings/jackson-group-spanish-2/","group":"Jackson Group","timezone":"America/Denver"},{"feed":"wyomingaa.org","slug":"lander-group-10","name":"Lander Group","day":2,"time":"17:30","types":["D","O"],"state":"WY","postal_code":"82520","city":"Lander","address":"262 N 3rd St","latitude":42.834814,"longitude":-108.7300065,"location":"United Methodist Church","region":"Lander","url":"https://wyomingaa.org/12step/index.php/meetings/lander-group-10/","group":"Lander Group","timezone":"America/Denver"},{"feed":"wyomingaa.org","slug":"new-beginnings-group-3","name":"New Beginnings Group","day":2,"time":"17:30","end_time":"18:30","types":["D","O"],"state":"WY","postal_code":"82501","city":"Riverton","address":"118 N 5th St E","latitude":43.025342,"longitude":-108.385483,"location":"Brown House","region":"Riverton","url":"https://wyomingaa.org/12step/index.php/meetings/new-beginnings-group-3/","group":"New Beginnings Group","timezone":"America/Denver"},{"feed":"wyomingaa.org","slug":"womens-101","name":"Women's 101","day":2,"time":"17:30","end_time":"18:30","types":["B","O"],"state":"WY","postal_code":"82601","city":"Casper","address":"500 S Wolcott St","latitude":42.8453941,"longitude":-106.3242246,"location":"12-24 Club","region":"Casper","url":"https://wyomingaa.org/12step/index.php/meetings/womens-101/","timezone":"America/Denver"},{"feed":"wyomingaa.org","slug":"4th-dimension-group","name":"4th Dimension Group","day":2,"time":"18:00","end_time":"19:00","types":["C","D"],"state":"WY","postal_code":"82435","city":"Powell","address":"276 S Douglas St","latitude":44.7504112,"longitude":-108.7637937,"region":"Powell","notes":"Potluck and Speaker the last Monday of the Month (Open meeting),\nBirthday meeting the last Friday of the month.","url":"https://wyomingaa.org/12step/index.php/meetings/4th-dimension-group/","timezone":"America/Denver"},{"feed":"wyomingaa.org","slug":"cody-aa-group-6","name":"Cody AA Group","day":2,"time":"18:00","types":["D","O"],"state":"WY","postal_code":"82414","city":"Cody","address":"1501 Stampede Ave #3000","latitude":44.5205447,"longitude":-109.0584826,"location":"Park County Complex","region":"Cody","url":"https://wyomingaa.org/12step/index.php/meetings/cody-aa-group-6/","group":"Cody AA Group","timezone":"America/Denver"},{"feed":"wyomingaa.org","slug":"crossroads","name":"Crossroads","day":2,"time":"18:00","end_time":"19:00","state":"WY","postal_code":"82801","city":"Sheridan","address":"38 S Main St","latitude":44.7966771,"longitude":-106.9562543,"location":"Illuminate Church","region":"Sheridan","url":"https://wyomingaa.org/12step/index.php/meetings/crossroads/","group":"Crossroads","timezone":"America/Denver"},{"feed":"wyomingaa.org","slug":"fresh-air-group-2","name":"Fresh Acceptance","day":2,"time":"18:00","end_time":"19:00","types":["D","O"],"state":"WY","postal_code":"82501","city":"Riverton","address":"519 E Park Ave","latitude":43.0264562,"longitude":-108.3837928,"location":"St James Episcopal","region":"Riverton","url":"https://wyomingaa.org/12step/index.php/meetings/fresh-air-group-2/","group":"Fresh Acceptance","timezone":"America/Denver"},{"feed":"wyomingaa.org","slug":"lincoln-county-aa-2","name":"Lincoln County AA","day":2,"time":"18:00","end_time":"19:00","types":["D","O"],"state":"WY","postal_code":"83101","city":"Kemmerer","address":"506 Cedar Ave","latitude":41.7964412,"longitude":-110.5406564,"location":"St. James Episcopal Church","region":"Kemmerer","url":"https://wyomingaa.org/12step/index.php/meetings/lincoln-county-aa-2/","group":"Lincoln County AA","timezone":"America/Denver"},{"feed":"wyomingaa.org","slug":"tuesday-night-womens","name":"Tuesday Night Women's","day":2,"time":"18:00","end_time":"19:00","types":["D","O","W"],"state":"WY","postal_code":"82801","city":"Sheridan","address":"211 Smith St","latitude":44.7995142,"longitude":-106.9584231,"location":"The Hub on Smith","region":"Sheridan","url":"https://wyomingaa.org/12step/index.php/meetings/tuesday-night-womens/","timezone":"America/Denver"},{"feed":"wyomingaa.org","slug":"primary-purpose","name":"Primary Purpose","day":2,"time":"18:30","end_time":"19:30","types":["GR","O"],"state":"WY","postal_code":"83001","city":"Jackson","address":"750 Seneca Ln","latitude":43.4690754,"longitude":-110.8083697,"location":"Shepherds of the Mountain Lutheran Church","region":"Jackson","url":"https://wyomingaa.org/12step/index.php/meetings/primary-purpose/","group":"Primary Purpose","timezone":"America/Denver"},{"feed":"wyomingaa.org","slug":"town-of-dubois","name":"Town of Dubois","day":2,"time":"18:30","end_time":"19:30","types":["D","O"],"state":"WY","postal_code":"82513","city":"Dubois","address":"712 Meckem St","latitude":43.5379911,"longitude":-109.6409318,"url":"https://wyomingaa.org/12step/index.php/meetings/town-of-dubois/","timezone":"America/Denver"},{"feed":"wyomingaa.org","slug":"917-beech-group-7","name":"917 Beech Group","day":2,"time":"19:00","end_time":"20:00","types":["D","O"],"state":"WY","postal_code":"82601","city":"Casper","address":"917 N Beech St","latitude":42.8595217,"longitude":-106.320799,"location":"917 N Beech","region":"Casper","url":"https://wyomingaa.org/12step/index.php/meetings/917-beech-group-7/","group":"917 Beech Group","timezone":"America/Denver"},{"feed":"wyomingaa.org","slug":"afton-aa-2","name":"Afton AA","day":2,"time":"19:00","end_time":"20:00","types":["D","O"],"state":"WY","postal_code":"83110","city":"Afton","address":"253 Washington St","latitude":42.734257,"longitude":-110.9332412,"location":"VFW","region":"Afton","url":"https://wyomingaa.org/12step/index.php/meetings/afton-aa-2/","group":"Afton AA","timezone":"America/Denver"},{"feed":"wyomingaa.org","slug":"basin-aa-group","name":"Basin AA Group","day":2,"time":"19:00","types":["C","D"],"state":"WY","postal_code":"82410","city":"Basin","address":"401 S 8th St","latitude":44.3785276,"longitude":-108.0449604,"location":"Episcopal Church","region":"Basin","url":"https://wyomingaa.org/12step/index.php/meetings/basin-aa-group/","group":"Basin AA Group","timezone":"America/Denver"},{"feed":"wyomingaa.org","slug":"downtown-group-14","name":"Downtown Group","day":2,"time":"19:00","end_time":"20:00","types":["B","O"],"state":"WY","postal_code":"82070","city":"Laramie","address":"710 E Garfield St Room 278","latitude":41.3092699,"longitude":-105.5878341,"location":"Laramie Civic Center","region":"Laramie","url":"https://wyomingaa.org/12step/index.php/meetings/downtown-group-14/","group":"Downtown Group","timezone":"America/Denver"},{"feed":"wyomingaa.org","slug":"loft-aa-group-2","name":"Loft AA Group","day":2,"time":"19:00","end_time":"20:00","types":["GR","O","SM"],"state":"WY","postal_code":"82633","city":"Douglas","address":"628 E Richards St","latitude":42.7489005,"longitude":-105.3792416,"location":"Plains Trading Post","region":"Douglas","url":"https://wyomingaa.org/12step/index.php/meetings/loft-aa-group-2/","group":"Loft AA Group","timezone":"America/Denver"},{"feed":"wyomingaa.org","slug":"quick-fix-group","name":"Quick Fix Group","day":2,"time":"19:00","types":["D","O"],"state":"WY","postal_code":"82601","city":"Casper","address":"520 CY Ave","latitude":42.8398216,"longitude":-106.3311589,"location":"Church","region":"Casper","url":"https://wyomingaa.org/12step/index.php/meetings/quick-fix-group/","group":"Quick Fix Group","timezone":"America/Denver"},{"feed":"wyomingaa.org","slug":"quick-fix-group-2","name":"Quick Fix Group","day":2,"time":"19:00","end_time":"20:00","types":["D","O","EN"],"state":"WY","postal_code":"82601","city":"Casper","address":"520 CY Ave","latitude":42.8398216,"longitude":-106.3311589,"location":"Church","region":"Casper","url":"https://wyomingaa.org/12step/index.php/meetings/quick-fix-group-2/","timezone":"America/Denver"},{"feed":"wyomingaa.org","slug":"rawlins-group","name":"Rawlins AA","day":2,"time":"19:00","end_time":"20:00","types":["O"],"state":"WY","postal_code":"82301","city":"Rawlins","address":"222 W Spruce St","latitude":41.790949,"longitude":-107.2378235,"location":"St. Joseph's Catholic School - Basement (back entrance)","region":"Rawlins","notes":"St. Joseph's Catholic School (basement of Gym, parking lot in back of school)","url":"https://wyomingaa.org/12step/index.php/meetings/rawlins-group/","group":"Rawlins AA","timezone":"America/Denver"},{"feed":"wyomingaa.org","slug":"torrington-12th-gate-2","name":"Torrington 12th Gate","day":2,"time":"19:00","end_time":"20:00","types":["B","O"],"state":"WY","postal_code":"82240","city":"Torrington","address":"2702 Main St","latitude":42.0712664,"longitude":-104.1844607,"location":"United Methodist Church","region":"Torrington","url":"https://wyomingaa.org/12step/index.php/meetings/torrington-12th-gate-2/","group":"Torrington 12th Gate","timezone":"America/Denver"},{"feed":"wyomingaa.org","slug":"up-the-hill-meeting","name":"Up the Hill Meeting","day":2,"time":"19:00","types":["O","SP"],"state":"WY","postal_code":"82801","city":"Sheridan","address":"1898 Fort Rd","latitude":44.8273867,"longitude":-106.9858096,"location":"Sheridan VA Chapel","region":"Sheridan","url":"https://wyomingaa.org/12step/index.php/meetings/up-the-hill-meeting/","group":"Up the Hill lMeeting","timezone":"America/Denver"},{"feed":"wyomingaa.org","slug":"worland-aa","name":"Worland AA","day":2,"time":"19:00","types":["B","C"],"state":"WY","postal_code":"82401","city":"Worland","address":"1301 Big Horn Ave","latitude":44.0171011,"longitude":-107.9513891,"location":"The Methodist Church","region":"Worland","url":"https://wyomingaa.org/12step/index.php/meetings/worland-aa/","group":"Worland AA","timezone":"America/Denver"},{"feed":"wyomingaa.org","slug":"cody-aa-group-2","name":"Cody AA Group","day":2,"time":"19:30","end_time":"20:30","types":["D","O"],"state":"WY","postal_code":"82414","city":"Cody","address":"1501 Stampede Ave #3000","latitude":44.5205447,"longitude":-109.0584826,"location":"Park County Complex","region":"Cody","url":"https://wyomingaa.org/12step/index.php/meetings/cody-aa-group-2/","group":"Cody AA Group","timezone":"America/Denver"},{"feed":"wyomingaa.org","slug":"guernsey-aa","name":"Guernsey AA","day":2,"time":"19:30","types":["D","O"],"state":"WY","postal_code":"82214","city":"Guernsey","address":"100 S Wyoming Ave","latitude":42.26865,"longitude":-104.741058,"location":"Senior Center","region":"Guernsey","notes":"South Door","url":"https://wyomingaa.org/12step/index.php/meetings/guernsey-aa/","group":"Guernsey AA","timezone":"America/Denver"},{"feed":"wyomingaa.org","slug":"mobile-group","name":"Mobile Group","day":2,"time":"19:30","types":["D","O"],"state":"WY","postal_code":"82801","city":"Sheridan","address":"100 W Works St","latitude":44.7961184,"longitude":-106.9575019,"location":"Soup Kitchen at First Congregational Church","region":"Sheridan","url":"https://wyomingaa.org/12step/index.php/meetings/mobile-group/","group":"Mobile Group","timezone":"America/Denver"},{"feed":"wyomingaa.org","slug":"new-creations-group","name":"New Creations Group","day":2,"time":"19:30","types":["B","O"],"state":"WY","postal_code":"82009","city":"Cheyenne","address":"5716 Powderhouse Rd","latitude":41.1720483,"longitude":-104.8098041,"location":"Berean Church","region":"Cheyenne","url":"https://wyomingaa.org/12step/index.php/meetings/new-creations-group/","group":"New Creations Group","timezone":"America/Denver"},{"feed":"wyomingaa.org","slug":"rule-62","name":"Rule 62 Group","day":2,"time":"19:30","end_time":"20:30","types":["D","O"],"state":"WY","postal_code":"82834","city":"Buffalo","address":"132 N Adams Ave","latitude":44.3484359,"longitude":-106.7008102,"location":"First United Methodist Church Education Building","region":"Buffalo","url":"https://wyomingaa.org/12step/index.php/meetings/rule-62/","group":"Rule 62 Group","timezone":"America/Denver"},{"feed":"wyomingaa.org","slug":"tongue-river-valley-group","name":"Tongue River Valley Group","day":2,"time":"19:30","types":["12x12","B","O"],"state":"WY","postal_code":"82839","city":"Ranchester","address":"124 Dayton St","latitude":44.9081944,"longitude":-107.1600473,"location":"Tongue River Valley Community Center","region":"Ranchester","url":"https://wyomingaa.org/12step/index.php/meetings/tongue-river-valley-group/","group":"Tongue River Valley Group","timezone":"America/Denver"},{"feed":"wyomingaa.org","slug":"aa-sundance-group","name":"AA Sundance Group","day":2,"time":"20:00","types":["O"],"state":"WY","postal_code":"82729","city":"Sundance","address":"220 N 2nd St","latitude":44.4060884,"longitude":-104.3814398,"location":"Senior Center","region":"Sundance","url":"https://wyomingaa.org/12step/index.php/meetings/aa-sundance-group/","group":"AA Sundance Group","timezone":"America/Denver"},{"feed":"wyomingaa.org","slug":"gilette-hopefuls-3","name":"Gilette Hopefuls","day":2,"time":"20:00","types":["C"],"state":"WY","postal_code":"82718","city":"Gillette","address":"2910 S Douglas Hwy","latitude":44.2673849,"longitude":-105.4942326,"location":"2910 South Douglas Hwy., Gillette, WY","region":"Gillette","url":"https://wyomingaa.org/12step/index.php/meetings/gilette-hopefuls-3/","group":"Gillette Hopefuls","timezone":"America/Denver"},{"feed":"wyomingaa.org","slug":"jackson-group-4","name":"Jackson Group","day":2,"time":"20:00","end_time":"21:00","types":["O"],"state":"WY","postal_code":"83001","city":"Jackson","address":"170 N Glenwood St","latitude":43.4813653,"longitude":-110.7630794,"location":"St John 's Episcopal Church","region":"Jackson","url":"https://wyomingaa.org/12step/index.php/meetings/jackson-group-4/","group":"Jackson Group","timezone":"America/Denver"},{"feed":"wyomingaa.org","slug":"rock-springs-group-7","name":"Rock Springs Group","day":2,"time":"20:00","types":["C","D"],"state":"WY","postal_code":"82901","city":"Rock Springs","address":"402 S Main St","latitude":41.585957,"longitude":-109.220659,"location":"402 S. Main St.","region":"Rock Springs","url":"https://wyomingaa.org/12step/index.php/meetings/rock-springs-group-7/","group":"Rock Springs Group","timezone":"America/Denver"},{"feed":"wyomingaa.org","slug":"tomahawk-group-5","name":"Tomahawk Group","day":2,"time":"20:00","types":["D","O"],"state":"WY","postal_code":"82935","city":"Green River","address":"520 Wilkes Dr #4b","latitude":41.5165336,"longitude":-109.4732277,"location":"520 Wilkes Dr. Unit 4B, Green River, WY 82935","region":"Green River","url":"https://wyomingaa.org/12step/index.php/meetings/tomahawk-group-5/","group":"Tomahawk Group","timezone":"America/Denver"},{"feed":"wyomingaa.org","slug":"una-luz-en-mi-camino","name":"Una Luz En Mi Camino","day":2,"time":"21:00","end_time":"22:30","types":["D","O","S"],"state":"WY","postal_code":"82930","city":"Evanston","address":"96 Allegiance Cir","latitude":41.2601448,"longitude":-110.9986765,"location":"Alano Club","region":"Evanston","url":"https://wyomingaa.org/12step/index.php/meetings/una-luz-en-mi-camino/","timezone":"America/Denver"},{"feed":"wyomingaa.org","slug":"attitude-adjustment-4","name":"Attitude Adjustment","day":3,"time":"06:00","end_time":"07:00","types":["D","O"],"state":"WY","postal_code":"82007","city":"Cheyenne","address":"300 Derr Ave","latitude":41.1139326,"longitude":-104.8115594,"location":"300 Club","region":"Cheyenne","url":"https://wyomingaa.org/12step/index.php/meetings/attitude-adjustment-4/","group":"Group #1 at 300 Club","timezone":"America/Denver"},{"feed":"wyomingaa.org","slug":"attitude-adjustment","name":"Attitude Adjustment","day":3,"time":"07:00","types":["C","D"],"state":"WY","postal_code":"82801","city":"Sheridan","address":"1 S Tschirgi St","latitude":44.7970212,"longitude":-106.9579264,"location":"St. Peter's Episcopal Church - basement","region":"Sheridan","url":"https://wyomingaa.org/12step/index.php/meetings/attitude-adjustment/","group":"Attitude Adjustment Group","timezone":"America/Denver"},{"feed":"wyomingaa.org","slug":"fresh-acceptance-online-3","name":"Fresh Acceptance - Online","day":3,"time":"07:00","end_time":"08:00","types":["ONL"],"state":"WY","postal_code":"82501","city":"Riverton","latitude":43.024673,"longitude":-108.3806054,"location":"Fresh Acceptance - Online","region":"Riverton","conference_url":"https://zoom.us/j/3616388633?pwd=QWNDVngzV2tJNStKSXVtaXJBSHJFZz09","url":"https://wyomingaa.org/12step/index.php/meetings/fresh-acceptance-online-3/","group":"Fresh Acceptance","timezone":"America/Denver"},{"feed":"wyomingaa.org","slug":"jackson-group-23","name":"Jackson Group","day":3,"time":"07:00","end_time":"08:00","state":"WY","postal_code":"83001","city":"Jackson","address":"170 N Glenwood St","latitude":43.4813653,"longitude":-110.7630794,"location":"St John 's Episcopal Church","region":"Jackson","url":"https://wyomingaa.org/12step/index.php/meetings/jackson-group-23/","group":"Jackson","timezone":"America/Denver"},{"feed":"wyomingaa.org","slug":"jackson-group-online","name":"Jackson Group - Online","day":3,"time":"07:00","end_time":"08:00","types":["DR","O","ONL"],"state":"WY","postal_code":"83001","city":"Jackson","address":"170 N Glenwood St","latitude":43.4813653,"longitude":-110.7630794,"location":"St John 's Episcopal Church","region":"Jackson","conference_url":"https://zoom.us/j/8439035363?pwd=eHp1MW0rMCtaSjRPMFhOWThwY1lwQT09","url":"https://wyomingaa.org/12step/index.php/meetings/jackson-group-online/","group":"Jackson Group Online","timezone":"America/Denver"},{"feed":"wyomingaa.org","slug":"riverton-aa-5","name":"Riverton AA","day":3,"time":"07:00","end_time":"08:00","types":["D","O"],"state":"WY","postal_code":"82501","city":"Riverton","address":"118 N 5th St E","latitude":43.025342,"longitude":-108.385483,"location":"Brown House","region":"Riverton","url":"https://wyomingaa.org/12step/index.php/meetings/riverton-aa-5/","timezone":"America/Denver"},{"feed":"wyomingaa.org","slug":"eye-openers-group-4","name":"Eye Openers Group","day":3,"time":"07:15","types":["D","O","X"],"state":"WY","postal_code":"82001","city":"Cheyenne","address":"108 E 18th St","latitude":41.1353974,"longitude":-104.8147282,"location":"First United Methodist Church(North Entrance basement)","region":"Cheyenne","url":"https://wyomingaa.org/12step/index.php/meetings/eye-openers-group-4/","group":"Eye Openers Group","timezone":"America/Denver"},{"feed":"wyomingaa.org","slug":"coffee-break-meeting-3","name":"Coffee Break Meeting","day":3,"time":"08:30","types":["D","O"],"state":"WY","postal_code":"82601","city":"Casper","address":"500 S Wolcott St","latitude":42.8453941,"longitude":-106.3242246,"location":"12-24 Club","region":"Casper","url":"https://wyomingaa.org/12step/index.php/meetings/coffee-break-meeting-3/","group":"Coffee Break","timezone":"America/Denver"},{"feed":"wyomingaa.org","slug":"cody-aa-group-7","name":"Cody AA Group","day":3,"time":"12:00","types":["D","O"],"state":"WY","postal_code":"82414","city":"Cody","address":"1501 Stampede Ave #3000","latitude":44.5205447,"longitude":-109.0584826,"location":"Park County Complex","region":"Cody","url":"https://wyomingaa.org/12step/index.php/meetings/cody-aa-group-7/","group":"Cody AA Group","timezone":"America/Denver"},{"feed":"wyomingaa.org","slug":"downtown-group-9","name":"Downtown Group","day":3,"time":"12:00","types":["D","O"],"state":"WY","postal_code":"82070","city":"Laramie","address":"710 E Garfield St Room 278","latitude":41.3092699,"longitude":-105.5878341,"location":"Laramie Civic Center","region":"Laramie","url":"https://wyomingaa.org/12step/index.php/meetings/downtown-group-9/","group":"Downtown Group","timezone":"America/Denver"},{"feed":"wyomingaa.org","slug":"jackson-group-15","name":"Jackson Group","day":3,"time":"12:00","end_time":"13:00","types":["D"],"state":"WY","postal_code":"83001","city":"Jackson","address":"170 N Glenwood St","latitude":43.4813653,"longitude":-110.7630794,"location":"St John 's Episcopal Church","region":"Jackson","url":"https://wyomingaa.org/12step/index.php/meetings/jackson-group-15/","group":"Jackson","timezone":"America/Denver"},{"feed":"wyomingaa.org","slug":"keep-it-simple-4","name":"Keep It Simple","day":3,"time":"12:00","types":["D","O"],"state":"WY","postal_code":"82801","city":"Sheridan","address":"302 N Custer St","latitude":44.8010449,"longitude":-106.9504839,"location":"302 N Custer St, Sheridan, WY 82801","region":"Sheridan","url":"https://wyomingaa.org/12step/index.php/meetings/keep-it-simple-4/","group":"Keep It Simple","timezone":"America/Denver"},{"feed":"wyomingaa.org","slug":"lander-group-4","name":"Lander Group","day":3,"time":"12:00","end_time":"13:00","types":["C","D"],"state":"WY","postal_code":"82520","city":"Lander","address":"262 N 3rd St","latitude":42.834814,"longitude":-108.7300065,"location":"United Methodist Church","region":"Lander","url":"https://wyomingaa.org/12step/index.php/meetings/lander-group-4/","group":"Lander Group","timezone":"America/Denver"},{"feed":"wyomingaa.org","slug":"living-in-the-solutions-group-4","name":"Living in the Solutions Group","day":3,"time":"12:00","types":["D","O"],"state":"WY","postal_code":"82930","city":"Evanston","address":"96 Allegiance Cir","latitude":41.2601448,"longitude":-110.9986765,"location":"Alano Club","region":"Evanston","url":"https://wyomingaa.org/12step/index.php/meetings/living-in-the-solutions-group-4/","group":"Living in the Solutions Group","timezone":"America/Denver"},{"feed":"wyomingaa.org","slug":"loft-aa-group-5","name":"Loft AA Group","day":3,"time":"12:00","end_time":"13:00","types":["D","O"],"state":"WY","postal_code":"82633","city":"Douglas","address":"628 E Richards St","latitude":42.7489005,"longitude":-105.3792416,"location":"Plains Trading Post","region":"Douglas","notes":"Upstairs in back","url":"https://wyomingaa.org/12step/index.php/meetings/loft-aa-group-5/","timezone":"America/Denver"},{"feed":"wyomingaa.org","slug":"midday-serenity-4","name":"Midday Serenity","day":3,"time":"12:00","types":["B","O"],"state":"WY","postal_code":"82718","city":"Gillette","address":"2910 S Douglas Hwy","latitude":44.2673849,"longitude":-105.4942326,"location":"2910 South Douglas Hwy., Gillette, WY","region":"Gillette","url":"https://wyomingaa.org/12step/index.php/meetings/midday-serenity-4/","group":"Midday Serenity","timezone":"America/Denver"},{"feed":"wyomingaa.org","slug":"no-smoking-group-3","name":"The Nooner","day":3,"time":"12:00","types":["D","O"],"state":"WY","postal_code":"82001","city":"Cheyenne","address":"219 W 27th St","latitude":41.1420032,"longitude":-104.8221603,"location":"First Christian Church Basement","region":"Cheyenne","url":"https://wyomingaa.org/12step/index.php/meetings/no-smoking-group-3/","group":"No Smoking Group","timezone":"America/Denver"},{"feed":"wyomingaa.org","slug":"riverton-aa-6","name":"Riverton AA","day":3,"time":"12:00","types":["D","O"],"state":"WY","postal_code":"82501","city":"Riverton","address":"118 N 5th St E","latitude":43.025342,"longitude":-108.385483,"location":"Brown House","region":"Riverton","url":"https://wyomingaa.org/12step/index.php/meetings/riverton-aa-6/","group":"Riverton AA","timezone":"America/Denver"},{"feed":"wyomingaa.org","slug":"rock-springs-group-8","name":"Rock Springs Group","day":3,"time":"12:00","types":["C","D"],"state":"WY","postal_code":"82901","city":"Rock Springs","address":"402 S Main St","latitude":41.585957,"longitude":-109.220659,"location":"402 S. Main St.","region":"Rock Springs","url":"https://wyomingaa.org/12step/index.php/meetings/rock-springs-group-8/","group":"Rock Springs Group","timezone":"America/Denver"},{"feed":"wyomingaa.org","slug":"see-why-serenity-group-5","name":"See Why Serenity Group","day":3,"time":"12:00","end_time":"13:00","types":["O"],"state":"WY","postal_code":"82601","city":"Casper","address":"500 S Wolcott St","latitude":42.8453941,"longitude":-106.3242246,"location":"12-24 Club","region":"Casper","url":"https://wyomingaa.org/12step/index.php/meetings/see-why-serenity-group-5/","group":"See Why Serenity Group","timezone":"America/Denver"},{"feed":"wyomingaa.org","slug":"solutions-group-4","name":"Solutions Group","day":3,"time":"12:00","end_time":"13:00","types":["D","O"],"state":"WY","postal_code":"82834","city":"Buffalo","address":"122 E Bennett St","latitude":44.3450478,"longitude":-106.6963535,"location":"Union Congregational\u00a0Church","region":"Buffalo","url":"https://wyomingaa.org/12step/index.php/meetings/solutions-group-4/","group":"Solutions Group","timezone":"America/Denver"},{"feed":"wyomingaa.org","slug":"tomahawk-group-6","name":"Tomahawk Group","day":3,"time":"12:00","types":["B","O"],"state":"WY","postal_code":"82935","city":"Green River","address":"520 Wilkes Dr #4b","latitude":41.5165336,"longitude":-109.4732277,"location":"520 Wilkes Dr. Unit 4B, Green River, WY 82935","region":"Green River","url":"https://wyomingaa.org/12step/index.php/meetings/tomahawk-group-6/","group":"Tomahawk Group","timezone":"America/Denver"},{"feed":"wyomingaa.org","slug":"uinta-county-group-4","name":"Uinta County group","day":3,"time":"12:00","end_time":"13:00","types":["D","O"],"state":"WY","postal_code":"82930","city":"Evanston","address":"96 Allegiance Cir","latitude":41.2601448,"longitude":-110.9986765,"location":"Alano Club","region":"Evanston","url":"https://wyomingaa.org/12step/index.php/meetings/uinta-county-group-4/","group":"Uinta County Group","timezone":"America/Denver"},{"feed":"wyomingaa.org","slug":"917-beech-group-9","name":"917 Beech Group","day":3,"time":"14:00","types":["O"],"state":"WY","postal_code":"82601","city":"Casper","address":"917 N Beech St","latitude":42.8595217,"longitude":-106.320799,"location":"917 N Beech","region":"Casper","notes":"12 Step &amp; 12 Traditions","url":"https://wyomingaa.org/12step/index.php/meetings/917-beech-group-9/","group":"917 Beech Group","timezone":"America/Denver"},{"feed":"wyomingaa.org","slug":"917-beech-group-10","name":"917 Beech Group","day":3,"time":"17:19","end_time":"18:19","types":["B","LIT","O"],"state":"WY","postal_code":"82601","city":"Casper","address":"917 N Beech St","latitude":42.8595217,"longitude":-106.320799,"location":"917 N Beech","region":"Casper","url":"https://wyomingaa.org/12step/index.php/meetings/917-beech-group-10/","group":"917 Beech Group","timezone":"America/Denver"},{"feed":"wyomingaa.org","slug":"300-club-6","name":"Group #1 at 300 Club","day":3,"time":"17:30","types":["D","O"],"state":"WY","postal_code":"82007","city":"Cheyenne","address":"300 Derr Ave","latitude":41.1139326,"longitude":-104.8115594,"location":"300 Club","region":"Cheyenne","url":"https://wyomingaa.org/12step/index.php/meetings/300-club-6/","group":"Group #1 at 300 Club","timezone":"America/Denver"},{"feed":"wyomingaa.org","slug":"first-things-first-group-2","name":"First Things First Group","day":3,"time":"17:30","types":["B","O"],"state":"WY","postal_code":"82901","city":"Rock Springs","address":"Main Building, 2500 College Dr","latitude":41.5919918,"longitude":-109.2376207,"location":"Western Wyoming Community College, Room 1348","region":"Rock Springs","url":"https://wyomingaa.org/12step/index.php/meetings/first-things-first-group-2/","group":"First Things First Group","timezone":"America/Denver"},{"feed":"wyomingaa.org","slug":"happy-hour-6","name":"Happy Hour","day":3,"time":"17:30","types":["O"],"state":"WY","postal_code":"82718","city":"Gillette","address":"2910 S Douglas Hwy","latitude":44.2673849,"longitude":-105.4942326,"location":"2910 South Douglas Hwy., Gillette, WY","region":"Gillette","url":"https://wyomingaa.org/12step/index.php/meetings/happy-hour-6/","group":"Happy Hour","timezone":"America/Denver"},{"feed":"wyomingaa.org","slug":"new-beginnings-group-4","name":"New Beginnings Group","day":3,"time":"17:30","end_time":"18:30","types":["D","O"],"state":"WY","postal_code":"82501","city":"Riverton","address":"118 N 5th St E","latitude":43.025342,"longitude":-108.385483,"location":"Brown House","region":"Riverton","url":"https://wyomingaa.org/12step/index.php/meetings/new-beginnings-group-4/","group":"New Beginnings Group","timezone":"America/Denver"},{"feed":"wyomingaa.org","slug":"primary-purpose-group-2","name":"Happy Hour Group","day":3,"time":"17:30","end_time":"18:30","types":["D","O"],"state":"WY","postal_code":"82604","city":"Mills","address":"4733 W Yellowstone Hwy","latitude":42.8512073,"longitude":-106.3854871,"location":"Happy Hour Group","region":"Casper","url":"https://wyomingaa.org/12step/index.php/meetings/primary-purpose-group-2/","group":"Happy Hour Group","timezone":"America/Denver"},{"feed":"wyomingaa.org","slug":"4th-dimension-aa-3","name":"4th Dimension Group","day":3,"time":"18:00","end_time":"19:00","types":["C","D"],"state":"WY","postal_code":"82435","city":"Powell","address":"276 S Douglas St","latitude":44.7504112,"longitude":-108.7637937,"region":"Powell","notes":"Potluck and Speaker the last Monday of the Month (Open meeting),\nBirthday meeting the last Friday of the month.","url":"https://wyomingaa.org/12step/index.php/meetings/4th-dimension-aa-3/","group":"4th Dimension Group","timezone":"America/Denver"},{"feed":"wyomingaa.org","slug":"cody-aa-group-8","name":"Cody AA Group","day":3,"time":"18:00","types":["D","O"],"state":"WY","postal_code":"82414","city":"Cody","address":"1501 Stampede Ave #3000","latitude":44.5205447,"longitude":-109.0584826,"location":"Park County Complex","region":"Cody","url":"https://wyomingaa.org/12step/index.php/meetings/cody-aa-group-8/","group":"Cody AA Group","timezone":"America/Denver"},{"feed":"wyomingaa.org","slug":"jackson-womens-meeting","name":"Jackson Womens Meeting","day":3,"time":"18:00","end_time":"19:00","types":["W"],"state":"WY","postal_code":"83001","city":"Jackson","address":"170 N Glenwood St","latitude":43.4813653,"longitude":-110.7630794,"location":"St John 's Episcopal Church","region":"Jackson","url":"https://wyomingaa.org/12step/index.php/meetings/jackson-womens-meeting/","timezone":"America/Denver"},{"feed":"wyomingaa.org","slug":"living-sober-group","name":"Living Sober Group","day":3,"time":"18:00","end_time":"19:00","types":["D","O"],"state":"WY","postal_code":"82201","city":"Wheatland","address":"95 19th St","latitude":42.0487917,"longitude":-104.9690955,"location":"First Christian Church","region":"Wheatland","url":"https://wyomingaa.org/12step/index.php/meetings/living-sober-group/","group":"Living Sober","timezone":"America/Denver"},{"feed":"wyomingaa.org","slug":"mens-meeting","name":"Men's Meeting","day":3,"time":"18:30","end_time":"19:30","types":["D","M","O"],"state":"WY","postal_code":"82001","city":"Cheyenne","address":"1801 Logan Ave","latitude":41.1417647,"longitude":-104.797123,"location":"1801 Logan Ave, Cheyenne, WY 82001, USA","region":"Cheyenne","url":"https://wyomingaa.org/12step/index.php/meetings/mens-meeting/","group":"Men's Meeting","timezone":"America/Denver"},{"feed":"wyomingaa.org","slug":"1st-step-group","name":"1st Step Group","day":3,"time":"19:00","types":["C","D"],"state":"WY","postal_code":"82801","city":"Sheridan","address":"100 W Works St","latitude":44.7961184,"longitude":-106.9575019,"location":"Soup Kitchen at First Congregational Church","region":"Sheridan","url":"https://wyomingaa.org/12step/index.php/meetings/1st-step-group/","group":"1st Step Group","timezone":"America/Denver"},{"feed":"wyomingaa.org","slug":"aa-life-is-good-group","name":"AA Life is Good Group","day":3,"time":"19:00","types":["O"],"state":"WY","postal_code":"82721","city":"Moorcroft","address":"105 E Converse St","latitude":44.2632867,"longitude":-104.9497907,"location":"Moorcroft Library Basement","region":"Moorcroft","url":"https://wyomingaa.org/12step/index.php/meetings/aa-life-is-good-group/","group":"AA Life is Good Group","timezone":"America/Denver"},{"feed":"wyomingaa.org","slug":"alpine-aa-2","name":"Alpine AA","day":3,"time":"19:00","end_time":"20:00","types":["D","O"],"state":"WY","postal_code":"83128","city":"Alpine","address":"156 Morning Star Dr","latitude":43.1637762,"longitude":-111.0224623,"location":"Morning Start Baptist Church","region":"Alpine","url":"https://wyomingaa.org/12step/index.php/meetings/alpine-aa-2/","group":"Alpine AA","timezone":"America/Denver"},{"feed":"wyomingaa.org","slug":"big-piney","name":"Big Piney","day":3,"time":"19:00","end_time":"20:00","types":["D","O","EN"],"state":"WY","postal_code":"83113","city":"Big Piney","address":"410 Black Ave","latitude":42.5372137,"longitude":-110.1138059,"location":"Community Congregational Church","region":"Big Piney","url":"https://wyomingaa.org/12step/index.php/meetings/big-piney/","group":"Big Piney","timezone":"America/Denver"},{"feed":"wyomingaa.org","slug":"bridger-valley-fun-group-2","name":"Bridger Valley Fun Group","day":3,"time":"19:00","types":["12x12"],"state":"WY","postal_code":"82937","city":"Lyman","address":"E Clark St","latitude":41.3310602,"longitude":-110.2905638,"location":"Bridger Valley Baptist Church","region":"Mountain View","url":"https://wyomingaa.org/12step/index.php/meetings/bridger-valley-fun-group-2/","group":"Bridger Valley Fun Group","timezone":"America/Denver"},{"feed":"wyomingaa.org","slug":"common-solutions","name":"Common Solutions","day":3,"time":"19:00","end_time":"20:00","types":["LIT","O"],"state":"WY","postal_code":"82801","city":"Sheridan","address":"2121 Colonial Dr","latitude":44.7746431,"longitude":-106.9539917,"location":"First Presbyterian Church","region":"Sheridan","url":"https://wyomingaa.org/12step/index.php/meetings/common-solutions/","timezone":"America/Denver"},{"feed":"wyomingaa.org","slug":"downtown-group-15","name":"Downtown Group","day":3,"time":"19:00","end_time":"20:00","types":["D","O"],"state":"WY","postal_code":"82070","city":"Laramie","address":"710 E Garfield St Room 278","latitude":41.3092699,"longitude":-105.5878341,"location":"Laramie Civic Center","region":"Laramie","url":"https://wyomingaa.org/12step/index.php/meetings/downtown-group-15/","group":"Downtown Group","timezone":"America/Denver"},{"feed":"wyomingaa.org","slug":"loft-group-4","name":"Loft AA Group","day":3,"time":"19:00","end_time":"20:00","types":["D","O"],"state":"WY","postal_code":"82633","city":"Douglas","address":"628 E Richards St","latitude":42.7489005,"longitude":-105.3792416,"location":"Plains Trading Post","region":"Douglas","notes":"Upstairs in Back","url":"https://wyomingaa.org/12step/index.php/meetings/loft-group-4/","group":"Loft AA Group","timezone":"America/Denver"},{"feed":"wyomingaa.org","slug":"new-beginners-aa-3","name":"New Beginnings - Thermopolis","day":3,"time":"19:00","types":["D","O"],"state":"WY","postal_code":"82443","city":"Thermopolis","address":"1020 S 6th St","latitude":43.6370901,"longitude":-108.212246,"location":"The Cottage","region":"Thermopolis","notes":"The Cottage 6th. St. S. Water Treatment Plant via 8th. St. Bridge","url":"https://wyomingaa.org/12step/index.php/meetings/new-beginners-aa-3/","group":"New Beginners AA","timezone":"America/Denver"},{"feed":"wyomingaa.org","slug":"pinedale-aa-3","name":"Pinedale AA","day":3,"time":"19:00","end_time":"20:00","types":["B","O"],"state":"WY","postal_code":"82941","city":"Pinedale","address":"512 N Tyler Ave","latitude":42.8714846,"longitude":-109.8617454,"location":"Our Savior Lutheran Church","region":"Pinedale","url":"https://wyomingaa.org/12step/index.php/meetings/pinedale-aa-3/","group":"Pinedale AA","timezone":"America/Denver"},{"feed":"wyomingaa.org","slug":"rock-springs-spanish-group","name":"Rock Springs Spanish Group","day":3,"time":"19:00","end_time":"20:00","types":["C","D"],"state":"WY","postal_code":"82901","city":"Rock Springs","address":"402 S Main St","latitude":41.585957,"longitude":-109.220659,"location":"402 S. Main St.","region":"Rock Springs","notes":"This meeting is held in Spanish.\nEsta reuni\u00f3n se lleva a cabo en espa\u00f1ol.","url":"https://wyomingaa.org/12step/index.php/meetings/rock-springs-spanish-group/","timezone":"America/Denver"},{"feed":"wyomingaa.org","slug":"see-why-serenity-group-2","name":"See Why Serenity Group","day":3,"time":"19:00","types":["D","O"],"state":"WY","postal_code":"82601","city":"Casper","address":"500 S Wolcott St","latitude":42.8453941,"longitude":-106.3242246,"location":"12-24 Club","region":"Casper","notes":"Birthday Meeting Last Wednesday of the Month","url":"https://wyomingaa.org/12step/index.php/meetings/see-why-serenity-group-2/","group":"See Why Serenity Group","timezone":"America/Denver"},{"feed":"wyomingaa.org","slug":"uinta-county-group-5","name":"Uinta County Group","day":3,"time":"19:00","end_time":"20:00","types":["D","O"],"state":"WY","postal_code":"82930","city":"Evanston","address":"96 Allegiance Cir","latitude":41.2601448,"longitude":-110.9986765,"location":"Alano Club","region":"Evanston","url":"https://wyomingaa.org/12step/index.php/meetings/uinta-county-group-5/","group":"Uinta County Group","timezone":"America/Denver"},{"feed":"wyomingaa.org","slug":"wilson-aa-2","name":"Wilson AA","day":3,"time":"19:00","end_time":"20:00","types":["DB","D","O"],"state":"WY","postal_code":"83014","city":"Wilson","address":"5655 Main St","latitude":43.5009536,"longitude":-110.875146,"location":"Old Wilson School Community Center","region":"Wilson","url":"https://wyomingaa.org/12step/index.php/meetings/wilson-aa-2/","group":"Wilson AA","timezone":"America/Denver"},{"feed":"wyomingaa.org","slug":"gilette-hopefuls-4","name":"Gilette Hopefuls","day":3,"time":"20:00","types":["O"],"state":"WY","postal_code":"82718","city":"Gillette","address":"2910 S Douglas Hwy","latitude":44.2673849,"longitude":-105.4942326,"location":"2910 South Douglas Hwy., Gillette, WY","region":"Gillette","url":"https://wyomingaa.org/12step/index.php/meetings/gilette-hopefuls-4/","group":"Gillette Hopefuls","timezone":"America/Denver"},{"feed":"wyomingaa.org","slug":"jackson-group-7","name":"Jackson Group","day":3,"time":"20:00","end_time":"21:00","types":["O"],"state":"WY","postal_code":"83001","city":"Jackson","address":"170 N Glenwood St","latitude":43.4813653,"longitude":-110.7630794,"location":"St John 's Episcopal Church","region":"Jackson","url":"https://wyomingaa.org/12step/index.php/meetings/jackson-group-7/","group":"Jackson Group","timezone":"America/Denver"},{"feed":"wyomingaa.org","slug":"kaycee-meeting","name":"Kaycee Meeting","day":3,"time":"20:00","types":["D","O"],"state":"WY","postal_code":"82639","city":"Kaycee","latitude":43.7102499,"longitude":-106.6389338,"location":"Call (307) 381-1710","region":"Kaycee","url":"https://wyomingaa.org/12step/index.php/meetings/kaycee-meeting/","group":"Kaycee Meeting","timezone":"America/Denver"},{"feed":"wyomingaa.org","slug":"lander-group-18","name":"Lander Group","day":3,"time":"20:00","types":["ABSI","D","O"],"state":"WY","postal_code":"82520","city":"Lander","address":"262 N 3rd St","latitude":42.834814,"longitude":-108.7300065,"location":"United Methodist Church","region":"Lander","url":"https://wyomingaa.org/12step/index.php/meetings/lander-group-18/","group":"Lander Group","timezone":"America/Denver"},{"feed":"wyomingaa.org","slug":"rock-springs-group-10","name":"Rock Springs Group","day":3,"time":"20:00","types":["C","D"],"state":"WY","postal_code":"82901","city":"Rock Springs","address":"402 S Main St","latitude":41.585957,"longitude":-109.220659,"location":"402 S. Main St.","region":"Rock Springs","url":"https://wyomingaa.org/12step/index.php/meetings/rock-springs-group-10/","group":"Rock Springs Group","timezone":"America/Denver"},{"feed":"wyomingaa.org","slug":"tomahawk-group-7","name":"Tomahawk Group","day":3,"time":"20:00","types":["12x12","C"],"state":"WY","postal_code":"82935","city":"Green River","address":"520 Wilkes Dr #4b","latitude":41.5165336,"longitude":-109.4732277,"location":"520 Wilkes Dr. Unit 4B, Green River, WY 82935","region":"Green River","url":"https://wyomingaa.org/12step/index.php/meetings/tomahawk-group-7/","group":"Tomahawk Group","timezone":"America/Denver"},{"feed":"wyomingaa.org","slug":"823-group","name":"8:23 Group","day":3,"time":"20:23","types":["D","O"],"state":"WY","postal_code":"82636","city":"Evansville","address":"719 3rd St","latitude":42.8616841,"longitude":-106.2723034,"location":"Church","region":"Evansville","url":"https://wyomingaa.org/12step/index.php/meetings/823-group/","group":"8:23 Group","timezone":"America/Denver"},{"feed":"wyomingaa.org","slug":"3-legacies-as-bill-sees-it","name":"3 Legacies - As Bill Sees It","day":4,"time":"06:00","end_time":"07:00","types":["ABSI","D","O"],"state":"WY","postal_code":"82801","city":"Sheridan","address":"215 W Works St","latitude":44.7966957,"longitude":-106.9588018,"location":"First United Methodist Church","region":"Sheridan","url":"https://wyomingaa.org/12step/index.php/meetings/3-legacies-as-bill-sees-it/","group":"3 Legacies Group","timezone":"America/Denver"},{"feed":"wyomingaa.org","slug":"attitude-adjustment-5","name":"Attitude Adjustment","day":4,"time":"06:00","end_time":"07:00","types":["D","O"],"state":"WY","postal_code":"82007","city":"Cheyenne","address":"300 Derr Ave","latitude":41.1139326,"longitude":-104.8115594,"location":"300 Club","region":"Cheyenne","url":"https://wyomingaa.org/12step/index.php/meetings/attitude-adjustment-5/","timezone":"America/Denver"},